DateTime,MagYaw,YawVelocityDegreesPerSecond,YawIntegral,YawProportional,YawDerivativeError,YawControl,YawIntegralGain,YawDerivativeGain,YawProportionalGain,YawAntiWindupGain,XNEDBodyFrame,XVelocityMetersPerSecond,ThetaPitchDegrees,XIntegral,XProportional,XDerivativeError,LongitudeControl,XIntegralGain,XDerivativeGain,XProportionalGain,XAntiWindupGain,LongitudeInnerLoopGain,XLongitudeOuterLoopSetpoint,PitchAngularVelocityRadsPerSecond,PitchAngularVelocityGain,YNEDBodyFrame,YVelocityMetersPerSecond,PhiRollDegrees,YIntegral,YProportional,YDerivativeError,LateralControl,YIntegralGain,YDerivativeGain,YProportionalGain,YAntiWindupGain,LateralInnerLoopGain,YLateralOuterLoopSetpoint,RollAngularVelocityRadsPerSecond,RollAngularVelocityGain,AltitudeFeetAgl,ZVelocityMetersPerSecond,ZIntegral,ZProportional,ZDerivativeError,MainRotorCollectiveControl,ZIntegralGain,ZDerivativeGain,ZProportionalGain,ZAntiWindupGain,ZNEDBodyFrame,LatitudeDegrees,LongitudeDegrees,Timeouts,UnrecognizedMsgTypes,ChecksumErrors,NumOfBlownFrames,MessageType,NumOfBytesInMsg
11.42.53.529726, 348.7217,0.747503,0,0,0,0,0,0,0,0,0,-0.04280647,0.348871,0,0,0,0,0,0,0,0,0,0,0,0,0,0.06697103,0.6395229,0,0,0,0,0,0,0,0,0,0,0,0,0.0924667,0.001591286,0,0,0,0,0,0,0,0,0,0,0,191,0,0,0,2,229
11.42.53.600730, 349.237,0.7318347,-0.0281958,-11.27832,0.747503,-0.235275,0,0,0,0,0,-0.04329517,0.3452868,0,0,-0.04280647,-0.0132819,0,0,0,0,0,-0.07957722,0,0,0,0.06682487,0.64622,0,0,0.06697103,-0.04136071,0,0,0,0,0,0.1899499,0,0,0.09258163,0.001067382,0.09999999,100,0.005220056,0.5,0,0,0,0,0,0,0,191,0,0,1,2,229
11.42.53.702736, 349.7157,9.527538,-0.0551033,-10.763,0.7318347,-0.2526901,0,0,0,0,0.02590975,-0.03752459,0.3406706,0,0,-0.04329517,-0.01319895,0,0,0,0,0,-0.08048573,0,0,0.2665623,0.02579997,0.6215141,0,0,0.06682487,-0.04201498,0,0,0,0,0,0.1895354,0,0,0.09267656,-0.000533105,0,100,0.003501439,0.5,0,0,0,0,-0.6544259,0,0,191,0,0,2,2,229
11.42.53.800741, 352.0051,28.84935,-0.08081398,-10.28427,9.527538,-0.2549363,0,0,0,0,0.02590975,-0.009487845,0.2940229,0,0.02590975,-0.03752459,-0.01249117,0,0,0,0,0,-0.06227029,0,0,0.2665623,-0.04754839,0.2672488,0,0.2665623,0.02579997,-0.01520647,0,0,0,0,0,0.4562264,0,0,0.3389418,-1.494873,0,99.34557,-0.001748798,0.5,0,0,0,0,-0.6544259,0,0,191,0,0,3,2,229
11.42.53.903747, 356.429,47.77099,-0.1207885,-7.994904,28.84935,-0.2205035,0,0,0,0,0.3637029,0.01525479,0.5093416,0,0.3637029,-0.009487845,-0.009429358,0,0,0,0,0,0.08747224,0,0,0.2665623,-0.1319083,-0.5105352,0,0.2665623,-0.04754839,-0.001753552,0,0,0,0,0,0.2481885,0,0,0.9163751,-1.795567,0,98.97694,-4.903781,0.5,0,0,0,0,-1.023066,0,0,191,0,0,4,2,229
11.42.54.001753, 1.992846,58.12954,-0.129716,-3.570984,47.77099,-0.1162616,0,0,0,0,0.1094956,0.02926853,0.8887149,0,0.1094956,0.01525479,-0.0139295,0,0,0,0,0,0.06000288,0,0,0.1883342,-0.1829008,-1.228003,0,0.1883342,-0.1319083,0.03744768,0,0,0,0,0,-0.1034953,0,0,1.510482,-1.814613,0,98.744,-5.890179,0.5,0,0,0,0,-1.256002,0,0,191,0,0,5,2,229
11.42.54.103759, 8.18198,63.651,-0.1247339,1.992846,58.12954,0.008709967,0,0,0,0,0.03713965,0.03420928,1.409819,0,0.1094956,0.02926853,-0.02488247,0,0,0,0,0,0.08605441,0,0,0.2433872,-0.218487,-1.701343,0,0.1883342,-0.1829008,0.0901487,0,0,0,0,0,-0.2481254,0,0,2.092157,-1.77039,0,98.744,-5.952657,0.5,0,0,0,0,-2.000471,0,0,191,0,0,6,2,229
11.42.54.201764, 14.41318,63.91379,-0.1042789,8.18198,63.651,0.1526633,0,0,0,0,0.3749328,0.02268836,2.026962,0,0.03713965,0.03420928,-0.04140021,0,0,0,0,0,0.07432842,0,0,0.2433872,-0.2330928,-1.769292,0,0.2433872,-0.218487,0.1316884,0,0,0,0,0,-0.2699472,0,0,2.647558,-1.70605,0,97.99953,-5.807588,0.5,0,0,0,0,-2.369111,0,0,191,0,0,7,2,229
11.42.54.300770, 20.33445,60.69754,-0.03221301,14.41318,63.91379,0.3402625,0,0,0,0,0.3025769,-0.008106068,2.677465,0,0.3025769,0.02268836,-0.05816929,0,0,0,0,0,0.1296224,0,0,0.2984403,-0.2338348,-1.312564,0,0.2984403,-0.2330928,0.1341284,0,0,0,0,0,-0.2322624,0,0,3.175541,-1.638518,0,96.88642,-5.596528,0.5,0,0,0,0,-3.11358,0,0,191,0,0,8,2,229
11.42.54.402776, 25.76448,54.30741,0.01862312,20.33445,60.69754,0.4951238,0,0,0,0,-0.04989612,-0.06645742,3.312514,0,-0.04989612,-0.008106068,-0.08391558,0,0,0,0,0,-0.02948916,0,0,0.008702993,-0.2191716,-0.2775563,0,0.008702993,-0.2338348,0.06088971,0,0,0,0,0,-0.6507194,0,0,3.686347,-1.572054,0,96.56344,-5.374994,0.5,0,0,0,0,-3.436558,0,0,191,0,0,9,2,229
11.42.54.500781, 30.1943,42.60627,0.08303432,25.76448,54.30741,0.6492101,0,0,0,0,0.2878971,-0.1645365,3.884444,0,-0.04989612,-0.06645742,-0.1069648,0,0,0,0,0,-0.1379643,0,0,0.008702993,-0.1841955,1.233515,0,0.008702993,-0.2191716,-0.0305048,0,0,0,0,0,-0.6091301,0,0,4.177555,-1.507795,0,96.56344,-5.156967,0.5,0,0,0,0,-3.805199,0,0,191,0,0,10,2,229
11.42.54.603787, 33.29143,28.38633,0.1585201,30.1943,42.60627,0.7870672,0,0,0,0,0.2155414,-0.2926463,4.37561,0,0.2878971,-0.1645365,-0.1273206,0,0,0,0,0,-0.2226711,0,0,0.06375611,-0.1408272,2.851465,0,0.008702993,-0.1841955,-0.1603967,0,0,0,0,0,-0.5099275,0,0,4.646606,-1.444731,0,96.1948,-4.946171,0.5,0,0,0,0,-4.549668,0,0,191,0,0,11,2,229
11.42.54.700793, 34.80794,11.43127,0.3249772,33.29143,28.38633,0.9870924,0,0,0,0,-0.1946077,-0.4496187,4.809403,0,-0.1946077,-0.2926463,-0.1505778,0,0,0,0,0,-0.600271,0,0,0.1188092,-0.08944409,4.172952,0,0.1188092,-0.1408272,-0.2906534,0,0,0,0,0,-0.2286993,0,0,5.096332,-1.381508,0,95.0745,-4.739294,0.5,0,0,0,0,-4.925496,0,0,191,0,0,12,2,229
11.42.54.803799, 34.53018,-7.287423,0.4119971,34.80794,11.43127,1,0,0,0,0,0.1431854,-0.622402,5.219677,0,0.1431854,-0.4496187,-0.1737198,0,0,0,0,0,-0.7944605,0,0,0.1188092,-0.03564827,4.768447,0,0.1188092,-0.08944409,-0.391544,0,0,0,0,0,-0.08296141,0,0,5.527482,-1.319539,0,94.70586,-4.531899,0.5,0,0,0,0,-5.294137,0,0,191,0,0,13,2,229
11.42.54.901804, 31.95116,-31.73818,0.4975832,34.53018,-7.287423,1,0,0,0,0,0.07082939,-0.8120462,5.635256,0,0.1431854,-0.622402,-0.1963956,0,0,0,0,0,-1.115665,0,0,0.1738622,0.02880896,4.296557,0,0.1188092,-0.03564827,-0.4322922,0,0,0,0,0,0.06961969,0,0,5.943049,-1.262566,0,94.70586,-4.328617,0.5,0,0,0,0,-6.038606,0,0,191,0,0,14,2,229
11.42.54.999810, 27.42119,-49.92778,0.5762283,31.95116,-31.73818,1,0,0,0,0,0.1544154,-0.9647321,5.942891,0,0.07082939,-0.8120462,-0.2208558,0,0,0,0,0,-1.489124,0,0,0.0956341,0.0704606,2.546216,0,0.1738622,0.02880896,-0.3647806,0,0,0,0,0,0.3315509,0,0,6.343152,-1.221859,0,93.9614,-4.141721,0.5,0,0,0,0,-6.640182,0,0,191,0,0,15,2,229
11.42.55.101816, 21.47504,-63.50986,0.7115265,27.42119,-49.92778,1,0,0,0,0,0.1544154,-1.074818,5.961358,0,0.1544154,-0.9647321,-0.2384427,0,0,0,0,0,-1.748811,0,0,0.0956341,0.08498728,-0.3791702,0,0.0956341,0.0704606,-0.2032227,0,0,0,0,0,0.3372736,0,0,6.731911,-1.200014,0,93.35982,-4.008188,0.5,0,0,0,0,-6.640182,0,0,191,0,0,16,2,229
11.42.55.200821, 14.41726,-74.3843,0.7638638,21.47504,-63.50986,1,0,0,0,0,0.1544154,-1.14475,5.508723,0,0.1544154,-1.074818,-0.2453593,0,0,0,0,0,-1.95346,0,0,0.0956341,0.07116693,-4.009408,0,0.0956341,0.08498728,0.06970342,0,0,0,0,0,0.3784756,0,0,7.117488,-1.194604,0,93.35982,-3.936527,0.5,0,0,0,0,-6.640182,0,0,191,0,0,17,2,229
11.42.55.302827, 6.551443,-83.60251,0.7993575,14.41726,-74.3843,0.9420031,0,0,0,0,-0.2557337,-1.178945,4.466366,0,0.1544154,-1.14475,-0.2353578,0,0,0,0,0,-2.083465,0,0,0.1506872,0.03089516,-7.523302,0,0.0956341,0.07116693,0.400079,0,0,0,0,0,0.339277,0,0,7.500784,-1.200258,0,93.35982,-3.91878,0.5,0,0,0,0,-7.01601,0,0,191,0,0,18,2,229
11.42.55.400833, 357.968,-92.10445,0.8157361,6.551443,-83.60251,0.7977678,0,0,0,0,-0.3280897,-1.187591,2.812745,0,-0.2557337,-1.178945,-0.2086899,0,0,0,0,0,-2.265566,0,0,0.2057402,-0.02092474,-9.909164,0,0.1506872,0.03089516,0.720127,0,0,0,0,0,0.3041655,0,0,7.886068,-1.210278,0,92.98399,-3.937326,0.5,0,0,0,0,-7.760478,0,0,191,0,0,19,2,229
11.42.55.502839, 348.8332,-96.63805,0.805576,-2.032013,-92.10445,0.6149291,0,0,0,0,-0.5822968,-1.173437,0.696436,0,-0.5822968,-1.187591,-0.1585741,0,0,0,0,0,-2.376015,0,0,0.1275122,-0.07219891,-10.11309,0,0.1275122,-0.02092474,0.9333827,0,0,0,0,0,0.1238862,0,0,8.277259,-1.215331,0,92.00658,-3.970195,0.5,0,0,0,0,-7.993414,0,0,191,0,0,20,2,229
11.42.55.600844, 339.9568,-93.13725,0.777659,-11.16678,-96.63805,0.4107473,0,0,0,0,-0.6546526,-1.136683,-1.424234,0,-0.6546526,-1.173437,-0.09507855,0,0,0,0,0,-2.370614,0,0,0.1825652,-0.1072295,-7.466632,0,0.1825652,-0.07219891,0.9357004,0,0,0,0,0,0.05756845,0,0,8.665164,-1.21654,0,91.26212,-3.986772,0.5,0,0,0,0,-8.737883,0,0,191,0,0,21,2,229
11.42.55.703850, 327.7961,-82.19579,0.727551,-20.04321,-93.13725,0.2025024,0,0,0,0,-0.6546526,-1.030203,-3.874472,0,-0.6546526,-1.136683,-0.02721967,0,0,0,0,0,-2.302288,0,0,0.1825652,-0.07411934,0.5878664,0,0.1825652,-0.1072295,0.6830856,0,0,0,0,0,-0.04178885,0,0,9.233939,-1.230856,0,91.26212,-3.990737,0.5,0,0,0,0,-8.737883,0,0,191,0,0,22,2,229
11.42.55.801856, 321.5658,-64.06382,0.6470413,-32.20389,-82.19579,-0.08443823,0,0,0,0,-0.7270088,-0.9216905,-4.768562,0,-0.6546526,-1.030203,0.05487403,0,0,0,0,0,-2.104342,0,0,0.2376184,0.004723891,7.385977,0,0.1825652,-0.07411934,-0.04928853,0,0,0,0,0,0.05212153,0,0,9.601716,-1.240814,0,91.26212,-4.0377,0.5,0,0,0,0,-9.482351,0,0,191,0,0,23,2,229
11.42.55.899861, 317.4879,-38.8166,0.45487,-38.43423,-64.06382,-0.3615478,0,0,0,0,-0.9812164,-0.7828696,-5.284534,0,-0.9812164,-0.9216905,0.08819604,0,0,0,0,0,-1.996994,0,0,0.1593902,0.1293301,14.30094,0,0.1593902,0.004723891,-0.6468632,0,0,0,0,0,0.2424421,0,0,9.961407,-1.243914,0,90.28471,-4.070366,0.5,0,0,0,0,-9.715288,0,0,191,0,0,24,2,229
11.42.56.001867, 316.5769,11.39108,0.3485897,-42.51215,-38.8166,-0.5011805,0,0,0,0,-1.053572,-0.5503703,-6.487726,0,-1.053572,-0.7828696,0.1092656,0,0,0,0,0,-1.759837,0,0,0.2144432,0.3224237,21.22042,0,0.2144432,0.1293301,-1,0,0,0,0,0,0.6749737,0,0,10.50607,-1.228299,0,89.54025,-4.080535,0.5,0,0,0,0,-10.45976,0,0,191,0,0,25,2,229
11.42.56.100873, 319.6948,49.61283,0.240032,-43.4231,11.39108,-0.5430997,0,0,0,0,-0.7157788,-0.3956345,-8.227106,0,-1.053572,-0.5503703,0.1599633,0,0,0,0,0,-1.327621,0,0,0.2144432,0.4234032,22.10663,0,0.2144432,0.3224237,-1,0,0,0,0,0,1.222645,0,0,10.85222,-1.205234,0,89.54025,-4.029312,0.5,0,0,0,0,-10.8284,0,0,191,0,0,26,2,229
11.42.56.202879, 325.7923,84.99236,0.1392689,-40.30524,49.61283,-0.5227333,0,0,0,0,-0.7881351,-0.2328723,-10.81542,0,-0.7157788,-0.3956345,0.2258276,0,0,0,0,0,-0.9423445,0,0,0.2694962,0.5089488,19.33304,0,0.2144432,0.4234032,-1,0,0,0,0,0,1.509053,0,0,11.18247,-1.163082,0,89.1716,-3.953651,0.5,0,0,0,0,-11.57287,0,0,191,0,0,27,2,229
11.42.56.300884, 339.7628,121.6927,-0.03176951,-34.20767,84.99236,-0.522329,0,0,0,0,-0.7881351,0.04027187,-14.95404,0,-0.7881351,-0.2328723,0.3147969,0,0,0,0,0,-0.6606807,0,0,0.2694962,0.6096496,9.47583,0,0.2694962,0.5089488,-1,0,0,0,0,0,1.830797,0,0,11.64832,-1.077523,0,88.42713,-3.815375,0.5,0,0,0,0,-11.57287,0,0,191,0,0,28,2,229
11.42.56.402890, 351.6073,137.5961,-0.0823624,-20.23715,121.6927,-0.2538621,0,0,0,0,-1.042342,0.2494634,-16.62982,0,-1.042342,0.04027187,0.4565578,0,0,0,0,0,-0.2263713,0,0,0.1912682,0.6185316,0.123426,0,0.1912682,0.6096496,-0.6874082,0,0,0,0,0,2.004002,0,0,11.94205,-1.026323,0,88.1942,-3.534706,0.5,0,0,0,0,-11.8058,0,0,191,0,0,29,2,229
11.42.56.501896, 5.446104,152.3378,-0.1033442,-8.392731,137.5961,-0.02962793,0,0,0,0,-0.7045484,0.5034683,-16.43851,0,-1.042342,0.2494634,0.5205625,0,0,0,0,0,0.1625158,0,0,0.1912682,0.5393901,-10.89769,0,0.1912682,0.6185316,0.1753306,0,0,0,0,0,2.029194,0,0,12.23097,-0.9748894,0,88.1942,-3.36675,0.5,0,0,0,0,-12.17444,0,0,191,0,0,30,2,229
11.42.56.600901, 19.09273,152.4385,-0.08972897,5.446104,152.3378,0.2641109,0,0,0,0,-0.7045484,0.7809011,-13.83484,0,-0.7045484,0.5034683,0.532296,0,0,0,0,0,0.7323331,0,0,0.1912682,0.4315732,-21.51335,0,0.1912682,0.5393901,1,0,0,0,0,0,1.804724,0,0,12.49925,-0.9093042,0,87.82556,-3.198027,0.5,0,0,0,0,-12.17444,0,0,191,0,0,31,2,229
11.42.56.701907, 32.10439,150.7208,0.005734675,19.09273,152.4385,0.6118087,0,0,0,0,-0.7769051,1.096789,-8.852925,0,-0.7769051,0.7809011,0.4675705,0,0,0,0,0,1.22717,0,0,0.2463212,0.2772202,-30.51014,0,0.2463212,0.4315732,1,0,0,0,0,0,1.578035,0,0,12.74304,-0.8123735,0,87.08109,-2.982882,0.5,0,0,0,0,-12.91891,0,0,191,0,0,32,2,229
11.42.56.799913, 43.4732,138.6947,0.08599566,32.10439,150.7208,0.9295528,0,0,0,0,-0.7769051,1.39864,-2.225932,0,-0.7769051,1.096789,0.3306873,0,0,0,0,0,1.814405,0,0,0.2463212,0.1271376,-34.93177,0,0.2463212,0.2772202,1,0,0,0,0,0,1.140243,0,0,12.96054,-0.7144665,0,87.08109,-2.66491,0.5,0,0,0,0,-12.91891,0,0,191,0,0,33,2,229
11.42.56.901919, 52.42695,110.2052,0.1946787,43.4732,138.6947,1,0,0,0,0,-0.947526,1.651571,4.682267,0,-0.7769051,1.39864,0.1426458,0,0,0,0,0,2.375546,0,0,0.08986521,-0.03273648,-33.72463,0,0.2463212,0.1271376,1,0,0,0,0,0,0.714564,0,0,13.1591,-0.6321754,0,87.08109,-2.343736,0.5,0,0,0,0,-13.75342,0,0,191,0,0,34,2,229
11.42.56.999924, 58.0335,67.02211,0.3234637,52.42695,110.2052,1,0,0,0,0,-0.4391117,1.818193,10.37827,0,-0.947526,1.651571,-0.0584608,0,0,0,0,0,2.796435,0,0,0.2463212,-0.2271398,-28.34216,0,0.08986521,-0.03273648,1,0,0,0,0,0,0.03628583,0,0,13.347,-0.5963906,0,86.24658,-2.073788,0.5,0,0,0,0,-13.28755,0,0,191,0,0,35,2,229
11.42.57.102930, 59.46927,17.76635,0.6024092,58.0335,67.02211,1,0,0,0,0,-0.947526,1.883244,14.00891,0,-0.947526,1.818193,-0.2208797,0,0,0,0,0,3.106185,0,0,0.08986521,-0.459488,-20.58599,0,0.08986521,-0.2271398,1,0,0,0,0,0,-0.5151001,0,0,13.54321,-0.6252778,0,86.24658,-1.9564,0.5,0,0,0,0,-13.75342,0,0,191,0,0,36,2,229
11.42.57.200936, 57.31335,-22.364,0.7432248,59.46927,17.76635,1,0,0,0,0,-0.1013188,1.852424,16.12119,0,-0.1013188,1.883244,-0.3266543,0,0,0,0,0,3.471669,0,0,0.2463212,-0.724358,-12.01006,0,0.2463212,-0.459488,1,0,0,0,0,0,-0.9492821,0,0,13.7629,-0.7086731,0,86.34381,-2.051161,0.5,0,0,0,0,-13.65619,0,0,191,0,0,37,2,229
11.42.57.302942, 52.10925,-54.62469,0.8777961,57.31335,-22.364,1,0,0,0,0,-0.2719398,1.681205,17.24728,0,-0.1013188,1.852424,-0.3939111,0,0,0,0,0,3.414376,0,0,0.08986521,-0.9840279,-3.468482,0,0.2463212,-0.724358,0.9484765,0,0,0,0,0,-1.700533,0,0,14.02326,-0.8416007,0,86.34381,-2.324731,0.5,0,0,0,0,-14.4907,0,0,191,0,0,38,2,229
11.42.57.400947, 44.35469,-79.66268,0.9990766,52.10925,-54.62469,1,0,0,0,0,-0.2719398,1.348812,17.82933,0,-0.2719398,1.681205,-0.4402158,0,0,0,0,0,3.046769,0,0,0.08986521,-1.184049,4.665967,0,0.08986521,-0.9840279,0.07420907,0,0,0,0,0,-2.661862,0,0,14.33231,-0.9939189,0,85.50929,-2.760787,0.5,0,0,0,0,-14.4907,0,0,191,0,0,39,2,229
11.42.57.503953, 34.56751,-97.19717,1.204261,44.35469,-79.66268,1,0,0,0,0,0.06585312,0.8683706,18.22502,0,0.06585312,1.348812,-0.4774149,0,0,0,0,0,2.526472,0,0,0.08986521,-1.261402,12.2612,0,0.08986521,-1.184049,-0.7263535,0,0,0,0,0,-3.229181,0,0,14.68778,-1.127555,0,85.14066,-3.260452,0.5,0,0,0,0,-14.85934,0,0,191,0,0,40,2,229
11.42.57.601959, 23.15799,-109.8499,1.281769,34.56751,-97.19717,1,0,0,0,0,0.06585312,0.3683431,18.64097,0,0.06585312,0.8683706,-0.5143421,0,0,0,0,0,1.633332,0,0,0.08986521,-1.21867,17.11262,0,0.08986521,-1.261402,-1,0,0,0,0,0,-3.448579,0,0,15.06953,-1.190847,0,85.14066,-3.698833,0.5,0,0,0,0,-14.85934,0,0,191,0,0,41,2,229
11.42.57.699964, 10.43457,-119.7916,1.332077,23.15799,-109.8499,1,0,0,0,0,0.3224673,-0.06832366,18.81853,0,0.06585312,0.3683431,-0.5560529,0,0,0,0,0,0.7037813,0,0,-1.022734,-1.101128,16.8033,0,0.08986521,-1.21867,-1,0,0,0,0,0,-3.327377,0,0,15.45504,-1.191489,0,85.14066,-3.906454,0.5,0,0,0,0,-15.30237,0,0,191,0,0,42,2,229
11.42.57.801970, 356.7389,-128.2304,1.352391,10.43457,-119.7916,1,0,0,0,0,0.2501116,-0.4301862,18.14398,0,0.3224673,-0.06832366,-0.5844228,0,0,0,0,0,-0.03382062,0,0,-0.9676805,-0.9289767,12.06471,0,-1.022734,-1.101128,-1,0,0,0,0,0,-4.592797,0,0,15.83274,-1.170521,0,84.69763,-3.908561,0.5,0,0,0,0,-16.04684,0,0,191,0,0,43,2,229
11.42.57.900976, 342.5806,-136.015,1.331952,-3.261139,-128.2304,1,0,0,0,0,0.2501116,-0.6887079,16.10717,0,0.2501116,-0.4301862,-0.5850137,0,0,0,0,0,-0.7274338,0,0,-0.9676805,-0.7770133,4.75339,0,-0.9676805,-0.9289767,-1,0,0,0,0,0,-4.025414,0,0,16.19841,-1.143403,0,83.95316,-3.839778,0.5,0,0,0,0,-16.04684,0,0,191,0,0,44,2,229
11.42.58.002982, 328.3593,-144.1895,1.287818,-17.41937,-136.015,0.7399548,0,0,0,0,0.2501116,-0.8611539,12.39344,0,0.2501116,-0.6887079,-0.5367711,0,0,0,0,0,-1.208026,0,0,-0.9676805,-0.7057725,-3.818412,0,-0.9676805,-0.7770133,-0.7679967,0,0,0,0,0,-3.594399,0,0,16.55475,-1.127968,0,83.95316,-3.750819,0.5,0,0,0,0,-16.04684,0,0,191,0,0,45,2,229
11.42.58.100987, 314.5626,-152.8602,1.208716,-31.64072,-144.1895,0.3845814,0,0,0,0,0.1777563,-0.9801611,7.015267,0,0.2501116,-0.8611539,-0.4315832,0,0,0,0,0,-1.528603,0,0,-0.9126277,-0.7525417,-12.42519,0,-0.9676805,-0.7057725,0.03919866,0,0,0,0,0,-3.392339,0,0,16.89624,-1.108718,0,83.95316,-3.700186,0.5,0,0,0,0,-16.79131,0,0,191,0,0,46,2,229
11.42.58.200993, 301.423,-153.5603,1.095123,-45.43741,-152.8602,0.001735181,0,0,0,0,0.1053991,-1.107191,0.1690974,0,0.1777563,-0.9801611,-0.2723665,0,0,0,0,0,-1.770748,0,0,-0.8575745,-0.950989,-20.42732,0,-0.9126277,-0.7525417,0.826097,0,0,0,0,0,-3.44588,0,0,17.21894,-1.04676,0,83.20869,-3.637039,0.5,0,0,0,0,-17.53578,0,0,191,0,0,47,2,229
11.42.58.300999, 285.3121,-126.0393,0.802238,-58.57697,-153.5603,-0.5350144,0,0,0,0,-0.2323933,-1.401528,-10.93013,0,-0.2323933,-1.107191,-0.06810408,0,0,0,0,0,-2.12543,0,0,-0.8575745,-1.45795,-29.83823,0,-0.8575745,-0.950989,1,0,0,0,0,0,-3.929625,0,0,17.62816,-0.8274021,0,82.83286,-3.433792,0.5,0,0,0,0,-17.16714,0,0,191,0,0,48,2,229
11.42.58.400004, 278.5845,-84.70577,0.6155183,-74.68787,-126.0393,-0.9735677,0,0,0,0,0.1053991,-1.682013,-16.6457,0,0.1053991,-1.401528,0.2590097,0,0,0,0,0,-2.57498,0,0,-0.8575745,-1.850012,-31.35245,0,-0.8575745,-1.45795,1,0,0,0,0,0,-5,0,0,17.82315,-0.60753,0,82.46423,-2.71421,0.5,0,0,0,0,-17.53578,0,0,191,0,0,49,2,229
11.42.58.502010, 276.1696,-23.57623,0.4119795,-81.41553,-84.70577,-1,0,0,0,0,0.1889858,-2.060609,-19.39558,0,0.1053991,-1.682013,0.4200284,0,0,0,0,0,-3.096401,0,0,-0.9358029,-2.251929,-30.30936,0,-0.8575745,-1.850012,1,0,0,0,0,0,-5,0,0,17.93038,-0.298856,0,82.46423,-1.992941,0.5,0,0,0,0,-18.13735,0,0,191,0,0,50,2,229
11.42.58.600016, 277.9832,34.1516,0.2047302,-83.83035,-23.57623,-1,0,0,0,0,-0.5589571,-2.419837,-19.21352,0,0.1889858,-2.060609,0.4842054,0,0,0,0,0,-3.776054,0,0,-0.8807497,-2.651784,-28.25493,0,-0.9358029,-2.251929,1,0,0,0,0,0,-5,0,0,17.95556,-0.02691992,0,81.86265,-0.9803674,0.5,0,0,0,0,-18.14454,0,0,191,0,0,51,2,229
11.42.58.702022, 288.1696,106.6881,-0.2004603,-82.01675,34.1516,-1,0,0,0,0,-0.6401367,-2.866599,-13.0796,0,-0.6401367,-2.419837,0.4511585,0,0,0,0,0,-4.683477,0,0,-1.993349,-3.241101,-24.30464,0,-1.993349,-2.651784,1,0,0,0,0,0,-5,0,0,17.89017,0.1897783,0,81.78107,-0.0883081,0.5,0,0,0,0,-18.21893,0,0,191,0,0,52,2,229
11.42.58.800027, 298.0392,137.484,-0.3734502,-71.83044,106.6881,-1,0,0,0,0,-1.050285,-3.07187,-6.135856,0,-1.050285,-2.866599,0.2308588,0,0,0,0,0,-5.63254,0,0,-1.938296,-3.582079,-19.96727,0,-1.938296,-3.241101,1,0,0,0,0,0,-5,0,0,17.83916,0.1466418,0,81.40524,0.6225486,0.5,0,0,0,0,-18.59476,0,0,191,0,0,53,2,229
11.42.58.903033, 310.1476,159.7022,-0.5231234,-61.96075,137.484,-1,0,0,0,0,-1.050285,-3.241551,2.284071,0,-1.050285,-3.07187,0.003773241,0,0,0,0,0,-6.014138,0,0,-1.938296,-3.832983,-13.41629,0,-1.938296,-3.582079,1,0,0,0,0,0,-5,0,0,17.83548,-0.05224775,0,81.40524,0.4810437,0.5,0,0,0,0,-18.59476,0,0,191,0,0,54,2,229
11.42.59.001039, 324.4221,175.6165,-0.6433639,-49.85239,159.7022,-1,0,0,0,0,-1.80705,-3.401132,10.51153,0,-1.050285,-3.241551,-0.267023,0,0,0,0,0,-6.329576,0,0,-3.050895,-3.932761,-4.41748,0,-1.938296,-3.832983,0.7742985,0,0,0,0,0,-5,0,0,17.91695,-0.3637113,0,81.40524,-0.1713935,0.5,0,0,0,0,-17.93186,0,0,191,0,0,55,2,229
11.42.59.103045, 341.4406,189.31,-0.8173209,-35.57788,175.6165,-1,0,0,0,0,-1.80705,-3.613385,17.05076,0,-1.80705,-3.401132,-0.5380507,0,0,0,0,0,-6.844942,0,0,-3.050895,-3.847555,7.123337,0,-3.050895,-3.932761,-0.0535918,0,0,0,0,0,-5,0,0,18.09356,-0.6871058,0,82.06814,-1.193118,0.5,0,0,0,0,-17.93186,0,0,191,0,0,56,2,229
11.42.59.201050, 2.233503,205.9475,-0.861894,-18.55939,189.31,-0.8899974,0,0,0,0,-2.217199,-3.921289,20.01371,0,-2.217199,-3.613385,-0.7566731,0,0,0,0,0,-7.358054,0,0,-2.995842,-3.604199,21.17394,0,-2.995842,-3.847555,-1,0,0,0,0,0,-5,0,0,18.35268,-0.9076695,0,81.69231,-2.253982,0.5,0,0,0,0,-18.30769,0,0,191,0,0,57,2,229
11.42.59.299056, 25.75966,229.1062,-0.8563102,2.233503,205.9475,-0.4726901,0,0,0,0,-2.962735,-4.296903,16.89976,0,-2.217199,-3.921289,-0.8662689,0,0,0,0,0,-7.930446,0,0,-4.131616,-3.341104,34.70799,0,-2.995842,-3.604199,-1,0,0,0,0,0,-5,0,0,18.63075,-0.8777832,0,81.69231,-2.977519,0.5,0,0,0,0,-18.99084,0,0,191,0,0,58,2,229
11.42.59.402062, 49.70744,257.8466,-0.7919111,25.75966,229.1062,0.06475946,0,0,0,0,-3.216943,-4.65801,6.88373,0,-2.962735,-4.296903,-0.7980618,0,0,0,0,0,-8.844173,0,0,-4.209844,-3.16682,40.96902,0,-4.131616,-3.341104,-1,0,0,0,0,0,-5,0,0,18.8477,-0.6307924,0,81.00916,-2.87948,0.5,0,0,0,0,-19.22377,0,0,191,0,0,59,2,229
11.42.59.500067, 72.471,267.084,-0.5433739,49.70744,257.8466,0.803414,0,0,0,0,-3.610004,-5.045466,-6.796919,0,-3.610004,-4.65801,-0.5106527,0,0,0,0,0,-9.702532,0,0,-5.055881,-3.007526,36.57504,0,-5.055881,-3.16682,-1,0,0,0,0,0,-5,0,0,18.95104,-0.2541121,0,80.41605,-2.069251,0.5,0,0,0,0,-19.58395,0,0,191,0,0,60,2,229
11.42.59.602073, 95.37108,261.8098,-0.3621964,72.471,267.084,1,0,0,0,0,-3.610004,-5.499031,-19.91112,0,-3.610004,-5.045466,-0.1124027,0,0,0,0,0,-10.42281,0,0,-5.055881,-2.831503,23.39311,0,-5.055881,-3.007526,-1,0,0,0,0,0,-5,0,0,18.9545,0.005314319,0,80.41605,-0.8335894,0.5,0,0,0,0,-19.58395,0,0,191,0,0,61,2,229
11.42.59.700079, 120.196,244.6415,-0.1279728,95.37108,261.8098,1,0,0,0,0,-4.357947,-5.995162,-29.28894,0,-3.610004,-5.499031,0.2679991,0,0,0,0,0,-11.26599,0,0,-5.000827,-2.575956,3.793852,0,-5.055881,-2.831503,-1,0,0,0,0,0,-5,0,0,18.93977,0.01843961,0,80.41605,0.01743309,0.5,0,0,0,0,-19.59113,0,0,191,0,0,62,2,229
11.42.59.803085, 120.196,244.6415,0.1618286,120.196,244.6415,1,0,0,0,0,-5.28774,-5.995162,-29.28894,0,-4.357947,-5.995162,0.523419,0,0,0,0,0,-12.40445,0,0,-5.079056,-2.575956,3.793852,0,-5.000827,-2.575956,-0.8090343,0,0,0,0,0,-5,0,0,18.93977,0.01843961,0,80.40887,0.06048929,0.5,0,0,0,0,-19.08679,0,0,191,0,0,63,2,229
11.42.59.901090, 143.542,210.4387,0.7242094,120.196,244.6415,1,0,0,0,0,-5.28774,-6.50402,-32.42944,0,-5.28774,-5.995162,0.515089,0,0,0,0,0,-12.67316,0,0,-5.079056,-2.205528,-16.97282,0,-5.079056,-2.575956,-0.8090343,0,0,0,0,0,-5,0,0,18.95597,-0.1246225,0,80.91321,0.06048929,0.5,0,0,0,0,-19.08679,0,0,191,0,0,64,2,229
11.43.00.001096, 169.1857,156.0005,1.059554,143.542,210.4387,1,0,0,0,0,-5.69789,-7.10299,-27.79352,0,-5.69789,-6.50402,0.6023127,0,0,0,0,0,-13,0,0,-5.024002,-1.498186,-41.53172,0,-5.024002,-2.205528,1,0,0,0,0,0,-5,0,0,19.04619,-0.2150434,0,80.53738,-0.4088118,0.5,0,0,0,0,-19.46262,0,0,191,0,0,65,2,229
11.43.00.101102, 179.7453,118.4461,1.451911,169.1857,156.0005,1,0,0,0,0,-6.371069,-7.429116,-22.59687,0,-5.69789,-7.10299,0.4585991,0,0,0,0,0,-13,0,0,-6.21483,-1.057517,-53.13541,0,-5.024002,-1.498186,1,0,0,0,0,0,-5,0,0,19.06512,0.003028952,0,80.53738,-0.7054284,0.5,0,0,0,0,-19.4013,0,0,191,0,0,66,2,229
11.43.00.200107, 186.2678,77.5475,1.862911,179.7453,118.4461,1,0,0,0,0,-6.708862,-7.706777,-17.95476,0,-6.371069,-7.429116,0.297503,0,0,0,0,0,-13,0,0,-6.21483,-0.7904253,-59.34367,0,-6.21483,-1.057517,1,0,0,0,0,0,-5,0,0,19.01033,0.2954586,0,80.5987,0.009936175,0.5,0,0,0,0,-19.03266,0,0,191,0,0,67,2,229
11.43.00.302113, 189.4895,35.01433,0.9574044,-173.7322,77.5475,-1,0,0,0,0,-7.711012,-7.965417,-15.09455,0,-7.711012,-7.706777,0.1535974,0,0,0,0,0,-13,0,0,-6.238005,-0.5463552,-60.23486,0,-6.238005,-0.7904253,1,0,0,0,0,0,-5,0,0,18.84178,0.6922657,0,80.72722,0.9692224,0.5,0,0,0,0,-19.27278,0,0,191,0,0,68,2,229
11.43.00.400119, 189.6083,-8.446558,0.5423549,-170.5105,35.01433,-1,0,0,0,0,-8.121161,-8.223474,-14.90813,0,-8.121161,-7.965417,0.06493111,0,0,0,0,0,-13,0,0,-6.182951,-0.3270035,-56.74842,0,-6.182951,-0.5463552,1,0,0,0,0,0,-5,0,0,18.54008,1.089087,0,80.35139,2.270909,0.5,0,0,0,0,-19.64861,0,0,191,0,0,69,2,229
11.43.00.502125, 191.8937,73.32094,0.1318651,-170.3917,-8.446558,-1,0,0,0,0,-9.134541,-8.557324,-10.06028,0,-8.121161,-8.223474,0.05915208,0,0,0,0,0,-13,0,0,-6.182951,0.2104288,-52.21383,0,-6.182951,-0.3270035,1,0,0,0,0,0,-5,0,0,18.01645,1.840022,0,80.35139,3.572643,0.5,0,0,0,0,-18.54269,0,0,191,0,0,70,2,229
11.43.00.600130, 197.5159,126.1513,-0.2681059,-168.1063,73.32094,-1,0,0,0,0,-9.472333,-8.962299,-0.1495288,0,-9.134541,-8.557324,-0.09113135,0,0,0,0,0,-13,0,0,-6.182951,0.7658278,-46.6231,0,-6.182951,0.2104288,1,0,0,0,0,0,-5,0,0,17.30938,2.296944,0,81.45731,6.036008,0.5,0,0,0,0,-18.17405,0,0,191,0,0,71,2,229
11.43.00.703136, 205.69,150.6188,-1.03358,-162.4841,126.1513,-1,0,0,0,0,-10.40213,-9.388302,12.23246,0,-10.40213,-8.962299,-0.3983646,0,0,0,0,0,-13,0,0,-6.26118,1.415063,-38.47819,0,-6.26118,0.7658278,1,0,0,0,0,0,-5,0,0,16.54739,2.339828,0,82.3303,7.534895,0.5,0,0,0,0,-17.6697,0,0,191,0,0,72,2,229
11.43.00.801142, 210.7349,154.6791,-1.391104,-154.31,150.6188,-1,0,0,0,0,-11.41551,-9.56522,18.55359,0,-11.41551,-9.388302,-0.7822064,0,0,0,0,0,-13,0,0,-6.26118,1.785351,-33.08952,0,-6.26118,1.415063,1,0,0,0,0,0,-4.983774,0,0,16.19147,2.205124,0,83.43622,7.675571,0.5,0,0,0,0,-16.56378,0,0,191,0,0,73,2,229
11.43.00.899147, 223.213,152.0325,-1.734357,-149.2651,154.6791,-1,0,0,0,0,-11.7533,-9.75236,29.87646,0,-11.41551,-9.56522,-0.9781613,0,0,0,0,0,-13,0,0,-6.26118,2.653585,-19.2558,0,-6.26118,1.785351,1,0,0,0,0,0,-3.933526,0,0,15.61595,1.636936,0,83.43622,7.233689,0.5,0,0,0,0,-16.19514,0,0,191,0,0,74,2,229
11.43.01.001153, 248.3549,143.8,-2.043981,-136.787,152.0325,-1,0,0,0,0,-12.9138,-9.438131,38.60257,0,-11.7533,-9.75236,-1,0,0,0,0,0,-13,0,0,-4.960247,4.134508,8.214274,0,-6.26118,2.653585,1,0,0,0,0,0,-1.470953,0,0,15.2468,0.3740932,0,83.80486,5.369803,0.5,0,0,0,0,-15.90219,0,0,191,0,0,75,2,229
11.43.01.100159, 264.8252,142.7276,-2.537898,-111.6451,143.8,-1,0,0,0,0,-14.6898,-8.848301,37.47636,0,-14.6898,-9.438131,-1,0,0,0,0,0,-13,0,0,-5.194931,5.088425,25.93539,0,-5.194931,4.134508,-0.3326209,0,0,0,0,0,4.261588,0,0,15.31949,-0.3852736,0,84.50492,1.227175,0.5,0,0,0,0,-15.49508,0,0,191,0,0,76,2,229
11.43.01.202165, 278.9808,150.3642,-2.742224,-95.1748,142.7276,-1,0,0,0,0,-15.09995,-8.058517,31.69538,0,-15.09995,-8.848301,-1,0,0,0,0,0,-13,0,0,-5.139877,6.011859,41.10168,0,-5.139877,5.088425,-1,0,0,0,0,0,5,0,0,15.55716,-0.9091325,0,84.12909,-1.263852,0.5,0,0,0,0,-15.87091,0,0,191,0,0,77,2,229
11.43.01.300170, 290.641,168.534,-2.912143,-81.01917,150.3642,-1,0,0,0,0,-16.61292,-7.267502,21.72915,0,-15.09995,-8.058517,-1,0,0,0,0,0,-13,0,0,-4.128682,6.809432,52.44479,0,-5.139877,6.011859,-1,0,0,0,0,0,5,0,0,15.87657,-1.084503,0,84.12909,-2.982318,0.5,0,0,0,0,-15.90094,0,0,191,0,0,78,2,229
11.43.01.402176, 300.6938,200.3277,-3.053954,-69.35901,168.534,-1,0,0,0,0,-16.63,-6.602999,7.403223,0,-16.61292,-7.267502,-1,0,0,0,0,0,-13,0,0,-3.227592,7.482243,56.682,0,-4.128682,6.809432,-1,0,0,0,0,0,5,0,0,16.20727,-1.067848,0,84.09906,-3.557602,0.5,0,0,0,0,-15.9166,0,0,191,0,0,79,2,229
11.43.01.500182, 318.466,279.4856,-3.290595,-59.30621,200.3277,-1,0,0,0,0,-17.37795,-5.595582,-23.27008,0,-17.37795,-6.602999,-0.6324999,0,0,0,0,0,-13,0,0,-3.172539,8.253109,46.97096,0,-3.172539,7.482243,-1,0,0,0,0,0,5,0,0,16.71993,-1.083469,0,84.07622,-3.502969,0.5,0,0,0,0,-15.92379,0,0,191,0,0,80,2,229
11.43.01.603188, 341.916,349.0504,-3.3639,-41.534,279.4856,-1,0,0,0,0,-18.21533,-4.667179,-45.54661,0,-18.21533,-5.595582,0.3183724,0,0,0,0,0,-13,0,0,-2.161343,8.535856,25.13208,0,-2.161343,8.253109,-1,0,0,0,0,0,5,0,0,17.07971,-1.223394,0,83.3089,-3.554212,0.5,0,0,0,0,-16.6911,0,0,191,0,0,81,2,229
11.43.01.701193, 63.19215,429.5319,-3.382445,-18.08401,349.0504,-1,0,0,0,0,-18.20651,-2.815298,-48.90894,0,-18.21533,-4.667179,1,0,0,0,0,0,-13,0,0,-0.9936914,8.853771,-52.01686,0,-2.161343,8.535856,-1,0,0,0,0,0,5,0,0,17.60841,-1.136456,0,83.3089,-4.01322,0.5,0,0,0,0,-17.36118,0,0,191,0,0,82,2,229
11.43.01.799199, 94.60777,448.1206,-3.203103,63.19215,429.5319,-1,0,0,0,0,-18.78969,-1.67504,-20.86062,0,-18.20651,-2.815298,1,0,0,0,0,0,-10.49532,0,0,0.09573269,9.113718,-78.56077,0,-0.9936914,8.853771,1,0,0,0,0,0,5,0,0,17.84145,-0.6571869,0,82.63882,-3.72803,0.5,0,0,0,0,-17.89556,0,0,191,0,0,83,2,229
11.43.01.901205, 112.4871,432.9816,-2.726846,94.60777,448.1206,-0.2343944,0,0,0,0,-18.87913,-1.189258,14.48285,0,-18.87913,-1.67504,0.3818115,0,0,0,0,0,-8.569966,0,0,1.051876,9.331742,-86.87451,0,1.051876,9.113718,1,0,0,0,0,0,5,0,0,17.87841,0.1235771,0,81.34431,-2.155836,0.5,0,0,0,0,-18.65569,0,0,191,0,0,84,2,229
11.43.02.000210, 117.8865,393.9526,-2.445628,112.4871,432.9816,0.3519047,0,0,0,0,-18.69968,-1.277686,50.57111,0,-18.69968,-1.189258,-0.6850346,0,0,0,0,0,-7.615039,0,0,2.375985,9.262156,-89.09589,0,2.375985,9.331742,1,0,0,0,0,0,5,0,0,17.73258,0.6817957,0,81.50874,0.4053825,0.5,0,0,0,0,-18.49126,0,0,191,0,0,85,2,229
11.43.02.102216, 122.4391,357.2995,-2.150912,117.8865,393.9526,0.6814725,0,0,0,0,-19.39236,-1.302759,66.92984,0,-18.69968,-1.277686,-1,0,0,0,0,0,-7.779426,0,0,3.277075,9.065268,-85.82494,0,2.375985,9.262156,1,0,0,0,0,0,5,0,0,17.59804,0.9316161,0,81.50874,2.236563,0.5,0,0,0,0,-17.76963,0,0,191,0,0,86,2,229
11.43.02.200222, 122.4391,357.2995,-1.844814,122.4391,357.2995,1,0,0,0,0,-19.39236,-1.302759,66.92984,0,-19.39236,-1.302759,-1,0,0,0,0,0,-8.02622,0,0,3.277075,9.065268,-85.82494,0,3.277075,9.065268,1,0,0,0,0,0,5,0,0,17.59804,0.9316161,0,82.23037,3.056073,0.5,0,0,0,0,-17.76963,0,0,191,0,0,87,2,229
11.43.02.302228, 280.6709,273.2001,-1.235893,122.4391,357.2995,1,0,0,0,0,-19.39236,-1.090314,72.37545,0,-19.39236,-1.302759,-1,0,0,0,0,0,-8.02622,0,0,3.277075,8.559672,70.24635,0,3.277075,9.065268,1,0,0,0,0,0,5,0,0,16.94004,1.916111,0,82.23037,3.056073,0.5,0,0,0,0,-17.76963,0,0,191,0,0,88,2,229
11.43.02.400233, 286.0939,208.5723,-1.440412,-79.3291,273.2001,-1,0,0,0,0,-19.74724,-0.4453068,45.74445,0,-19.74724,-1.090314,-1,0,0,0,0,0,-7.733845,0,0,4.178164,8.487967,82.80505,0,4.178164,8.559672,-1,0,0,0,0,0,5,0,0,15.96425,3.049562,0,82.58335,6.285609,0.5,0,0,0,0,-17.41665,0,0,191,0,0,89,2,229
11.43.02.503239, 285.4492,157.6201,-1.610662,-73.90613,208.5723,-1,0,0,0,0,-19.33949,0.06203474,33.32743,0,-19.74724,-0.4453068,-1,0,0,0,0,0,-6.534777,0,0,5.313938,8.490307,88.66283,0,4.178164,8.487967,-1,0,0,0,0,0,5,0,0,15.1116,3.901729,0,82.58335,10.00378,0.5,0,0,0,0,-16.36486,0,0,191,0,0,90,2,229
11.43.02.601245, 283.8012,153.4731,-1.780748,-74.55081,157.6201,-1,0,0,0,0,-19.60493,0.4808629,22.48909,0,-19.33949,0.06203474,-1,0,0,0,0,0,-5.473792,0,0,5.258885,8.603719,94.42424,0,5.313938,8.490307,-1,0,0,0,0,0,5,0,0,13.99206,4.631758,0,83.63515,12.79923,0.5,0,0,0,0,-15.25175,0,0,191,0,0,91,2,229
11.43.02.699250, 280.8485,210.4509,-2.121739,-76.19876,153.4731,-1,0,0,0,0,-19.7056,0.8496475,5.616806,0,-19.7056,0.4808629,-0.8450906,0,0,0,0,0,-4.800995,0,0,6.238204,8.764627,96.09599,0,6.238204,8.603719,-1,0,0,0,0,0,5,0,0,12.55282,5.256181,0,85.33417,15.19402,0.5,0,0,0,0,-14.66583,0,0,191,0,0,92,2,229
11.43.02.801256, 273.2752,317.3378,-2.296877,-79.15149,210.4509,-1,0,0,0,0,-19.06956,1.438027,-32.87137,0,-19.06956,0.8496475,-0.2960008,0,0,0,0,0,-3.931609,0,0,7.185643,8.779092,93.05357,0,7.185643,8.764627,-1,0,0,0,0,0,5,0,0,9.89651,6.163325,0,87.27332,17.24238,0.5,0,0,0,0,-12.72668,0,0,191,0,0,93,2,229
11.43.02.900262, 237.2372,409.2123,-2.489598,-86.72476,317.3378,-1,0,0,0,0,-19.26505,2.191057,-79.5919,0,-19.06956,1.438027,0.9310403,0,0,0,0,0,-2.837812,0,0,8.266364,8.498943,113.5158,0,7.185643,8.779092,-1,0,0,0,0,0,5,0,0,7.099215,7.100851,0,87.27332,20.21817,0.5,0,0,0,0,-10.19314,0,0,191,0,0,94,2,229
11.43.03.002268, 98.61736,437.8948,-2.770866,-122.7628,409.2123,-1,0,0,0,0,-19.05039,2.567952,-50.19635,0,-19.26505,2.191057,1,0,0,0,0,0,-1.494425,0,0,9.292032,8.216249,-117.4634,0,8.266364,8.498943,-1,0,0,0,0,0,5,0,0,4.305545,8.257025,0,89.80686,23.29363,0.5,0,0,0,0,-7.283768,0,0,191,0,0,95,2,229
11.43.03.100273, 90.41971,421.1743,-2.244198,98.61736,437.8948,0.3053156,0,0,0,0,-18.06188,2.544482,-20.40864,0,-18.06188,2.567952,1,0,0,0,0,0,-0.4460607,0,0,10.52921,8.186591,-118.8398,0,10.52921,8.216249,1,0,0,0,0,0,5,0,0,2.32437,8.942422,0,94.97836,27.08634,0.5,0,0,0,0,-5.021637,0,0,191,0,0,96,2,229
11.43.03.202279, 82.81951,379.9478,-2.018148,90.41971,421.1743,0.3521501,0,0,0,0,-18.00075,1.920364,10.9344,0,-18.00075,2.544482,0.618035,0,0,0,0,0,-0.4720244,0,0,10.49733,8.323683,-124.6708,0,10.49733,8.186591,1,0,0,0,0,0,5,0,0,-0.03682515,9.238889,0,97.06888,29.33472,0.5,0,0,0,0,-2.931123,0,0,191,0,0,97,2,229
11.43.03.300285, 81.06109,180.792,-1.8111,82.81951,379.9478,0.3502811,0,0,0,0,-18.29451,1.80116,18.7761,0,-18.00075,1.920364,-0.3895665,0,0,0,0,0,-1.632261,0,0,11.36654,8.213276,-126.4899,0,10.49733,8.323683,1,0,0,0,0,0,5,0,0,-1.147954,8.379574,0,97.06888,30.30725,0.5,0,0,0,0,-0.4876261,0,0,191,0,0,98,2,229
11.43.03.399290, 81.06109,180.792,-1.608447,81.06109,180.792,0.1893793,0,0,0,0,-18.57703,1.80116,18.7761,0,-18.29451,1.80116,-0.6421605,0,0,0,0,0,-1.938756,0,0,12.21258,8.213276,-126.4899,0,11.36654,8.213276,1,0,0,0,0,0,5,0,0,-1.147954,8.379574,0,99.51237,27.48835,0.5,0,0,0,0,0.609827,0,0,191,0,0,99,2,229
11.43.03.501296, 81.06109,180.792,-1.203142,81.06109,180.792,0.5946847,0,0,0,0,-18.57703,1.80116,18.7761,0,-18.57703,1.80116,-0.6446916,0,0,0,0,0,-2.020405,0,0,12.21258,8.213276,-126.4899,0,12.21258,8.213276,1,0,0,0,0,0,5,0,0,-1.147954,8.379574,0,100.6098,27.48835,0.5,0,0,0,0,0.609827,0,0,191,0,0,100,2,229
11.43.03.599302, 81.06109,180.792,-1.000489,81.06109,180.792,0.7973374,0,0,0,0,-18.57703,1.80116,18.7761,0,-18.57703,1.80116,-0.6446916,0,0,0,0,0,-2.020405,0,0,12.21258,8.213276,-126.4899,0,12.21258,8.213276,1,0,0,0,0,0,5,0,0,-1.147954,8.379574,0,100.6098,27.48835,0.5,0,0,0,0,0.609827,0,0,191,0,0,101,2,229
11.43.03.702308, 81.06109,180.792,-0.7978362,81.06109,180.792,0.99999,0,0,0,0,-18.57703,1.80116,18.7761,0,-18.57703,1.80116,-0.6446916,0,0,0,0,0,-2.020405,0,0,12.21258,8.213276,-126.4899,0,12.21258,8.213276,1,0,0,0,0,0,5,0,0,-1.147954,8.379574,0,100.6098,27.48835,0.5,0,0,0,0,0.609827,0,0,191,0,0,102,2,229
11.43.03.799313, 81.06109,180.792,-0.5951835,81.06109,180.792,1,0,0,0,0,-18.57703,1.80116,18.7761,0,-18.57703,1.80116,-0.6446916,0,0,0,0,0,-2.020405,0,0,12.21258,8.213276,-126.4899,0,12.21258,8.213276,1,0,0,0,0,0,5,0,0,-1.147954,8.379574,0,100.6098,27.48835,0.5,0,0,0,0,0.609827,0,0,191,0,0,103,2,229
11.43.03.902319, 81.06109,180.792,-0.1959372,81.06109,180.792,1,0,0,0,0,-18.57703,1.80116,18.7761,0,-18.57703,1.80116,-0.6446916,0,0,0,0,0,-2.020405,0,0,12.21258,8.213276,-126.4899,0,12.21258,8.213276,1,0,0,0,0,0,5,0,0,-1.147954,8.379574,0,100.6098,27.48835,0.5,0,0,0,0,0.609827,0,0,191,0,0,104,2,229
11.43.04.000325, 81.06109,180.792,0.00069666,81.06109,180.792,1,0,0,0,0,-18.57703,1.80116,18.7761,0,-18.57703,1.80116,-0.6446916,0,0,0,0,0,-2.020405,0,0,12.21258,8.213276,-126.4899,0,12.21258,8.213276,1,0,0,0,0,0,5,0,0,-1.147954,8.379574,0,100.6098,27.48835,0.5,0,0,0,0,0.609827,0,0,191,0,0,105,2,229
11.43.04.102331, 81.06109,180.792,0.1953641,81.06109,180.792,1,0,0,0,0,-18.57703,1.80116,18.7761,0,-18.57703,1.80116,-0.6446916,0,0,0,0,0,-2.020405,0,0,12.21258,8.213276,-126.4899,0,12.21258,8.213276,1,0,0,0,0,0,5,0,0,-1.147954,8.379574,0,100.6098,27.48835,0.5,0,0,0,0,0.609827,0,0,191,0,0,106,2,229
11.43.04.201336, 81.06109,180.792,0.388085,81.06109,180.792,1,0,0,0,0,-18.57703,1.80116,18.7761,0,-18.57703,1.80116,-0.6446916,0,0,0,0,0,-2.020405,0,0,12.21258,8.213276,-126.4899,0,12.21258,8.213276,1,0,0,0,0,0,5,0,0,-1.147954,8.379574,0,100.6098,27.48835,0.5,0,0,0,0,0.609827,0,0,191,0,0,107,2,229
11.43.04.299342, 81.06109,180.792,0.7677643,81.06109,180.792,1,0,0,0,0,-18.57703,1.80116,18.7761,0,-18.57703,1.80116,-0.6446916,0,0,0,0,0,-2.020405,0,0,12.21258,8.213276,-126.4899,0,12.21258,8.213276,1,0,0,0,0,0,5,0,0,-1.147954,8.379574,0,100.6098,27.48835,0.5,0,0,0,0,0.609827,0,0,191,0,0,108,2,229
11.43.04.401348, 81.06109,180.792,0.9547611,81.06109,180.792,1,0,0,0,0,-18.57703,1.80116,18.7761,0,-18.57703,1.80116,-0.6446916,0,0,0,0,0,-2.020405,0,0,12.21258,8.213276,-126.4899,0,12.21258,8.213276,1,0,0,0,0,0,5,0,0,-1.147954,8.379574,0,100.6098,27.48835,0.5,0,0,0,0,0.609827,0,0,191,0,0,109,2,229
11.43.04.499353, 81.06109,180.792,1.139888,81.06109,180.792,1,0,0,0,0,-18.57703,1.80116,18.7761,0,-18.57703,1.80116,-0.6446916,0,0,0,0,0,-2.020405,0,0,12.21258,8.213276,-126.4899,0,12.21258,8.213276,1,0,0,0,0,0,5,0,0,-1.147954,8.379574,0,100.6098,27.48835,0.5,0,0,0,0,0.609827,0,0,191,0,0,110,2,229
11.43.04.601359, 81.06109,180.792,1.323164,81.06109,180.792,1,0,0,0,0,-18.57703,1.80116,18.7761,0,-18.57703,1.80116,-0.6446916,0,0,0,0,0,-2.020405,0,0,12.21258,8.213276,-126.4899,0,12.21258,8.213276,1,0,0,0,0,0,5,0,0,-1.147954,8.379574,0,100.6098,27.48835,0.5,0,0,0,0,0.609827,0,0,191,0,0,111,2,229
11.43.04.700365, 81.06109,180.792,1.684235,81.06109,180.792,1,0,0,0,0,-18.57703,1.80116,18.7761,0,-18.57703,1.80116,-0.6446916,0,0,0,0,0,-2.020405,0,0,12.21258,8.213276,-126.4899,0,12.21258,8.213276,1,0,0,0,0,0,5,0,0,-1.147954,8.379574,0,100.6098,27.48835,0.5,0,0,0,0,0.609827,0,0,191,0,0,112,2,229
11.43.04.802371, 81.06109,180.792,1.862067,81.06109,180.792,1,0,0,0,0,-18.57703,1.80116,18.7761,0,-18.57703,1.80116,-0.6446916,0,0,0,0,0,-2.020405,0,0,12.21258,8.213276,-126.4899,0,12.21258,8.213276,1,0,0,0,0,0,5,0,0,-1.147954,8.379574,0,100.6098,27.48835,0.5,0,0,0,0,0.609827,0,0,191,0,0,113,2,229
11.43.04.900376, 81.06109,180.792,2.038121,81.06109,180.792,1,0,0,0,0,-18.57703,1.80116,18.7761,0,-18.57703,1.80116,-0.6446916,0,0,0,0,0,-2.020405,0,0,12.21258,8.213276,-126.4899,0,12.21258,8.213276,1,0,0,0,0,0,5,0,0,-1.147954,8.379574,0,100.6098,27.48835,0.5,0,0,0,0,0.609827,0,0,191,0,0,114,2,229
11.43.05.002382, 81.06109,180.792,2.212414,81.06109,180.792,1,0,0,0,0,-18.57703,1.80116,18.7761,0,-18.57703,1.80116,-0.6446916,0,0,0,0,0,-2.020405,0,0,12.21258,8.213276,-126.4899,0,12.21258,8.213276,1,0,0,0,0,0,5,0,0,-1.147954,8.379574,0,100.6098,27.48835,0.5,0,0,0,0,0.609827,0,0,191,0,0,115,2,229
11.43.05.101388, 81.06109,180.792,2.555789,81.06109,180.792,1,0,0,0,0,-18.57703,1.80116,18.7761,0,-18.57703,1.80116,-0.6446916,0,0,0,0,0,-2.020405,0,0,12.21258,8.213276,-126.4899,0,12.21258,8.213276,1,0,0,0,0,0,5,0,0,-1.147954,8.379574,0,100.6098,27.48835,0.5,0,0,0,0,0.609827,0,0,191,0,0,116,2,229
11.43.05.199393, 81.06109,180.792,2.724905,81.06109,180.792,1,0,0,0,0,-18.57703,1.80116,18.7761,0,-18.57703,1.80116,-0.6446916,0,0,0,0,0,-2.020405,0,0,12.21258,8.213276,-126.4899,0,12.21258,8.213276,1,0,0,0,0,0,5,0,0,-1.147954,8.379574,0,100.6098,27.48835,0.5,0,0,0,0,0.609827,0,0,191,0,0,117,2,229
11.43.05.301399, 81.06109,180.792,2.892331,81.06109,180.792,1,0,0,0,0,-18.57703,1.80116,18.7761,0,-18.57703,1.80116,-0.6446916,0,0,0,0,0,-2.020405,0,0,12.21258,8.213276,-126.4899,0,12.21258,8.213276,1,0,0,0,0,0,5,0,0,-1.147954,8.379574,0,100.6098,27.48835,0.5,0,0,0,0,0.609827,0,0,191,0,0,118,2,229
11.43.05.399405, 81.06109,180.792,3.058082,81.06109,180.792,1,0,0,0,0,-18.57703,1.80116,18.7761,0,-18.57703,1.80116,-0.6446916,0,0,0,0,0,-2.020405,0,0,12.21258,8.213276,-126.4899,0,12.21258,8.213276,1,0,0,0,0,0,5,0,0,-1.147954,8.379574,0,100.6098,27.48835,0.5,0,0,0,0,0.609827,0,0,191,0,0,119,2,229
11.43.05.501411, 81.06109,180.792,3.384628,81.06109,180.792,1,0,0,0,0,-18.57703,1.80116,18.7761,0,-18.57703,1.80116,-0.6446916,0,0,0,0,0,-2.020405,0,0,12.21258,8.213276,-126.4899,0,12.21258,8.213276,1,0,0,0,0,0,5,0,0,-1.147954,8.379574,0,100.6098,27.48835,0.5,0,0,0,0,0.609827,0,0,191,0,0,120,2,229
11.43.05.600416, 81.06109,180.792,3.545456,81.06109,180.792,1,0,0,0,0,-18.57703,1.80116,18.7761,0,-18.57703,1.80116,-0.6446916,0,0,0,0,0,-2.020405,0,0,12.21258,8.213276,-126.4899,0,12.21258,8.213276,1,0,0,0,0,0,5,0,0,-1.147954,8.379574,0,100.6098,27.48835,0.5,0,0,0,0,0.609827,0,0,191,0,0,121,2,229
11.43.05.702422, 81.06109,180.792,3.704676,81.06109,180.792,1,0,0,0,0,-18.57703,1.80116,18.7761,0,-18.57703,1.80116,-0.6446916,0,0,0,0,0,-2.020405,0,0,12.21258,8.213276,-126.4899,0,12.21258,8.213276,1,0,0,0,0,0,5,0,0,-1.147954,8.379574,0,100.6098,27.48835,0.5,0,0,0,0,0.609827,0,0,191,0,0,122,2,229
11.43.05.800428, 81.06109,180.792,3.862304,81.06109,180.792,1,0,0,0,0,-18.57703,1.80116,18.7761,0,-18.57703,1.80116,-0.6446916,0,0,0,0,0,-2.020405,0,0,12.21258,8.213276,-126.4899,0,12.21258,8.213276,1,0,0,0,0,0,5,0,0,-1.147954,8.379574,0,100.6098,27.48835,0.5,0,0,0,0,0.609827,0,0,191,0,0,123,2,229
11.43.05.900433, 81.06109,180.792,4.172846,81.06109,180.792,1,0,0,0,0,-18.57703,1.80116,18.7761,0,-18.57703,1.80116,-0.6446916,0,0,0,0,0,-2.020405,0,0,12.21258,8.213276,-126.4899,0,12.21258,8.213276,1,0,0,0,0,0,5,0,0,-1.147954,8.379574,0,100.6098,27.48835,0.5,0,0,0,0,0.609827,0,0,191,0,0,124,2,229
11.43.06.001439, 81.06109,180.792,4.325792,81.06109,180.792,1,0,0,0,0,-18.57703,1.80116,18.7761,0,-18.57703,1.80116,-0.6446916,0,0,0,0,0,-2.020405,0,0,12.21258,8.213276,-126.4899,0,12.21258,8.213276,1,0,0,0,0,0,5,0,0,-1.147954,8.379574,0,100.6098,27.48835,0.5,0,0,0,0,0.609827,0,0,191,0,0,125,2,229
11.43.06.099445, 81.06109,180.792,4.477209,81.06109,180.792,1,0,0,0,0,-18.57703,1.80116,18.7761,0,-18.57703,1.80116,-0.6446916,0,0,0,0,0,-2.020405,0,0,12.21258,8.213276,-126.4899,0,12.21258,8.213276,1,0,0,0,0,0,5,0,0,-1.147954,8.379574,0,100.6098,27.48835,0.5,0,0,0,0,0.609827,0,0,191,0,0,126,2,229
11.43.06.196450, 81.06109,180.792,4.775515,81.06109,180.792,1,0,0,0,0,-18.57703,1.80116,18.7761,0,-18.57703,1.80116,-0.6446916,0,0,0,0,0,-2.020405,0,0,12.21258,8.213276,-126.4899,0,12.21258,8.213276,1,0,0,0,0,0,5,0,0,-1.147954,8.379574,0,100.6098,27.48835,0.5,0,0,0,0,0.609827,0,0,192,0,0,127,2,229
11.43.06.287455, 81.06109,180.792,4.922435,81.06109,180.792,1,0,0,0,0,-18.57703,1.80116,18.7761,0,-18.57703,1.80116,-0.6446916,0,0,0,0,0,-2.020405,0,0,12.21258,8.213276,-126.4899,0,12.21258,8.213276,1,0,0,0,0,0,5,0,0,-1.147954,8.379574,0,100.6098,27.48835,0.5,0,0,0,0,0.609827,0,0,192,0,0,128,2,229
11.43.06.385461, 0,0,5.067885,81.06109,180.792,1,0,0,0,0,-18.57703,0,0,0,-18.57703,1.80116,-0.6446916,0,0,0,0,0,-2.020405,0,0,12.21258,0,0,0,12.21258,8.213276,1,0,0,0,0,0,5,0,0,0,0,0,100.6098,27.48835,0.5,0,0,0,0,0.609827,0,0,192,0,0,129,2,229
11.43.06.487467, 151.6544,-46.4718,5.009228,0,0,1,0,0,0,0,1.521794,-0.04625032,0.8437176,0,-18.57703,0,-0.1664316,0,0,0,0,0,-5.368761,0,0,0.1564561,-0.2485146,2.261703,0,12.21258,0,0.46,0,0,0,0,0,5,0,0,0.5802171,-2.009991,0,100.6098,0,0.5,0,0,0,0,-0.6400502,0,0,192,0,0,130,2,229
11.43.06.586473, 144.9353,-76.15154,5.348271,151.6544,-46.4718,1,0,0,0,0,1.449438,-0.1517504,-0.2225087,0,1.521794,-0.04625032,-0.01518685,0,0,0,0,0,0.3538192,0,0,0.2115092,-0.4854828,7.300788,0,0.1564561,-0.2485146,-0.2522399,0,0,0,0,0,-0.4800344,0,0,1.203195,-1.957934,0,99.35995,-6.593574,0.5,0,0,0,0,-1.384519,0,0,192,0,0,131,2,229
11.43.06.688478, 140.5075,-88.95812,5.930323,144.9353,-76.15154,1,0,0,0,0,1.787231,-0.1965545,-0.613025,0,1.787231,-0.1517504,0.01113806,0,0,0,0,0,0.2344058,0,0,0.2115092,-0.6080821,10.3656,0,0.2115092,-0.4854828,-0.7703918,0,0,0,0,0,-1.073036,0,0,1.507775,-1.906012,0,98.24684,-6.422807,0.5,0,0,0,0,-1.753159,0,0,192,0,0,132,2,229
11.43.06.786484, 129.847,-111.4105,6.206783,140.5075,-88.95812,1,0,0,0,0,1.377082,-0.329446,-0.4586013,0,1.377082,-0.1965545,0.02001382,0,0,0,0,0,0.0325821,0,0,0.2665623,-0.861306,16.0258,0,0.2665623,-0.6080821,-1,0,0,0,0,0,-1.341653,0,0,2.090724,-1.77454,0,97.87101,-6.252481,0.5,0,0,0,0,-2.128988,0,0,192,0,0,133,2,229
11.43.06.884490, 117.253,-130.6054,6.454859,129.847,-111.4105,1,0,0,0,0,0.8857541,-0.4990552,1.245456,0,1.377082,-0.329446,0.00756828,0,0,0,0,0,-0.2144632,0,0,-0.7909838,-1.091405,18.66468,0,0.2665623,-0.861306,-1,0,0,0,0,0,-2.059872,0,0,2.626956,-1.614423,0,97.87101,-5.821202,0.5,0,0,0,0,-2.579202,0,0,192,0,0,134,2,229
11.43.06.987496, 96.72634,-149.3112,6.67131,117.253,-130.6054,1,0,0,0,0,1.223547,-0.7634235,5.475282,0,0.8857541,-0.4990552,-0.05943372,0,0,0,0,0,-0.6717607,0,0,-0.7909838,-1.358588,15.48839,0,-0.7909838,-1.091405,-1,0,0,0,0,0,-4.232197,0,0,3.310977,-1.383157,0,97.4208,-5.295954,0.5,0,0,0,0,-2.947843,0,0,192,0,0,135,2,229
11.43.07.085501, 82.75712,-156.4898,7.00499,96.72634,-149.3112,1,0,0,0,0,1.136512,-0.8983769,8.191689,0,1.136512,-0.7634235,-0.2027673,0,0,0,0,0,-1.090752,0,0,-1.025668,-1.490797,10.00757,0,-1.025668,-1.358588,-1,0,0,0,0,0,-5,0,0,3.695375,-1.273891,0,95.61607,-4.537308,0.5,0,0,0,0,-4.38393,0,0,192,0,0,136,2,229
11.43.07.187507, 68.40563,-161.0026,7.136448,82.75712,-156.4898,1,0,0,0,0,1.136512,-0.9728281,10.1195,0,1.136512,-0.8983769,-0.2955329,0,0,0,0,0,-1.341631,0,0,-1.025668,-1.604566,2.605363,0,-1.025668,-1.490797,-1,0,0,0,0,0,-5,0,0,4.048447,-1.201659,0,95.61607,-4.178873,0.5,0,0,0,0,-4.38393,0,0,192,0,0,137,2,229
11.43.07.285513, 53.59801,-164.2688,7.233414,68.40563,-161.0026,1,0,0,0,0,1.136512,-0.9688927,10.75861,0,1.136512,-0.9728281,-0.3595855,0,0,0,0,0,-1.480036,0,0,-1.025668,-1.726448,-6.177412,0,-1.025668,-1.604566,-0.6996934,0,0,0,0,0,-5,0,0,4.385108,-1.152889,0,95.61607,-3.941921,0.5,0,0,0,0,-4.38393,0,0,192,0,0,138,2,229
11.43.07.387518, 30.25082,-170.7602,7.295116,53.59801,-164.2688,1,0,0,0,0,1.064156,-0.8039365,8.061347,0,1.136512,-0.9688927,-0.3791711,0,0,0,0,0,-1.47272,0,0,-0.9706149,-1.981448,-20.72895,0,-1.025668,-1.726448,0.1083219,0,0,0,0,0,-5,0,0,4.869603,-1.043559,0,95.61607,-3.781937,0.5,0,0,0,0,-5.128399,0,0,192,0,0,139,2,229
11.43.07.485524, 9.111746,-177.8509,7.310494,30.25082,-170.7602,1,0,0,0,0,0.9917996,-0.5509639,1.1516,0,0.9917996,-0.8039365,-0.286698,0,0,0,0,0,-1.207888,0,0,-0.9155619,-2.32434,-32.52362,0,-0.9155619,-1.981448,1,0,0,0,0,0,-5,0,0,5.233237,-0.8011528,0,94.12714,-3.423292,0.5,0,0,0,0,-5.872868,0,0,192,0,0,140,2,229
11.43.07.585530, 350.6849,-184.539,7.267419,9.111746,-177.8509,1,0,0,0,0,0.9106207,-0.3346972,-7.918198,0,0.9106207,-0.5509639,-0.05929284,0,0,0,0,0,-0.7610724,0,0,-2.028161,-2.668657,-38.08913,0,-2.028161,-2.32434,1,0,0,0,0,0,-5,0,0,5.454505,-0.5163363,0,94.05275,-2.628102,0.5,0,0,0,0,-5.947254,0,0,192,0,0,141,2,229
11.43.07.686536, 332.7216,-191.9151,7.182731,-9.315063,-184.539,1,0,0,0,0,0.6564133,-0.1374662,-17.43705,0,0.9106207,-0.3346972,0.2343341,0,0,0,0,0,-0.3590328,0,0,-2.106389,-3.00199,-35.84147,0,-2.028161,-2.668657,1,0,0,0,0,0,-5,0,0,5.564858,-0.2479908,0,94.05275,-1.69379,0.5,0,0,0,0,-6.18019,0,0,192,0,0,142,2,229
11.43.07.784541, 312.4599,-199.6026,7.057497,-27.27838,-191.9151,1,0,0,0,0,0.6564133,0.06322766,-25.78209,0,0.6564133,-0.1374662,0.5385072,0,0,0,0,0,-0.06584619,0,0,-2.106389,-3.346323,-25.53045,0,-2.106389,-3.00199,1,0,0,0,0,0,-5,0,0,5.584117,0.004282791,0,93.81981,-0.8135091,0.5,0,0,0,0,-6.18019,0,0,192,0,0,143,2,229
11.43.07.886547, 289.8767,-205.6085,6.720686,-47.5401,-199.6026,1,0,0,0,0,0.6564133,0.3172399,-30.2056,0,0.6564133,0.06322766,0.8087693,0,0,0,0,0,0.3072437,0,0,-2.106389,-3.684649,-9.144428,0,-2.106389,-3.346323,1,0,0,0,0,0,-5,0,0,5.544358,0.1464517,0,93.81981,0.01404927,0.5,0,0,0,0,-6.18019,0,0,192,0,0,144,2,229
11.43.07.985553, 266.4113,-207.2396,6.50027,-70.12329,-205.6085,1,0,0,0,0,0.8294413,0.6737018,-28.76234,0,0.8294413,0.3172399,0.9620867,0,0,0,0,0,0.8294575,0,0,-3.14076,-4.008969,10.04727,0,-3.14076,-3.684649,0.3812874,0,0,0,0,0,-5,0,0,5.479502,0.2005507,0,93.97836,0.4804201,0.5,0,0,0,0,-6.02164,0,0,192,0,0,145,2,229
11.43.08.087558, 245.6703,-201.5825,6.227666,-93.58875,-207.2396,1,0,0,0,0,0.8294413,1.155914,-21.01362,0,0.8294413,0.6737018,0.9378882,0,0,0,0,0,1.49212,0,0,-3.14076,-4.296866,27.68859,0,-3.14076,-4.008969,-1,0,0,0,0,0,-5,0,0,5.396623,0.2662003,0,93.97836,0.6578864,0.5,0,0,0,0,-6.02164,0,0,192,0,0,146,2,229
11.43.08.185564, 229.7216,-187.4112,5.910297,-114.3297,-201.5825,1,0,0,0,0,0.8294413,1.691392,-8.774246,0,0.8294413,1.155914,0.7254674,0,0,0,0,0,2.388552,0,0,-3.14076,-4.554176,40.7303,0,-3.14076,-4.296866,-1,0,0,0,0,0,-5,0,0,5.259226,0.4747807,0,93.97836,0.8732436,0.5,0,0,0,0,-6.02164,0,0,192,0,0,147,2,229
11.43.08.287570, 221.6207,-173.4709,5.215851,-130.2784,-187.4112,1,0,0,0,0,0.8465278,2.056761,0.4910917,0,0.8465278,1.691392,0.3769058,0,0,0,0,0,3.388944,0,0,-4.04185,-4.711339,45.41158,0,-4.04185,-4.554176,-1,0,0,0,0,0,-5,0,0,5.126529,0.5989496,0,93.99402,1.557471,0.5,0,0,0,0,-6.005983,0,0,192,0,0,148,2,229
11.43.08.386576, 211.9429,-148.1943,4.854923,-138.3793,-173.4709,1,0,0,0,0,0.8636146,2.615237,14.48678,0,0.8636146,2.056761,0.1110424,0,0,0,0,0,4.073103,0,0,-4.942939,-4.900381,46.08009,0,-4.942939,-4.711339,-1,0,0,0,0,0,-5,0,0,4.831639,0.9327859,0,94.00967,1.964794,0.5,0,0,0,0,-5.990327,0,0,192,0,0,149,2,229
11.43.08.484581, 204.3642,-120.1267,4.474675,-148.0571,-148.1943,1,0,0,0,0,1.273763,3.170776,26.62681,0,0.8636146,2.615237,-0.2906397,0,0,0,0,0,5.11131,0,0,-4.997993,-5.040285,41.0829,0,-4.942939,-4.900381,-1,0,0,0,0,0,-5,0,0,4.41671,1.290964,0,94.00967,3.059911,0.5,0,0,0,0,-5.614499,0,0,192,0,0,150,2,229
11.43.08.586587, 197.8241,-93.32795,4.080649,-155.6358,-120.1267,1,0,0,0,0,1.758675,3.799789,36.33795,0,1.273763,3.170776,-0.6312908,0,0,0,0,0,6.262589,0,0,-6.298926,-5.111574,32.22175,0,-4.997993,-5.040285,-1,0,0,0,0,0,-5,0,0,3.915854,1.549264,0,94.3855,4.234878,0.5,0,0,0,0,-5.170164,0,0,192,0,0,151,2,229
11.43.08.684593, 191.6999,-68.64841,3.269708,-162.1759,-93.32795,0.1190091,0,0,0,0,2.506617,4.505302,43.3914,0,2.506617,3.799789,-0.8917425,0,0,0,0,0,7.78822,0,0,-6.353979,-5.08092,20.78304,0,-6.353979,-5.111574,-1,0,0,0,0,0,-5,0,0,3.385399,1.655388,0,94.83702,5.082204,0.5,0,0,0,0,-5.162976,0,0,192,0,0,152,2,229
11.43.08.786598, 184.5427,-40.30238,2.848958,-168.3001,-68.64841,-0.3738338,0,0,0,0,2.83318,5.495146,48.86823,0,2.83318,4.505302,-1,0,0,0,0,0,9.194145,0,0,-6.330804,-4.791551,4.061866,0,-6.330804,-5.08092,-1,0,0,0,0,0,-5,0,0,2.712196,1.630922,0,95.81443,5.430336,0.5,0,0,0,0,-4.185571,0,0,192,0,0,153,2,229
11.43.08.885604, 187.0807,43.94396,2.410314,-175.4573,-40.30238,-0.8975556,0,0,0,0,3.924772,6.334346,50.68579,0,2.83318,5.495146,-1,0,0,0,0,0,11.03427,0,0,-7.263772,-3.960924,-6.706338,0,-6.330804,-4.791551,-0.8336917,0,0,0,0,0,-5,0,0,2.13174,1.488447,0,95.81443,5.350075,0.5,0,0,0,0,-3.185322,0,0,192,0,0,154,2,229
11.43.08.987610, 206.7253,152.479,1.978016,-172.9193,43.94396,-1,0,0,0,0,3.586979,6.923794,49.3314,0,3.924772,6.334346,-1,0,0,0,0,0,12.90981,0,0,-7.263772,-2.695914,-5.84655,0,-7.263772,-3.960924,0.1569831,0,0,0,0,0,-5,0,0,1.643308,1.012268,0,96.81467,4.882703,0.5,0,0,0,0,-2.816682,0,0,192,0,0,155,2,229
11.43.09.085616, 223.2468,215.7391,1.213071,-153.2747,152.479,-1,0,0,0,0,4.762157,7.005919,43.4139,0,4.762157,6.923794,-1,0,0,0,0,0,13,0,0,-8.274967,-1.977474,-0.9281947,0,-8.274967,-2.695914,0.07788264,0,0,0,0,0,-5,0,0,1.518153,0.5752839,0,97.58199,3.320643,0.5,0,0,0,0,-2.418009,0,0,192,0,0,156,2,229
11.43.09.184621, 258.7989,297.818,0.8748343,-136.7532,215.7391,-1,0,0,0,0,5.016364,7.011927,24.75776,0,5.016364,7.005919,-0.9428309,0,0,0,0,0,13,0,0,-8.19674,-0.8747246,7.070407,0,-8.19674,-1.977474,-0.3746061,0,0,0,0,0,-5,0,0,1.388493,0.1495401,0,97.81493,1.887161,0.5,0,0,0,0,-2.185073,0,0,192,0,0,157,2,229
11.43.09.285627, 287.7145,334.3713,0.6247565,-101.2011,297.818,-0.7494397,0,0,0,0,6.174456,6.96312,4.8816,0,5.016364,7.011927,-0.3644907,0,0,0,0,0,13,0,0,-8.306846,-0.4418496,8.96969,0,-8.19674,-0.8747246,-1,0,0,0,0,0,-5,0,0,1.422709,-0.2417933,0,97.81493,0.4905512,0.5,0,0,0,0,-1.802057,0,0,192,0,0,158,2,229
11.43.09.384633, 319.6277,354.4284,0.4440428,-72.28546,334.3713,-0.3352865,0,0,0,0,6.766456,7.025499,-14.79056,0,6.174456,6.96312,0.2516704,0,0,0,0,0,13,0,0,-8.228618,-0.4623645,2.453331,0,-8.306846,-0.4418496,-1,0,0,0,0,0,-5,0,0,1.513158,-0.2328834,0,98.19794,-0.7931786,0.5,0,0,0,0,-1.937762,0,0,192,0,0,159,2,229
11.43.09.486638, 9.687731,327.1543,0.2421814,-40.37228,354.4284,0.08566314,0,0,0,0,7.104249,7.268012,-28.6961,0,7.104249,7.025499,0.8615073,0,0,0,0,0,13,0,0,-8.228618,-0.3874803,-21.81436,0,-8.228618,-0.4623645,-0.6857064,0,0,0,0,0,-5,0,0,1.419047,0.5923169,0,97.6936,-0.7639507,0.5,0,0,0,0,-2.306403,0,0,192,0,0,160,2,229
11.43.09.584644, 33.64372,296.7379,0.2664007,9.687731,327.1543,0.9892008,0,0,0,0,7.950457,7.270084,-28.00819,0,7.950457,7.268012,1,0,0,0,0,0,13,0,0,-8.072162,-0.1778938,-35.50562,0,-8.072162,-0.3874803,1,0,0,0,0,0,-5,0,0,1.213208,1.17342,0,97.79082,1.943036,0.5,0,0,0,0,-2.209172,0,0,192,0,0,161,2,229
11.43.09.687650, 68.04851,221.2499,0.35051,33.64372,296.7379,1,0,0,0,0,8.614813,7.018137,-17.56621,0,7.950457,7.270084,1,0,0,0,0,0,13,0,0,-8.048986,0.2432827,-53.60383,0,-8.072162,-0.1778938,1,0,0,0,0,0,-5,0,0,0.5066566,2.167085,0,97.79082,3.849287,0.5,0,0,0,0,-1.600408,0,0,192,0,0,162,2,229
11.43.09.785656, 90.90784,525.7136,0.5159789,68.04851,221.2499,1,0,0,0,0,9.024962,6.707656,8.478262,0,8.614813,7.018137,0.9475524,0,0,0,0,0,13,0,0,-8.10404,0.2970708,-53.87371,0,-8.048986,0.2432827,1,0,0,0,0,0,-5,0,0,-0.008505834,0.9865065,0,98.39959,7.108907,0.5,0,0,0,0,-1.224579,0,0,192,0,0,163,2,229
11.43.09.887661, 117.094,175.2844,0.9362617,90.90784,525.7136,1,0,0,0,0,10.18305,5.853667,31.65309,0,10.18305,6.707656,0.1401739,0,0,0,0,0,13,0,0,-8.214146,-0.3846286,-13.79441,0,-8.214146,0.2970708,1,0,0,0,0,0,-5,0,0,0.6437181,-3.649229,0,99.15844,3.236136,0.5,0,0,0,0,-0.8415632,0,0,192,0,0,164,2,229
11.43.09.985667, 133.2862,207.7575,1.204103,117.094,175.2844,1,0,0,0,0,10.52085,5.750297,22.46133,0,10.52085,5.853667,-0.5782459,0,0,0,0,0,13,0,0,-8.214146,-0.3758519,20.51301,0,-8.214146,-0.3846286,0.809086,0,0,0,0,0,-5,0,0,1.33137,-2.882361,0,98.78979,-11.97093,0.5,0,0,0,0,-1.210204,0,0,192,0,0,165,2,229
11.43.10.084673, 150.0344,223.4499,1.510735,133.2862,207.7575,1,0,0,0,0,11.19643,5.65178,0.7502449,0,10.52085,5.750297,-0.2933011,0,0,0,0,0,13,0,0,-8.214146,-0.364474,66.50005,0,-8.214146,-0.3758519,-1,0,0,0,0,0,-5,0,0,2.113506,-1.640312,0,98.78979,-9.455297,0.5,0,0,0,0,-1.947484,0,0,192,0,0,166,2,229
11.43.10.186679, 156.3961,215.5025,1.852641,150.0344,223.4499,1,0,0,0,0,11.87202,5.62507,-16.41547,0,11.19643,5.65178,0.3797424,0,0,0,0,0,13,0,0,-8.214146,-0.3736111,93.38848,0,-8.214146,-0.364474,-1,0,0,0,0,0,-5,0,0,2.38504,-0.7975804,0,98.05251,-5.38088,0.5,0,0,0,0,-2.684765,0,0,192,0,0,167,2,229
11.43.10.284684, 159.6066,182.0968,2.55016,156.3961,215.5025,1,0,0,0,0,12.20981,5.588197,-42.83713,0,12.20981,5.62507,0.9118795,0,0,0,0,0,13,0,0,-8.214146,-0.3714143,131.0038,0,-8.214146,-0.3736111,-1,0,0,0,0,0,-5,0,0,2.366637,0.44841,0,96.94659,-2.616383,0.5,0,0,0,0,-3.053406,0,0,192,0,0,168,2,229
11.43.10.386690, 150.1803,137.4762,2.901204,159.6066,182.0968,1,0,0,0,0,12.46402,5.507209,-65.14537,0,12.46402,5.588197,1,0,0,0,0,0,13,0,0,-8.135918,-0.3204227,172.0322,0,-8.135918,-0.3714143,-1,0,0,0,0,0,-5,0,0,1.933351,1.526048,0,97.17953,1.470964,0.5,0,0,0,0,-2.82047,0,0,192,0,0,169,2,229
11.43.10.485696, 80.98418,78.61412,3.225135,150.1803,137.4762,1,0,0,0,0,13.9599,5.365422,-75.65421,0,12.46402,5.507209,1,0,0,0,0,0,13,0,0,-8.246024,-0.282234,-86.47609,0,-8.135918,-0.3204227,-1,0,0,0,0,0,-5,0,0,1.056073,2.667393,0,97.17953,5.006047,0.5,0,0,0,0,-2.806094,0,0,192,0,0,170,2,229
11.43.10.586701, 41.21648,24.89581,3.375319,80.98418,78.61412,1,0,0,0,0,14.28647,5.257591,-60.76011,0,13.9599,5.365422,1,0,0,0,0,0,13,0,0,-8.222849,-0.2769219,-22.91501,0,-8.246024,-0.282234,1,0,0,0,0,0,-5,0,0,-0.03332346,3.67152,0,97.19391,8.750115,0.5,0,0,0,0,-1.82869,0,0,192,0,0,171,2,229
11.43.10.685707, 43.27446,68.20477,3.508972,41.21648,24.89581,1,0,0,0,0,14.61303,4.231985,-48.34652,0,14.61303,5.257591,1,0,0,0,0,0,13,0,0,-8.199674,0.1329675,-10.57395,0,-8.199674,-0.2769219,1,0,0,0,0,0,-5,0,0,-0.1891075,-0.7606624,0,99.14871,12.04405,0.5,0,0,0,0,-0.8512855,0,0,192,0,0,172,2,229
11.43.10.787713, 51.02267,53.67126,3.584042,43.27446,68.20477,1,0,0,0,0,15.36097,3.91532,-31.77868,0,15.36097,4.231985,1,0,0,0,0,0,12.30658,0,0,-8.254726,0.206888,-2.362939,0,-8.254726,0.1329675,0.5128037,0,0,0,0,0,-5,0,0,0.2140344,-0.5509405,0,99.1559,-2.495277,0.5,0,0,0,0,-0.8440981,0,0,192,0,0,173,2,229
11.43.10.885718, 55.8133,45.68808,3.676631,51.02267,53.67126,1,0,0,0,0,16.10891,3.847887,-20.636,0,15.36097,3.91532,1,0,0,0,0,0,11.7179,0,0,-8.30978,0.2024362,4.009309,0,-8.254726,0.206888,-0.2426096,0,0,0,0,0,-5,0,0,0.2233711,0.2408634,0,99.1559,-1.807305,0.5,0,0,0,0,-0.8369098,0,0,192,0,0,174,2,229
11.43.10.983724, 58.73877,47.1937,3.779082,55.8133,45.68808,1,0,0,0,0,16.10891,3.753554,-14.5709,0,16.10891,3.847887,1,0,0,0,0,0,11.8087,0,0,-8.30978,0.1930188,5.955966,0,-8.30978,0.2024362,-0.8288564,0,0,0,0,0,-5,0,0,0.15531,0.4533081,0,99.16309,0.7901284,0.5,0,0,0,0,-0.8369098,0,0,192,0,0,175,2,229
11.43.11.086730, 66.37292,56.8601,3.993411,58.73877,47.1937,1,0,0,0,0,16.10891,3.258248,-0.6020516,0,16.10891,3.753554,0.8123312,0,0,0,0,0,11.63333,0,0,-8.30978,0.1034426,0.8937751,0,-8.30978,0.1930188,-1,0,0,0,0,0,-5,0,0,0.07002766,-0.05383608,0,99.16309,1.487032,0.5,0,0,0,0,-0.8369098,0,0,192,0,0,176,2,229
11.43.11.184736, 68.26013,56.07505,4.117775,66.37292,56.8601,1,0,0,0,0,16.10891,3.148782,2.806627,0,16.10891,3.258248,0.3507529,0,0,0,0,0,10.71256,0,0,-8.30978,0.07994355,-1.545128,0,-8.30978,0.1034426,-0.5422273,0,0,0,0,0,-5,0,0,0.08013639,-0.09361723,0,99.16309,-0.1766039,0.5,0,0,0,0,-0.8369098,0,0,192,0,0,177,2,229
11.43.11.286741, 74.66177,22.22964,4.244043,68.26013,56.07505,1,0,0,0,0,16.10891,2.65179,12.02234,0,16.10891,3.148782,0.2387755,0,0,0,0,0,10.50906,0,0,-8.30978,0.001017751,-10.47227,0,-8.30978,0.07994355,-0.3178482,0,0,0,0,0,-5,0,0,0.1408505,-0.1236392,0,99.16309,-0.307102,0.5,0,0,0,0,-0.8369098,0,0,192,0,0,178,2,229
11.43.11.384747, 76.09071,18.31594,4.384717,74.66177,22.22964,1,0,0,0,0,17.61948,2.514436,11.72466,0,16.10891,2.65179,-0.07555266,0,0,0,0,0,9.585155,0,0,-8.130149,-0.004930827,-12.16257,0,-8.30978,0.001017751,0.5034489,0,0,0,0,0,-5,0,0,0.1329798,0.07555437,0,99.16309,-0.4055859,0.5,0,0,0,0,-0.1309156,0,0,192,0,0,179,2,229
11.43.11.486753, 78.48154,19.68104,4.667533,76.09071,18.31594,1,0,0,0,0,17.61948,2.217275,10.58916,0,17.61948,2.514436,-0.06070717,0,0,0,0,0,9.766366,0,0,-8.130149,-0.007641817,-11.23344,0,-8.130149,-0.004930827,0.6589568,0,0,0,0,0,-5,0,0,0.09936091,0.07440184,0,99.86909,0.2478486,0.5,0,0,0,0,-0.1309156,0,0,192,0,0,180,2,229
11.43.11.585759, 80.96875,18.4906,4.812703,78.48154,19.68104,1,0,0,0,0,17.95727,1.894157,8.976316,0,17.95727,2.217275,-0.03960549,0,0,0,0,0,9.311565,0,0,-8.130149,-0.00796609,-7.107763,0,-8.130149,-0.007641817,0.5734763,0,0,0,0,0,-5,0,0,0.09641966,-0.009545711,0,99.50044,0.2440678,0.5,0,0,0,0,-0.4995556,0,0,192,0,0,181,2,229
11.43.11.684764, 82.38377,15.66299,4.962174,80.96875,18.4906,1,0,0,0,0,17.95727,1.69731,7.352997,0,17.95727,1.894157,-0.008228255,0,0,0,0,0,8.710889,0,0,-8.130149,-0.003902561,-4.407712,0,-8.130149,-0.00796609,0.1939142,0,0,0,0,0,-5,0,0,0.09427108,0.01208218,0,99.50044,-0.03131375,0.5,0,0,0,0,-0.4995556,0,0,192,0,0,182,2,229
11.43.11.785770, 84.00671,11.82585,5.113248,82.38377,15.66299,1,0,0,0,0,17.95727,1.399101,4.149848,0,17.95727,1.69731,0.0307506,0,0,0,0,0,8.344952,0,0,-8.130149,0.01304993,-1.841851,0,-8.130149,-0.003902561,-0.05449045,0,0,0,0,0,-5,0,0,0.08470031,0.02556485,0,99.50044,0.03963437,0.5,0,0,0,0,-0.4995556,0,0,192,0,0,183,2,229
11.43.11.883776, 85.30771,10.88469,5.418292,84.00671,11.82585,1,0,0,0,0,18.29506,1.083639,0.9057143,0,18.29506,1.399101,0.1128627,0,0,0,0,0,7.888203,0,0,-8.130149,0.04242922,-1.838198,0,-8.130149,0.01304993,-0.2905497,0,0,0,0,0,-5,0,0,0.09179901,-0.02099428,0,99.13181,0.08386295,0.5,0,0,0,0,-0.8681965,0,0,192,0,0,184,2,229
11.43.11.986781, 86.70766,13.19129,5.571664,85.30771,10.88469,1,0,0,0,0,18.29506,0.7486289,-1.43009,0,18.29506,1.083639,0.1982774,0,0,0,0,0,7.301759,0,0,-8.130149,0.0669415,-3.02816,0,-8.130149,0.04242922,-0.2908858,0,0,0,0,0,-5,0,0,0.09326209,0.0007040559,0,99.13181,-0.06886964,0.5,0,0,0,0,-0.8681965,0,0,192,0,0,185,2,229
11.43.12.084787, 88.2924,15.14248,5.726779,86.70766,13.19129,1,0,0,0,0,18.29506,0.4883404,-2.603143,0,18.29506,0.7486289,0.251381,0,0,0,0,0,6.678975,0,0,-8.130149,0.06525376,-3.303054,0,-8.130149,0.0669415,-0.1814093,0,0,0,0,0,-5,0,0,0.09224422,0.0006195572,0,99.13181,0.002309585,0.5,0,0,0,0,-0.8681965,0,0,192,0,0,186,2,229
