MagYaw,YawVelocityDegreesPerSecond,YawIntegral,YawProportional,YawDerivativeError,YawControl,YawIntegralGain,YawDerivativeGain,YawProportionalGain,YawAntiWindupGain,XNEDBodyFrame,XVelocityMetersPerSecond,ThetaPitchDegrees,XIntegral,XProportional,XDerivativeError,LongitudeControl,XIntegralGain,XDerivativeGain,XProportionalGain,XAntiWindupGain,LongitudeInnerLoopGain,XLongitudeOuterLoopSetpoint,YNEDBodyFrame,YVelocityMetersPerSecond,PhiRollDegrees,YIntegral,YProportional,YDerivativeError,LateralControl,YIntegralGain,YDerivativeGain,YProportionalGain,YAntiWindupGain,LateralInnerLoopGain,YLateralOuterLoopSetpoint,AltitudeFeetAgl,ZVelocityMetersPerSecond,ZIntegral,ZProportional,ZDerivativeError,MainRotorCollectiveControl,ZIntegralGain,ZDerivativeGain,ZProportionalGain,ZAntiWindupGain,LatitudeDegrees,LongitudeDegrees,Timeouts,UnrecognizedMsgTypes,ChecksumErrors,NumOfBlownFrames,MessageType,NumOfBytesInMsg
32.40802,1.707597,0,0,0,0,0,0,0,0,0,-0.08582704,5.197939,0,0,0,0,0,0,0,0,0,0,0,0.04888161,1.109728,0,0,0,0,0,0,0,0,0,0,0.08426201,0.001416638,0,0,0,0,0,0,0,0,0,0,400,0,0,0,2,209

32.92119,10.17792,0.8102006,32.40802,1.707597,1,0,0,0,0,0,-0.05632206,5.189044,0,0,-0.08582704,-0.1660822,0,0,0,0,0,-0.1595525,0,0.02475816,1.117242,0,0,0.04888161,-0.08933979,0,0,0,0,0,0.1386429,0.08440673,-0.0007650928,0.09999999,100,0.004647139,1,0,0,0,0,0,0,400,0,0,1,2,209

33.00779,1.717115,0,32.92119,10.17792,1,0,0,0,0,-0.762622,-0.08615622,5.188901,0,0,-0.05632206,-0.1641061,0,0,0,0,0,-0.1047027,-0.2346839,0.04821668,1.110268,0,0,0.02475816,-0.09632593,0,0,0,0,0,0.07022157,0.08422649,0.001093415,0,100,-0.00250981,1,0,0,0,0,0,0,400,0,0,2,2,209

31.92995,-21.45752,0,33.00779,1.717115,1,0,0,0,0,-0.762622,-0.4240815,5.518246,0,-0.762622,-0.08615622,-0.1726534,0,0,0,0,0,-0.3805622,-0.2346839,-0.2091516,1.02032,0,-0.2346839,0.04821668,-0.1205892,0,0,0,0,0,-0.2004839,0.5150961,-2.614904,0,99.30119,0.00358684,1,0,0,0,0,0,0,400,0,0,3,2,209

27.65538,-49.05305,0,31.92995,-21.45752,1,0,0,0,0,-0.4248289,-0.6583585,6.618813,0,-0.4248289,-0.4240815,-0.2023374,0,0,0,0,0,-0.911143,-0.2346839,-0.289398,0.3044901,0,-0.2346839,-0.2091516,-0.1794715,0,0,0,0,0,-0.9304574,1.806912,-4.261539,0,98.93256,-8.577932,1,0,0,0,0,0,0,400,0,0,4,2,209

24.66012,-59.21749,0,27.65538,-49.05305,1,0,0,0,0,-0.413599,-0.7482367,7.166272,0,-0.413599,-0.6583585,-0.2468292,0,0,0,0,0,-1.343418,-0.2578588,-0.3156618,-0.3328513,0,-0.2578588,-0.289398,-0.1376185,0,0,0,0,0,-1.191363,2.587814,-4.738428,0,97.58651,-13.97955,1,0,0,0,0,0,0,400,0,0,5,2,209

17.58068,-72.47209,0,24.66012,-59.21749,1,0,0,0,0,-0.5842206,-0.8942564,8.241611,0,-0.413599,-0.7482367,-0.26898,0,0,0,0,0,-1.510502,-0.4143147,-0.3848489,-2.19207,0,-0.2578588,-0.3156618,-0.08583629,0,0,0,0,0,-1.265854,4.302406,-5.326114,0,97.58651,-15.54394,1,0,0,0,0,0,0,400,0,0,6,2,209

13.67311,-76.51542,0,17.58068,-72.47209,1,0,0,0,0,-0.6453466,-0.9546015,8.713899,0,-0.5842206,-0.8942564,-0.312259,0,0,0,0,0,-1.831262,-0.3824363,-0.4238575,-3.399761,0,-0.4143147,-0.3848489,0.04647406,0,0,0,0,0,-1.686917,5.210712,-5.511347,0,96.752,-17.47178,1,0,0,0,0,0,0,400,0,0,7,2,209

9.612841,-79.23879,0,13.67311,-76.51542,1,0,0,0,0,-0.3075535,-1.012121,9.116681,0,-0.3075535,-0.9546015,-0.3309252,0,0,0,0,0,-1.863487,-0.3824363,-0.4672978,-4.690151,0,-0.3824363,-0.4238575,0.1516172,0,0,0,0,0,-1.751748,6.142173,-5.652373,0,94.29284,-18.07942,1,0,0,0,0,0,0,400,0,0,8,2,209

5.458113,-80.85709,0,9.612841,-79.23879,1,0,0,0,0,-0.6341166,-1.069598,9.429695,0,-0.6341166,-1.012121,-0.3466257,0,0,0,0,0,-2.064793,-0.405611,-0.507189,-5.897505,0,-0.405611,-0.4672978,0.255934,0,0,0,0,0,-1.90826,7.091805,-5.763272,0,93.31544,-18.54204,1,0,0,0,0,0,0,400,0,0,9,2,209

1.254225,-81.61971,0,5.458113,-80.85709,-1,0,0,0,0,-1.044266,-1.125188,9.668316,0,-0.6341166,-1.069598,-0.3596415,0,0,0,0,0,-2.171642,-0.3505578,-0.5595135,-7.040064,0,-0.405611,-0.507189,0.3566014,0,0,0,0,0,-2.021403,8.056112,-5.851635,0,93.31544,-18.90584,1,0,0,0,0,0,0,400,0,0,10,2,209

352.8292,-81.44788,0.2673479,1.254225,-81.61971,-1,0,0,0,0,-0.7788284,-1.245665,9.926912,0,-1.044266,-1.125188,-0.3739168,0,0,0,0,0,-2.393517,-0.2955048,-0.6492079,-8.681513,0,-0.3505578,-0.5595135,0.4553415,0,0,0,0,0,-2.0907,10.01898,-5.986722,0,92.93961,-19.19571,1,0,0,0,0,0,0,400,0,0,11,2,209

350.9079,-36.06021,3.377089,-7.170776,-81.44788,-1,0,0,0,0,-0.8399544,-1.268365,10.32059,0,-0.8399544,-1.245665,-0.3864982,0,0,0,0,0,-2.558438,-0.2636263,-0.8644463,-9.007029,0,-0.2636263,-0.6492079,0.5902282,0,0,0,0,0,-2.220179,11.00972,-6.013844,0,89.73598,-19.63884,1,0,0,0,0,0,0,400,0,0,12,2,209

351.3354,10.52964,5.390573,-9.092102,-36.06021,-1,0,0,0,0,-1.166518,-1.299738,11.05675,0,-1.166518,-1.268365,-0.4034838,0,0,0,0,0,-2.695014,-0.2868011,-1.076152,-8.851083,0,-0.2868011,-0.8644463,0.5651621,0,0,0,0,0,-2.863962,12.00172,-6.023291,0,88.75858,-19.72782,1,0,0,0,0,0,0,400,0,0,13,2,209

359.0434,98.61359,6.813764,-8.664612,10.52964,-1,0,0,0,0,-0.9010801,-1.377126,13.42809,0,-1.166518,-1.299738,-0.4281125,0,0,0,0,0,-2.753336,-0.2317481,-1.465774,-6.671704,0,-0.2868011,-1.076152,0.4955726,0,0,0,0,0,-3.464424,13.98294,-6.012454,0,88.75858,-19.7588,1,0,0,0,0,0,0,400,0,0,14,2,209

5.965279,135.947,7.433868,-0.9566345,98.61359,1,0,0,0,0,-1.398265,-1.422004,14.78163,0,-0.9010801,-1.377126,-0.503706,0,0,0,0,0,-2.82049,-0.4113784,-1.620602,-4.419009,0,-0.2317481,-1.465774,0.2006802,0,0,0,0,0,-4.490397,14.97124,-6.00373,0,87.64548,-19.72326,1,0,0,0,0,0,0,400,0,0,15,2,209

14.72118,169.5079,1.81659,5.965279,135.947,1,0,0,0,0,-1.314679,-1.470834,15.94537,0,-1.314679,-1.422004,-0.5527063,0,0,0,0,0,-3.023448,-0.4896064,-1.753956,-1.410673,0,-0.4896064,-1.620602,-0.07071637,0,0,0,0,0,-5.300078,15.95807,-5.995601,0,85.23198,-19.69464,1,0,0,0,0,0,0,400,0,0,16,2,209

34.50527,177.7728,0,14.72118,169.5079,1,0,0,0,0,-1.049242,-1.737101,16.78171,0,-1.049242,-1.470834,-0.5884694,0,0,0,0,0,-3.03751,-0.4345536,-1.808762,6.151527,0,-0.4345536,-1.753956,-0.3853443,0,0,0,0,0,-5.599198,17.92794,-5.977582,0,84.11887,-19.66797,1,0,0,0,0,0,0,400,0,0,17,2,209

42.69065,155.8928,0,34.50527,177.7728,1,0,0,0,0,-1.110368,-1.955818,16.47267,0,-1.049242,-1.737101,-0.6297405,0,0,0,0,0,-3.532502,-0.4026747,-1.7808,9.521242,0,-0.4345536,-1.808762,-1,0,0,0,0,0,-5.754644,18.91096,-5.970063,0,84.11887,-19.60886,1,0,0,0,0,0,0,400,0,0,18,2,209

49.77509,135.6399,0,42.69065,155.8928,1,0,0,0,0,-1.930666,-2.179029,15.83146,0,-1.110368,-1.955818,-0.6333123,0,0,0,0,0,-3.956762,-0.2925687,-1.777483,12.05395,0,-0.4026747,-1.7808,-1,0,0,0,0,0,-5.629527,19.8939,-5.967073,0,82.02836,-19.5842,1,0,0,0,0,0,0,400,0,0,19,2,209

61.10493,102.7227,0,49.77509,135.6399,1,0,0,0,0,-1.509288,-2.624085,13.93349,0,-1.509288,-2.179029,-0.6336473,0,0,0,0,0,-4.486999,-0.3707967,-1.824669,14.32546,0,-0.3707967,-1.777483,-1,0,0,0,0,0,-5.574308,21.86133,-5.978351,0,80.30649,-19.57439,1,0,0,0,0,0,0,400,0,0,20,2,209

65.63999,90.69492,0,61.10493,102.7227,1,0,0,0,0,-2.160007,-2.819574,12.77292,0,-2.160007,-2.624085,-0.6025131,0,0,0,0,0,-5.502417,-1.607973,-1.869964,13.81416,0,-1.607973,-1.824669,-1,0,0,0,0,0,-7.485967,22.84873,-5.991692,0,77.67571,-19.61138,1,0,0,0,0,0,0,400,0,0,21,2,209

69.66355,81.93856,0,65.63999,90.69492,1,0,0,0,0,-2.232364,-2.987926,11.50326,0,-2.160007,-2.819574,-0.5778013,0,0,0,0,0,-5.86583,-1.55292,-1.922602,12.39164,0,-1.607973,-1.869964,-1,0,0,0,0,0,-7.614436,23.84052,-6.016562,0,77.67571,-19.65515,1,0,0,0,0,0,0,400,0,0,22,2,209

69.66355,81.93856,0,69.66355,81.93856,1,0,0,0,0,-2.221133,-2.987926,11.50326,0,-2.221133,-2.987926,-0.5487919,0,0,0,0,0,-6.196463,-1.576095,-1.922602,12.39164,0,-1.576095,-1.922602,-1,0,0,0,0,0,-7.717925,23.84052,-6.016562,0,75.5852,-19.73673,1,0,0,0,0,0,0,401,0,0,23,2,209

80.463,73.17513,0,69.66355,81.93856,1,0,0,0,0,-2.221133,-3.242562,7.199952,0,-2.221133,-2.987926,-0.5486914,0,0,0,0,0,-6.196463,-1.576095,-2.06372,3.769369,0,-1.576095,-1.922602,-1,0,0,0,0,0,-7.717925,26.87906,-6.236368,0,75.5852,-19.73673,1,0,0,0,0,0,0,401,0,0,24,2,209

88.18275,79.06104,0,80.463,73.17513,1,0,0,0,0,-2.354615,-3.154465,4.162021,0,-2.354615,-3.242562,-0.4311591,0,0,0,0,0,-6.708405,-1.489163,-2.066506,-4.827258,0,-1.489163,-2.06372,-1,0,0,0,0,0,-7.993256,29.0079,-6.541863,0,72.75021,-20.45778,1,0,0,0,0,0,0,401,0,0,25,2,209

97.43153,91.04273,0,88.18275,79.06104,1,0,0,0,0,-3.163685,-2.831984,1.570445,0,-2.354615,-3.154465,-0.3319063,0,0,0,0,0,-6.544635,-1.402231,-1.90249,-15.14245,0,-1.489163,-2.066506,-0.2919988,0,0,0,0,0,-8.001158,31.26884,-6.972072,0,72.75021,-21.45993,1,0,0,0,0,0,0,401,0,0,26,2,209

108.682,107.3539,0,97.43153,91.04273,1,0,0,0,0,-3.479017,-2.268169,0.3963006,0,-3.163685,-2.831984,-0.2402316,0,0,0,0,0,-6.178963,-1.448582,-1.491864,-26.65146,0,-1.402231,-1.90249,0.71129,0,0,0,0,0,-7.411037,33.68193,-7.452758,0,70.65251,-22.87118,1,0,0,0,0,0,0,401,0,0,27,2,209

115.0513,116.4947,0,108.682,107.3539,1,0,0,0,0,-3.465381,-1.960768,0.7062353,0,-3.465381,-2.268169,-0.1741661,0,0,0,0,0,-5.218021,-2.662583,-1.205683,-32.03897,0,-2.662583,-1.491864,1,0,0,0,0,0,-8.057505,34.94226,-7.665922,0,66.30706,-24.44803,1,0,0,0,0,0,0,401,0,0,28,2,209

128.8317,135.4808,0,115.0513,116.4947,1,0,0,0,0,-3.8643,-1.375178,3.620663,0,-3.8643,-1.960768,-0.1695107,0,0,0,0,0,-4.761851,-2.630705,-0.5088117,-39.99448,0,-2.630705,-1.205683,1,0,0,0,0,0,-7.200002,37.53171,-7.968222,0,64.58519,-25.14729,1,0,0,0,0,0,0,401,0,0,29,2,209

143.5163,153.665,0,128.8317,135.4808,1,0,0,0,0,-4.081367,-0.9117298,9.48241,0,-3.8643,-1.375178,-0.2261109,0,0,0,0,0,-3.673238,-2.465545,0.247326,-41.32904,0,-2.630705,-0.5088117,1,0,0,0,0,0,-5.223465,40.18737,-8.114077,0,64.58519,-26.13896,1,0,0,0,0,0,0,401,0,0,30,2,209

151.108,160.4172,0,143.5163,153.665,1,0,0,0,0,-3.804701,-0.7331179,13.14185,0,-4.081367,-0.9117298,-0.3830618,0,0,0,0,0,-2.874421,-2.433666,0.5991735,-39.59533,0,-2.465545,0.247326,1,0,0,0,0,0,-2.841497,41.52653,-8.140832,0,62.35178,-26.61742,1,0,0,0,0,0,0,401,0,0,31,2,209

167.0429,168.1404,0,151.108,160.4172,1,0,0,0,0,-3.891737,-0.4622998,20.77159,0,-3.891737,-0.7331179,-0.4837325,0,0,0,0,0,-2.487578,-2.668351,1.143563,-31.71219,0,-2.668351,0.5991735,1,0,0,0,0,0,-2.134985,44.20466,-8.122169,0,58.45654,-26.70519,1,0,0,0,0,0,0,401,0,0,32,2,209

183.9598,162.5356,0,167.0429,168.1404,1,0,0,0,0,-4.36301,-0.1793199,27.04327,0,-4.36301,-0.4622998,-0.7096492,0,0,0,0,0,-2.120325,-2.581419,1.422522,-18.51373,0,-2.581419,1.143563,1,0,0,0,0,0,-0.4660118,46.86938,-8.067193,0,55.9902,-26.64396,1,0,0,0,0,0,0,401,0,0,33,2,209

192.493,154.4903,-37.95065,-176.0402,162.5356,-1,0,0,0,0,-4.331728,0.0115181,29.08407,0,-4.36301,-0.1793199,-0.8877634,0,0,0,0,0,-1.594266,-1.460116,1.469781,-10.33497,0,-2.581419,1.422522,1,0,0,0,0,0,0.3252013,48.1944,-8.034075,0,55.9902,-26.46362,1,0,0,0,0,0,0,401,0,0,34,2,209

192.493,154.4903,-8.628853,-167.507,154.4903,-1,0,0,0,0,-4.658291,0.0115181,29.08407,0,-4.331728,0.0115181,-0.9397504,0,0,0,0,0,-1.230457,-1.483291,1.469781,-10.33497,0,-1.460116,1.469781,1,0,0,0,0,0,2.070553,48.1944,-8.034075,0,52.62803,-26.35498,1,0,0,0,0,0,0,401,0,0,35,2,209

211.8683,191.0378,0,-167.507,154.4903,-1,0,0,0,0,-4.658291,0.4030633,30.46136,0,-4.658291,0.0115181,-0.9426762,0,0,0,0,0,-1.324834,-1.483291,1.645357,8.802438,0,-1.483291,1.469781,1,0,0,0,0,0,2.037251,50.83213,-7.979294,0,51.65062,-26.35498,1,0,0,0,0,0,0,401,0,0,36,2,209

238.4617,261.0653,0,-148.1317,191.0378,-1,0,0,0,0,-4.453979,0.955054,24.51358,0,-4.453979,0.4030633,-0.960977,0,0,0,0,0,-0.5379054,-1.396358,1.833423,30.52854,0,-1.396358,1.645357,-0.5650897,0,0,0,0,0,2.660158,53.41531,-7.975466,0,48.447,-26.17528,1,0,0,0,0,0,0,401,0,0,37,2,209

263.5711,308.028,0,-121.5383,261.0653,-1,0,0,0,0,-4.275578,1.84939,9.715972,0,-4.453979,0.955054,-0.7447854,0,0,0,0,0,0.4882452,-1.575991,1.980966,46.86084,0,-1.396358,1.833423,-1,0,0,0,0,0,3.193569,55.88292,-7.928174,0,48.447,-26.16272,1,0,0,0,0,0,0,401,0,0,38,2,209

287.4839,344.1743,0,-96.42889,308.028,-1,0,0,0,0,-3.998913,2.668396,-11.78257,0,-4.275578,1.84939,-0.2329215,0,0,0,0,0,2.202374,-1.544111,2.218136,50.36911,0,-1.575991,1.980966,-1,0,0,0,0,0,3.353915,58.32872,-7.751099,0,45.8978,-26.00758,1,0,0,0,0,0,0,401,0,0,39,2,209

317.2536,379.5238,0,-72.51614,344.1743,-1,0,0,0,0,-4.060036,3.451898,-34.74663,0,-4.060036,2.668396,0.4832105,0,0,0,0,0,3.787197,-1.512234,2.532301,35.76996,0,-1.512234,2.218136,-1,0,0,0,0,0,4.118219,60.69645,-7.439408,0,41.34813,-25.42671,1,0,0,0,0,0,0,401,0,0,40,2,209

32.40847,449.8493,0,-42.74637,379.5238,-1,0,0,0,0,-3.373222,4.329034,-42.15081,0,-3.373222,3.451898,1,0,0,0,0,0,5.442217,-1.535408,2.765641,-25.8831,0,-1.535408,2.532301,-1,0,0,0,0,0,4.975984,63.84749,-6.986387,0,39.26481,-24.40424,1,0,0,0,0,0,0,401,0,0,41,2,209

81.47926,516.0354,2.296727,32.40847,449.8493,1,0,0,0,0,-3.087732,5.427109,-3.974384,0,-3.373222,4.329034,1,0,0,0,0,0,7.072813,-0.3358784,2.691767,-60.57599,0,-1.535408,2.765641,1,0,0,0,0,0,5.637806,66.40648,-6.3998,0,39.26481,-22.91814,1,0,0,0,0,0,0,401,0,0,42,2,209

93.83157,535.3055,0,81.47926,516.0354,1,0,0,0,0,-2.219063,5.872438,13.60741,0,-3.087732,5.427109,0.4083017,0,0,0,0,0,9.19664,-0.225771,2.735986,-63.87742,0,-0.3358784,2.691767,1,0,0,0,0,0,7.152,67.20812,-6.08915,0,36.13557,-20.9939,1,0,0,0,0,0,0,401,0,0,43,2,209

165.4762,499.4194,0,93.83157,535.3055,1,0,0,0,0,-2.135475,6.921732,60.74062,0,-2.135475,5.872438,-0.1118298,0,0,0,0,0,10,-0.3039989,2.855286,-22.96478,0,-0.3039989,2.735986,1,0,0,0,0,0,7.323231,69.57536,-5.38013,0,32.93913,-19.97485,1,0,0,0,0,0,0,401,0,0,44,2,209

249.6213,421.5723,0,165.4762,499.4194,1,0,0,0,0,-1.365074,7.791992,35.82108,0,-1.365074,6.921732,-1,0,0,0,0,0,10,-0.4054031,2.739437,46.75086,0,-0.4054031,2.855286,1,0,0,0,0,0,7.515884,71.58483,-4.637616,0,30.25423,-17.64898,1,0,0,0,0,0,0,401,0,0,45,2,209

267.0163,372.3824,-41.52688,-110.3787,421.5723,-1,0,0,0,0,-0.1033478,8.43602,9.685294,0,-1.365074,7.791992,-0.8004534,0,0,0,0,0,10,0.5507393,2.636822,58.45554,0,-0.4054031,2.739437,-1,0,0,0,0,0,7.187299,72.66127,-3.923264,0,30.25423,-15.21323,1,0,0,0,0,0,0,401,0,0,46,2,209

278.9924,323.8548,-26.41891,-92.9837,372.3824,-1,0,0,0,0,0.1620903,9.097755,-15.4896,0,-0.1033478,8.43602,0.009755882,0,0,0,0,0,10,0.6057949,2.64349,65.44355,0,0.5507393,2.636822,-1,0,0,0,0,0,8.270229,73.54046,-2.950782,0,28.01955,-12.86988,1,0,0,0,0,0,0,401,0,0,47,2,209

295.3378,385.8244,-5.97188,-81.0076,323.8548,-1,0,0,0,0,1.175472,9.55517,-44.41247,0,1.175472,9.097755,0.7901776,0,0,0,0,0,10,0.6057949,2.62588,60.99671,0,0.6057949,2.64349,-1,0,0,0,0,0,8.368257,74.2924,-2.478099,0,25.80051,-9.679745,1,0,0,0,0,0,0,401,0,0,48,2,209

61.72584,454.95,0,-64.66223,385.8244,-1,0,0,0,0,2.18885,10.17866,-53.60311,0,2.18885,9.55517,1,0,0,0,0,0,10,0.6057949,2.9932,-54.0392,0,0.6057949,2.62588,-1,0,0,0,0,0,8.318311,75.19737,-1.263458,0,24.6946,-8.129156,1,0,0,0,0,0,0,401,0,0,49,2,209

80.44949,474.334,6.973001,61.72584,454.95,1,0,0,0,0,3.609974,10.42227,-22.96894,0,2.18885,10.17866,1,0,0,0,0,0,10,1.741568,3.063879,-70.64185,0,0.6057949,2.9932,1,0,0,0,0,0,9.360139,75.40279,-0.7489341,0,24.6946,-4.144649,1,0,0,0,0,0,0,401,0,0,50,2,209

89.60553,490.167,0,80.44949,474.334,1,0,0,0,0,3.537617,10.64062,11.30182,0,3.609974,10.42227,1,0,0,0,0,0,10,1.796619,3.081328,-76.99234,0,1.741568,3.063879,1,0,0,0,0,0,10,75.47141,-0.1332059,0,24.64046,-2.456804,1,0,0,0,0,0,0,401,0,0,51,2,209

99.31995,472.5551,0,89.60553,490.167,1,0,0,0,0,5.52483,10.89508,50.06807,0,5.52483,10.64062,-0.04035629,0,0,0,0,0,10,2.744061,2.948576,-76.42639,0,2.744061,3.081328,1,0,0,0,0,0,10,75.38953,0.3796271,0,24.36058,-0.4369686,1,0,0,0,0,0,0,401,0,0,52,2,209

109.6696,444.4548,0,99.31995,472.5551,1,0,0,0,0,5.862621,11.04743,68.73923,0,5.862621,10.89508,-1,0,0,0,0,0,10,2.744061,2.819434,-67.34513,0,2.744061,2.948576,1,0,0,0,0,0,10,75.29552,0.6776496,0,23.99194,1.245329,1,0,0,0,0,0,0,401,0,0,53,2,209

167.6853,411.8026,0,109.6696,444.4548,1,0,0,0,0,6.454624,11.21309,82.86806,0,5.862621,11.04743,-1,0,0,0,0,0,10,2.822289,2.67495,-10.29444,0,2.744061,2.819434,1,0,0,0,0,0,10,75.14587,1.047858,0,23.99194,2.222962,1,0,0,0,0,0,0,401,0,0,54,2,209

261.3084,343.7083,0,167.6853,411.8026,1,0,0,0,0,7.274921,11.63566,58.11575,0,6.454624,11.21309,-1,0,0,0,0,0,10,2.712181,2.328321,83.22183,0,2.822289,2.67495,1,0,0,0,0,0,10,74.70551,1.727688,0,23.85624,3.437392,1,0,0,0,0,0,0,401,0,0,55,2,209

268.1665,261.3605,-26.21933,-98.69156,343.7083,-1,0,0,0,0,7.86692,11.87941,21.9127,0,7.86692,11.63566,-1,0,0,0,0,0,10,2.790409,1.899026,97.84426,0,2.790409,2.328321,-1,0,0,0,0,0,10,73.53197,3.451372,0,24.47219,5.667507,1,0,0,0,0,0,0,401,0,0,56,2,209

269.6365,214.0984,-13.47769,-91.83347,261.3605,-1,0,0,0,0,9.334488,11.74787,3.535878,0,9.334488,11.87941,-0.3692936,0,0,0,0,0,10,3.604568,1.798177,106.3128,0,3.604568,1.899026,-1,0,0,0,0,0,10,72.39147,4.707167,0,25.81696,11.32188,1,0,0,0,0,0,0,401,0,0,57,2,209

267.9675,300.2054,-1.871281,-90.36346,214.0984,-1,0,0,0,0,10.09711,11.73706,-30.00117,0,9.334488,11.74787,0.2003878,0,0,0,0,0,10,3.839252,2.002119,102.2736,0,3.604568,1.798177,-1,0,0,0,0,0,10,70.32137,5.667503,0,25.81696,15.44139,1,0,0,0,0,0,0,401,0,0,58,2,209

273.9615,398.5418,0,-92.0325,300.2054,-1,0,0,0,0,11.65412,12.01242,-82.78394,0,10.09711,11.73706,1,0,0,0,0,0,10,3.697268,2.005414,75.14191,0,3.839252,2.002119,-1,0,0,0,0,0,10,67.39014,6.549166,0,26.51576,18.59168,1,0,0,0,0,0,0,401,0,0,59,2,209

73.91833,428.2332,0,-86.03848,398.5418,-1,0,0,0,0,13.53769,12.17806,-69.00225,0,13.53769,12.01242,1,0,0,0,0,0,10,3.578457,1.801145,-87.9753,0,3.578457,2.005414,-1,0,0,0,0,0,10,65.90588,7.060996,0,31.70294,21.48388,1,0,0,0,0,0,0,401,0,0,60,2,209

70.8488,444.3083,11.01481,73.91833,428.2332,1,0,0,0,0,14.37267,12.18635,-25.89397,0,14.37267,12.17806,1,0,0,0,0,0,10,3.758088,1.471798,-101.2765,0,3.758088,1.801145,1,0,0,0,0,0,10,63.44954,8.014348,0,33.14622,23.16289,1,0,0,0,0,0,0,401,0,0,61,2,209

70.8488,444.3083,0,70.8488,444.3083,1,0,0,0,0,15.5083,12.18635,-25.89397,0,14.37267,12.18635,1,0,0,0,0,0,10,3.694331,1.471798,-101.2765,0,3.758088,1.471798,1,0,0,0,0,0,9.574833,63.44954,8.014348,0,33.14622,26.29027,1,0,0,0,0,0,0,402,0,0,62,2,209

52.90266,408.6894,0,70.8488,444.3083,1,0,0,0,0,15.5083,11.36788,37.29637,0,15.5083,12.18635,1,0,0,0,0,0,10,3.694331,1.469171,-125.9129,0,3.694331,1.471798,1,0,0,0,0,0,9.483213,59.05205,9.221547,0,36.22133,26.29027,1,0,0,0,0,0,0,402,0,0,63,2,209

20.95189,327.2597,0,52.90266,408.6894,1,0,0,0,0,17.05168,11.01088,62.36305,0,17.05168,11.36788,-0.8461874,0,0,0,0,0,10,4.766349,1.376092,-157.7109,0,4.766349,1.469171,1,0,0,0,0,0,10,56.24971,9.593731,0,40.34822,30.25036,1,0,0,0,0,0,0,402,0,0,64,2,209

323.6299,243.8693,0,20.95189,327.2597,1,0,0,0,0,18.34325,10.83888,64.92824,0,18.34325,11.01088,-1,0,0,0,0,0,10,4.569311,1.069829,146.6975,0,4.569311,1.376092,1,0,0,0,0,0,10,53.18411,10.09314,0,43.56622,31.47128,1,0,0,0,0,0,0,402,0,0,65,2,209

290.9972,195.8241,-10.11961,-36.37015,243.8693,-1,0,0,0,0,19.81667,11.10627,53.39065,0,18.34325,10.83888,-1,0,0,0,0,0,10,4.505553,0.7873534,120.2883,0,4.569311,1.069829,-1,0,0,0,0,0,9.600454,49.94321,10.65585,0,43.56622,33.10954,1,0,0,0,0,0,0,402,0,0,66,2,209

275.3029,172.851,-8.268848,-69.00281,195.8241,-1,0,0,0,0,20.30263,11.04626,39.44792,0,19.81667,11.10627,-1,0,0,0,0,0,10,4.708359,0.5024986,114.1305,0,4.505553,0.7873534,-1,0,0,0,0,0,8.70765,46.34024,11.46176,0,46.27269,34.95546,1,0,0,0,0,0,0,402,0,0,67,2,209

262.2646,284.2508,0,-84.69711,172.851,-1,0,0,0,0,21.10047,11.31482,17.03212,0,21.10047,11.04626,-0.9128855,0,0,0,0,0,10,4.644602,0.7999659,107.206,0,4.644602,0.5024986,-1,0,0,0,0,0,8.099529,42.43443,11.81693,0,52.87439,37.59914,1,0,0,0,0,0,0,402,0,0,68,2,209

249.5536,391.5259,0,-97.73538,284.2508,-1,0,0,0,0,22.06893,11.42925,-16.4488,0,22.06893,11.31482,-0.2179958,0,0,0,0,0,10,4.737301,0.7754462,101.6947,0,4.737301,0.7999659,-1,0,0,0,0,0,9.076445,38.56892,12.24032,0,57.15265,38.76424,1,0,0,0,0,0,0,402,0,0,69,2,209

226.5768,493.896,0,-110.4464,391.5259,-1,0,0,0,0,23.61471,11.55045,-59.19285,0,22.06893,11.42925,0.8199127,0,0,0,0,0,10,4.618492,0.4180431,107.8216,0,4.737301,0.7754462,-1,0,0,0,0,0,9.006899,34.49578,12.6806,0,57.15265,40.15315,1,0,0,0,0,0,0,402,0,0,70,2,209

80.17841,542.6077,0,-133.4232,493.896,-1,0,0,0,0,24.58317,11.08687,-49.94435,0,23.61471,11.55045,1,0,0,0,0,0,10,4.711191,0.03340537,-125.3323,0,4.618492,0.4180431,-1,0,0,0,0,0,7.822468,29.00922,13.76839,0,60.60358,41.59743,1,0,0,0,0,0,0,402,0,0,71,2,209

61.53673,512.9905,0,80.17841,542.6077,1,0,0,0,0,26.44428,10.40997,-8.415957,0,26.44428,11.08687,1,0,0,0,0,0,10,4.63873,0.2759045,-125.2644,0,4.63873,0.03340537,1,0,0,0,0,0,6.760603,25.14298,14.34992,0,70.65623,45.16583,1,0,0,0,0,0,0,402,0,0,72,2,209

53.417,486.4386,0,61.53673,512.9905,1,0,0,0,0,27.15854,9.903258,12.45849,0,27.15854,10.40997,0.5708947,0,0,0,0,0,10,4.653202,0.6559537,-130.7106,0,4.653202,0.2759045,1,0,0,0,0,0,7.469199,22.97392,14.3742,0,74.70155,47.07347,1,0,0,0,0,0,0,402,0,0,73,2,209

30.9867,383.0004,0,53.417,486.4386,1,0,0,0,0,27.55745,9.512934,47.9796,0,27.15854,9.903258,-0.07621305,0,0,0,0,0,10,4.621323,0.9079062,-147.4778,0,4.653202,0.6559537,1,0,0,0,0,0,8.547132,18.75514,13.94359,0,74.70155,47.15313,1,0,0,0,0,0,0,402,0,0,74,2,209

11.59828,325.2775,0,30.9867,383.0004,1,0,0,0,0,28.0175,9.400029,60.52318,0,27.55745,9.512934,-1,0,0,0,0,0,10,4.557566,0.8545977,-164.4937,0,4.621323,0.9079062,1,0,0,0,0,0,9.215936,17.04306,13.80954,0,76.42342,45.74054,1,0,0,0,0,0,0,402,0,0,75,2,209

312.2151,213.6047,0,11.59828,325.2775,1,0,0,0,0,28.92483,9.614987,68.20432,0,28.92483,9.400029,-1,0,0,0,0,0,10,4.682144,0.4414476,141.3397,0,4.682144,0.8545977,1,0,0,0,0,0,9.152136,12.87961,13.99586,0,82.42355,45.30082,1,0,0,0,0,0,0,402,0,0,76,2,209

271.6638,155.8829,-8.644322,-47.78491,213.6047,-1,0,0,0,0,30.38703,10.27728,59.69502,0,30.38703,9.614987,-1,0,0,0,0,0,10,4.641562,0.05942925,110.3995,0,4.641562,0.4414476,-1,0,0,0,0,0,7.922002,8.252535,14.5637,0,86.47606,45.91203,1,0,0,0,0,0,0,402,0,0,77,2,209

246.2098,135.5464,-4.812885,-88.33615,155.8829,-1,0,0,0,0,31.01769,10.87173,42.63169,0,30.38703,10.27728,-1,0,0,0,0,0,10,4.734261,-0.5504031,104.6882,0,4.641562,0.05942925,-1,0,0,0,0,0,6.838484,1.392269,15.51825,0,86.47606,47.77475,1,0,0,0,0,0,0,402,0,0,78,2,209

240.9886,181.3111,0,-113.7902,135.5464,-1,0,0,0,0,32.27558,11.23371,35.39468,0,31.01769,10.87173,-1,0,0,0,0,0,10,4.606748,-0.55241,104.35,0,4.734261,-0.5504031,-1,0,0,0,0,0,5.242025,-0.5957533,15.58863,0,91.12296,50.90608,1,0,0,0,0,0,0,402,0,0,79,2,209

240.9886,181.3111,0,-119.0114,181.3111,-1,0,0,0,0,32.77276,11.23371,35.39468,0,32.77276,11.23371,-0.787235,0,0,0,0,0,10,4.786378,-0.55241,104.35,0,4.786378,-0.55241,-1,0,0,0,0,0,5.311224,-0.5957533,15.58863,0,100.191,51.13693,1,0,0,0,0,0,0,402,0,0,80,2,209

240.9886,181.3111,0,-119.0114,181.3111,-1,0,0,0,0,32.77276,11.23371,35.39468,0,32.77276,11.23371,-0.787235,0,0,0,0,0,10,4.786378,-0.55241,104.35,0,4.786378,-0.55241,-1,0,0,0,0,0,5.311224,-0.5957533,15.58863,0,100.191,51.13693,1,0,0,0,0,0,0,402,0,0,81,2,209

240.9886,181.3111,0,-119.0114,181.3111,-1,0,0,0,0,32.77276,11.23371,35.39468,0,32.77276,11.23371,-0.787235,0,0,0,0,0,10,4.786378,-0.55241,104.35,0,4.786378,-0.55241,-1,0,0,0,0,0,5.311224,-0.5957533,15.58863,0,100.191,51.13693,1,0,0,0,0,0,0,402,0,0,82,2,209

240.9886,181.3111,0,-119.0114,181.3111,-1,0,0,0,0,32.77276,11.23371,35.39468,0,32.77276,11.23371,-0.787235,0,0,0,0,0,10,4.786378,-0.55241,104.35,0,4.786378,-0.55241,-1,0,0,0,0,0,5.311224,-0.5957533,15.58863,0,100.191,51.13693,1,0,0,0,0,0,0,402,0,0,83,2,209

240.9886,181.3111,0,-119.0114,181.3111,-1,0,0,0,0,32.77276,11.23371,35.39468,0,32.77276,11.23371,-0.787235,0,0,0,0,0,10,4.786378,-0.55241,104.35,0,4.786378,-0.55241,-1,0,0,0,0,0,5.311224,-0.5957533,15.58863,0,100.191,51.13693,1,0,0,0,0,0,0,402,0,0,84,2,209

240.9886,181.3111,0,-119.0114,181.3111,-1,0,0,0,0,32.77276,11.23371,35.39468,0,32.77276,11.23371,-0.787235,0,0,0,0,0,10,4.786378,-0.55241,104.35,0,4.786378,-0.55241,-1,0,0,0,0,0,5.311224,-0.5957533,15.58863,0,100.191,51.13693,1,0,0,0,0,0,0,402,0,0,85,2,209

240.9886,181.3111,0,-119.0114,181.3111,-1,0,0,0,0,32.77276,11.23371,35.39468,0,32.77276,11.23371,-0.787235,0,0,0,0,0,10,4.786378,-0.55241,104.35,0,4.786378,-0.55241,-1,0,0,0,0,0,5.311224,-0.5957533,15.58863,0,100.191,51.13693,1,0,0,0,0,0,0,402,0,0,86,2,209

240.9886,181.3111,0,-119.0114,181.3111,-1,0,0,0,0,32.77276,11.23371,35.39468,0,32.77276,11.23371,-0.787235,0,0,0,0,0,10,4.786378,-0.55241,104.35,0,4.786378,-0.55241,-1,0,0,0,0,0,5.311224,-0.5957533,15.58863,0,100.191,51.13693,1,0,0,0,0,0,0,402,0,0,87,2,209

240.9886,181.3111,0,-119.0114,181.3111,-1,0,0,0,0,32.77276,11.23371,35.39468,0,32.77276,11.23371,-0.787235,0,0,0,0,0,10,4.786378,-0.55241,104.35,0,4.786378,-0.55241,-1,0,0,0,0,0,5.311224,-0.5957533,15.58863,0,100.191,51.13693,1,0,0,0,0,0,0,402,0,0,88,2,209

240.9886,181.3111,0,-119.0114,181.3111,-1,0,0,0,0,32.77276,11.23371,35.39468,0,32.77276,11.23371,-0.787235,0,0,0,0,0,10,4.786378,-0.55241,104.35,0,4.786378,-0.55241,-1,0,0,0,0,0,5.311224,-0.5957533,15.58863,0,100.191,51.13693,1,0,0,0,0,0,0,402,0,0,89,2,209

240.9886,181.3111,0,-119.0114,181.3111,-1,0,0,0,0,32.77276,11.23371,35.39468,0,32.77276,11.23371,-0.787235,0,0,0,0,0,10,4.786378,-0.55241,104.35,0,4.786378,-0.55241,-1,0,0,0,0,0,5.311224,-0.5957533,15.58863,0,100.191,51.13693,1,0,0,0,0,0,0,402,0,0,90,2,209

240.9886,181.3111,0,-119.0114,181.3111,-1,0,0,0,0,32.77276,11.23371,35.39468,0,32.77276,11.23371,-0.787235,0,0,0,0,0,10,4.786378,-0.55241,104.35,0,4.786378,-0.55241,-1,0,0,0,0,0,5.311224,-0.5957533,15.58863,0,100.191,51.13693,1,0,0,0,0,0,0,402,0,0,91,2,209

240.9886,181.3111,0,-119.0114,181.3111,-1,0,0,0,0,32.77276,11.23371,35.39468,0,32.77276,11.23371,-0.787235,0,0,0,0,0,10,4.786378,-0.55241,104.35,0,4.786378,-0.55241,-1,0,0,0,0,0,5.311224,-0.5957533,15.58863,0,100.191,51.13693,1,0,0,0,0,0,0,402,0,0,92,2,209

240.9886,181.3111,0,-119.0114,181.3111,-1,0,0,0,0,32.77276,11.23371,35.39468,0,32.77276,11.23371,-0.787235,0,0,0,0,0,10,4.786378,-0.55241,104.35,0,4.786378,-0.55241,-1,0,0,0,0,0,5.311224,-0.5957533,15.58863,0,100.191,51.13693,1,0,0,0,0,0,0,402,0,0,93,2,209

240.9886,181.3111,0,-119.0114,181.3111,-1,0,0,0,0,32.77276,11.23371,35.39468,0,32.77276,11.23371,-0.787235,0,0,0,0,0,10,4.786378,-0.55241,104.35,0,4.786378,-0.55241,-1,0,0,0,0,0,5.311224,-0.5957533,15.58863,0,100.191,51.13693,1,0,0,0,0,0,0,402,0,0,94,2,209

240.9886,181.3111,0,-119.0114,181.3111,-1,0,0,0,0,32.77276,11.23371,35.39468,0,32.77276,11.23371,-0.787235,0,0,0,0,0,10,4.786378,-0.55241,104.35,0,4.786378,-0.55241,-1,0,0,0,0,0,5.311224,-0.5957533,15.58863,0,100.191,51.13693,1,0,0,0,0,0,0,402,0,0,95,2,209

240.9886,181.3111,0,-119.0114,181.3111,-1,0,0,0,0,32.77276,11.23371,35.39468,0,32.77276,11.23371,-0.787235,0,0,0,0,0,10,4.786378,-0.55241,104.35,0,4.786378,-0.55241,-1,0,0,0,0,0,5.311224,-0.5957533,15.58863,0,100.191,51.13693,1,0,0,0,0,0,0,402,0,0,96,2,209

240.9886,181.3111,0,-119.0114,181.3111,-1,0,0,0,0,32.77276,11.23371,35.39468,0,32.77276,11.23371,-0.787235,0,0,0,0,0,10,4.786378,-0.55241,104.35,0,4.786378,-0.55241,-1,0,0,0,0,0,5.311224,-0.5957533,15.58863,0,100.191,51.13693,1,0,0,0,0,0,0,402,0,0,97,2,209

240.9886,181.3111,0,-119.0114,181.3111,-1,0,0,0,0,32.77276,11.23371,35.39468,0,32.77276,11.23371,-0.787235,0,0,0,0,0,10,4.786378,-0.55241,104.35,0,4.786378,-0.55241,-1,0,0,0,0,0,5.311224,-0.5957533,15.58863,0,100.191,51.13693,1,0,0,0,0,0,0,402,0,0,98,2,209

240.9886,181.3111,0,-119.0114,181.3111,-1,0,0,0,0,32.77276,11.23371,35.39468,0,32.77276,11.23371,-0.787235,0,0,0,0,0,10,4.786378,-0.55241,104.35,0,4.786378,-0.55241,-1,0,0,0,0,0,5.311224,-0.5957533,15.58863,0,100.191,51.13693,1,0,0,0,0,0,0,402,0,0,99,2,209

240.9886,181.3111,0,-119.0114,181.3111,-1,0,0,0,0,32.77276,11.23371,35.39468,0,32.77276,11.23371,-0.787235,0,0,0,0,0,10,4.786378,-0.55241,104.35,0,4.786378,-0.55241,-1,0,0,0,0,0,5.311224,-0.5957533,15.58863,0,100.191,51.13693,1,0,0,0,0,0,0,402,0,0,100,2,209

240.9886,181.3111,0,-119.0114,181.3111,-1,0,0,0,0,32.77276,11.23371,35.39468,0,32.77276,11.23371,-0.787235,0,0,0,0,0,10,4.786378,-0.55241,104.35,0,4.786378,-0.55241,-1,0,0,0,0,0,5.311224,-0.5957533,15.58863,0,100.191,51.13693,1,0,0,0,0,0,0,402,0,0,101,2,209

240.9886,181.3111,0,-119.0114,181.3111,-1,0,0,0,0,32.77276,11.23371,35.39468,0,32.77276,11.23371,-0.787235,0,0,0,0,0,10,4.786378,-0.55241,104.35,0,4.786378,-0.55241,-1,0,0,0,0,0,5.311224,-0.5957533,15.58863,0,100.191,51.13693,1,0,0,0,0,0,0,402,0,0,102,2,209

240.9886,181.3111,0,-119.0114,181.3111,-1,0,0,0,0,32.77276,11.23371,35.39468,0,32.77276,11.23371,-0.787235,0,0,0,0,0,10,4.786378,-0.55241,104.35,0,4.786378,-0.55241,-1,0,0,0,0,0,5.311224,-0.5957533,15.58863,0,100.191,51.13693,1,0,0,0,0,0,0,402,0,0,103,2,209

240.9886,181.3111,0,-119.0114,181.3111,-1,0,0,0,0,32.77276,11.23371,35.39468,0,32.77276,11.23371,-0.787235,0,0,0,0,0,10,4.786378,-0.55241,104.35,0,4.786378,-0.55241,-1,0,0,0,0,0,5.311224,-0.5957533,15.58863,0,100.191,51.13693,1,0,0,0,0,0,0,402,0,0,104,2,209

240.9886,181.3111,0,-119.0114,181.3111,-1,0,0,0,0,32.77276,11.23371,35.39468,0,32.77276,11.23371,-0.787235,0,0,0,0,0,10,4.786378,-0.55241,104.35,0,4.786378,-0.55241,-1,0,0,0,0,0,5.311224,-0.5957533,15.58863,0,100.191,51.13693,1,0,0,0,0,0,0,402,0,0,105,2,209

240.9886,181.3111,0,-119.0114,181.3111,-1,0,0,0,0,32.77276,11.23371,35.39468,0,32.77276,11.23371,-0.787235,0,0,0,0,0,10,4.786378,-0.55241,104.35,0,4.786378,-0.55241,-1,0,0,0,0,0,5.311224,-0.5957533,15.58863,0,100.191,51.13693,1,0,0,0,0,0,0,402,0,0,106,2,209

240.9886,181.3111,0,-119.0114,181.3111,-1,0,0,0,0,32.77276,11.23371,35.39468,0,32.77276,11.23371,-0.787235,0,0,0,0,0,10,4.786378,-0.55241,104.35,0,4.786378,-0.55241,-1,0,0,0,0,0,5.311224,-0.5957533,15.58863,0,100.191,51.13693,1,0,0,0,0,0,0,402,0,0,107,2,209

240.9886,181.3111,0,-119.0114,181.3111,-1,0,0,0,0,32.77276,11.23371,35.39468,0,32.77276,11.23371,-0.787235,0,0,0,0,0,10,4.786378,-0.55241,104.35,0,4.786378,-0.55241,-1,0,0,0,0,0,5.311224,-0.5957533,15.58863,0,100.191,51.13693,1,0,0,0,0,0,0,402,0,0,108,2,209

240.9886,181.3111,0,-119.0114,181.3111,-1,0,0,0,0,32.77276,11.23371,35.39468,0,32.77276,11.23371,-0.787235,0,0,0,0,0,10,4.786378,-0.55241,104.35,0,4.786378,-0.55241,-1,0,0,0,0,0,5.311224,-0.5957533,15.58863,0,100.191,51.13693,1,0,0,0,0,0,0,402,0,0,109,2,209

156.4529,27.70183,0,-119.0114,181.3111,-1,0,0,0,0,32.77276,0.0430819,1.068438,0,32.77276,11.23371,-0.787235,0,0,0,0,0,10,4.786378,0.1779181,-0.7808948,0,4.786378,-0.55241,-1,0,0,0,0,0,5.311224,0.4761613,-3.123847,0,100.191,51.13693,1,0,0,0,0,0,0,402,0,0,110,2,209

160.5649,49.28752,22.77981,156.4529,27.70183,1,0,0,0,0,0.3231132,-0.07363269,-0.02214406,0,32.77276,0.0430819,0.2629724,0,0,0,0,0,9.551418,-0.2897371,0.5164687,-5.537666,0,4.786378,0.1779181,0.7510465,0,0,0,0,0,7.382654,1.64726,-4.139249,0,100.191,-10.24747,1,0,0,0,0,0,0,402,0,0,111,2,209

166.2339,62.25946,0,160.5649,49.28752,1,0,0,0,0,0.2507573,-0.2312081,-1.687732,0,0.2507573,-0.07363269,-0.0006621417,0,0,0,0,0,-0.06441431,-0.2346839,0.9086331,-12.86061,0,-0.2346839,0.5164687,0.605928,0,0,0,0,0,1.127619,3.009874,-4.650502,0,98.19527,-13.57839,1,0,0,0,0,0,0,402,0,0,112,2,209

168.69,6.923536,0,166.2339,62.25946,1,0,0,0,0,0.5997803,-0.2244814,-3.206177,0,0.5997803,-0.2312081,0.04436882,0,0,0,0,0,-0.2564793,-0.2578588,0.8668295,-16.78899,0,-0.2578588,0.9086331,1,0,0,0,0,0,2.206613,4.526481,-5.023951,0,96.48058,-15.25551,1,0,0,0,0,0,0,402,0,0,113,2,209

166.7132,-34.80841,0,168.69,6.923536,1,0,0,0,0,0.5127444,-0.3494552,-4.961887,0,0.5997803,-0.2244814,0.09182828,0,0,0,0,0,-0.2439745,-0.4925426,0.9473853,-16.46495,0,-0.2578588,0.8668295,1,0,0,0,0,0,2.088045,6.112882,-5.206599,0,96.48058,-16.48057,1,0,0,0,0,0,0,402,0,0,114,2,209

161.8296,-61.2048,0,166.7132,-34.80841,1,0,0,0,0,0.3680327,-0.4621211,-6.648985,0,0.5127444,-0.3494552,0.1382734,0,0,0,0,0,-0.501454,-0.3824363,0.9741904,-12.62142,0,-0.4925426,0.9473853,1,0,0,0,0,0,1.979285,7.733771,-5.327626,0,95.04449,-17.07973,1,0,0,0,0,0,0,402,0,0,115,2,209

150.8216,-87.07393,0,161.8296,-61.2048,1,0,0,0,0,0.3792627,-0.6559749,-7.84939,0,0.3792627,-0.4621211,0.1827842,0,0,0,0,0,-0.7494763,-0.405611,0.8433603,-1.886764,0,-0.405611,0.9741904,1,0,0,0,0,0,2.180233,10.20609,-5.458571,0,92.20952,-17.47674,1,0,0,0,0,0,0,402,0,0,116,2,209

141.835,-99.91558,0,150.8216,-87.07393,1,0,0,0,0,0.2457809,-0.8290244,-7.031822,0,0.2457809,-0.6559749,0.2077298,0,0,0,0,0,-1.148427,-0.3186796,0.5846879,7.519473,0,-0.3186796,0.8433603,0.3515177,0,0,0,0,0,1.93408,11.8754,-5.532771,0,89.37453,-17.9063,1,0,0,0,0,0,0,402,0,0,117,2,209

132.1407,-110.2744,0,141.835,-99.91558,1,0,0,0,0,0.5948033,-1.077431,-4.481728,0,0.2457809,-0.8290244,0.1724126,0,0,0,0,0,-1.470126,-0.3418541,0.1732548,17.99246,0,-0.3186796,0.5846879,-0.581354,0,0,0,0,0,1.200408,13.56366,-5.587136,0,89.37453,-18.1497,1,0,0,0,0,0,0,402,0,0,118,2,209

122.4473,-117.7165,0,132.1407,-110.2744,1,0,0,0,0,-0.1419086,-1.397777,-0.1378007,0,0.5948033,-1.077431,0.08217116,0,0,0,0,0,-1.831046,-0.3099761,-0.3132564,27.67983,0,-0.3418541,0.1732548,-1,0,0,0,0,0,0.0001581609,15.23594,-5.592458,0,87.65985,-18.32804,1,0,0,0,0,0,0,402,0,0,119,2,209

109.028,-122.1831,0,122.4473,-117.7165,1,0,0,0,0,-0.3848858,-1.938413,8.43906,0,-0.3848858,-1.397777,-0.07755201,0,0,0,0,0,-2.709699,-0.4113784,-1.024321,35.50056,0,-0.4113784,-0.3132564,-1,0,0,0,0,0,-1.47964,17.61331,-5.517305,0,84.72764,-18.3455,1,0,0,0,0,0,0,402,0,0,120,2,209

100.2468,-120.8841,0,109.028,-122.1831,1,0,0,0,0,-0.1082182,-2.354081,14.85477,0,-0.1082182,-1.938413,-0.3742892,0,0,0,0,0,-3.634784,-0.3795004,-1.503947,36.06329,0,-0.3795004,-1.024321,-1,0,0,0,0,0,-3.450625,19.17974,-5.406756,0,82.26848,-18.09897,1,0,0,0,0,0,0,402,0,0,121,2,209

91.03687,-115.1204,0,100.2468,-120.8841,1,0,0,0,0,-0.5071383,-2.78659,21.32248,0,-0.1082182,-2.354081,-0.5971308,0,0,0,0,0,-4.407513,-0.3476219,-1.96489,32.84167,0,-0.3795004,-1.503947,-1,0,0,0,0,0,-4.810987,20.78562,-5.265177,0,82.26848,-17.73632,1,0,0,0,0,0,0,402,0,0,122,2,209

81.47688,-103.9847,0,91.03687,-115.1204,1,0,0,0,0,-0.9060574,-3.171768,26.82502,0,-0.5071383,-2.78659,-0.8261288,0,0,0,0,0,-5.326834,-0.3157434,-2.381986,25.91435,0,-0.3476219,-1.96489,-1,0,0,0,0,0,-6.072551,22.4076,-5.139076,0,80.54661,-17.27189,1,0,0,0,0,0,0,402,0,0,123,2,209

76.68594,-96.6236,0,81.47688,-103.9847,1,0,0,0,0,-0.8948269,-3.327527,28.91807,0,-0.8948269,-3.171768,-1,0,0,0,0,0,-6.154921,-0.3389187,-2.582182,21.18235,0,-0.3389187,-2.381986,-1,0,0,0,0,0,-7.243053,23.22078,-5.098272,0,77.47869,-16.85822,1,0,0,0,0,0,0,402,0,0,124,2,209

67.65367,-78.51828,0,76.68594,-96.6236,1,0,0,0,0,-1.304976,-3.532172,31.47707,0,-1.304976,-3.327527,-1,0,0,0,0,0,-6.56301,-0.283865,-3.01476,9.723636,0,-0.283865,-2.582182,-1,0,0,0,0,0,-7.731757,24.85814,-5.080245,0,77.10286,-16.72437,1,0,0,0,0,0,0,402,0,0,125,2,209

60.46507,-55.94113,0,67.65367,-78.51828,1,0,0,0,0,-1.135398,-3.547685,31.8392,0,-1.304976,-3.532172,-1,0,0,0,0,0,-6.943447,-1.631148,-3.507308,-3.34232,0,-0.283865,-3.01476,-1,0,0,0,0,0,-8.958679,26.52612,-5.147941,0,77.10286,-16.66524,1,0,0,0,0,0,0,402,0,0,126,2,209

57.97841,-43.15601,0,60.46507,-55.94113,1,0,0,0,0,-1.87211,-3.46723,31.40796,0,-1.135398,-3.547685,-1,0,0,0,0,0,-6.923276,-1.599269,-3.786466,-10.06413,0,-1.631148,-3.507308,-0.6125065,0,0,0,0,0,-10,27.37888,-5.218905,0,75.22375,-16.88731,1,0,0,0,0,0,0,402,0,0,127,2,209

55.75017,-15.0551,0,57.97841,-43.15601,1,0,0,0,0,-2.016823,-3.083867,29.97831,0,-2.016823,-3.46723,-1,0,0,0,0,0,-7.028443,-1.489163,-4.405643,-23.3097,0,-1.489163,-3.786466,0.005900383,0,0,0,0,0,-10,29.13502,-5.41434,0,72.38158,-17.1201,1,0,0,0,0,0,0,402,0,0,128,2,209

56.10528,0.1104451,0,55.75017,-15.0551,1,0,0,0,0,-1.832564,-2.783829,29.28478,0,-1.832564,-3.083867,-1,0,0,0,0,0,-6.26252,-2.546709,-4.729631,-29.50223,0,-2.546709,-4.405643,1,0,0,0,0,0,-10,30.04031,-5.519015,0,71.19408,-17.7612,1,0,0,0,0,0,0,402,0,0,129,2,209

57.442,15.78666,0,56.10528,0.1104451,1,0,0,0,0,-1.977276,-2.386102,28.81633,0,-1.832564,-2.783829,-1,0,0,0,0,0,-5.70475,-2.436603,-5.060487,-35.30138,0,-2.546709,-4.729631,1,0,0,0,0,0,-10,30.96334,-5.625025,0,71.19408,-18.10458,1,0,0,0,0,0,0,402,0,0,130,2,209

62.92429,48.84016,0,57.442,15.78666,1,0,0,0,0,-2.30384,-1.577177,29.17679,0,-1.977276,-2.386102,-1,0,0,0,0,0,-5.007197,-2.459777,-5.626833,-42.89205,0,-2.436603,-5.060487,1,0,0,0,0,0,-10,32.84219,-5.745975,0,69.70514,-18.45233,1,0,0,0,0,0,0,402,0,0,131,2,209

66.92518,65.58926,0,62.92429,48.84016,1,0,0,0,0,-2.463232,-1.108711,30.21246,0,-2.463232,-1.577177,-1,0,0,0,0,0,-3.643846,-2.639408,-5.878925,-43.93682,0,-2.639408,-5.626833,1,0,0,0,0,0,-10,33.79291,-5.792467,0,66.54718,-18.84909,1,0,0,0,0,0,0,402,0,0,132,2,209

77.53458,98.63117,0,66.92518,65.58926,1,0,0,0,0,-3.364708,-0.1290171,33.74655,0,-3.364708,-1.108711,-1,0,0,0,0,0,-3.033494,-3.6419,-6.300629,-40.98154,0,-3.6419,-5.878925,1,0,0,0,0,0,-10,35.70762,-5.848465,0,65.72115,-19.00161,1,0,0,0,0,0,0,402,0,0,133,2,209

92.32712,128.8703,0,77.53458,98.63117,1,0,0,0,0,-3.492334,0.7355164,38.06839,0,-3.364708,-0.1290171,-1,0,0,0,0,0,-1.212243,-4.432884,-6.619309,-31.48496,0,-3.6419,-6.300629,1,0,0,0,0,0,-10,37.62295,-5.84559,0,65.72115,-19.18531,1,0,0,0,0,0,0,402,0,0,134,2,209

101.5228,142.2551,0,92.32712,128.8703,1,0,0,0,0,-3.143311,1.082413,39.85622,0,-3.492334,0.7355164,-1,0,0,0,0,0,0.3580405,-4.456059,-6.756537,-24.31344,0,-4.432884,-6.619309,1,0,0,0,0,0,-10,38.57317,-5.81487,0,64.24786,-19.17587,1,0,0,0,0,0,0,402,0,0,135,2,209

123.2148,165.924,0,101.5228,142.2551,1,0,0,0,0,-2.465319,1.58524,41.01719,0,-2.465319,1.082413,-1,0,0,0,0,0,1.299728,-5.646886,-7.040491,-5.798844,0,-5.646886,-6.756537,1,0,0,0,0,0,-10,40.43896,-5.678554,0,61.11993,-19.0751,1,0,0,0,0,0,0,402,0,0,136,2,209

146.5255,184.4192,0,123.2148,165.924,1,0,0,0,0,-2.62471,1.860515,37.11127,0,-2.62471,1.58524,-1,0,0,0,0,0,2.18842,-5.826517,-7.402034,15.23445,0,-5.826517,-7.040491,-0.3865063,0,0,0,0,0,-10,42.22211,-5.395998,0,58.93937,-18.62793,1,0,0,0,0,0,0,402,0,0,137,2,209

157.304,190.5333,0,146.5255,184.4192,1,0,0,0,0,-2.596394,1.938687,33.0518,0,-2.62471,1.860515,-1,0,0,0,0,0,2.700155,-6.750782,-7.629064,25.20583,0,-5.826517,-7.402034,-1,0,0,0,0,0,-10,43.06407,-5.180162,0,58.93937,-17.70103,1,0,0,0,0,0,0,402,0,0,138,2,209

175.3366,193.8146,0,157.304,190.5333,1,0,0,0,0,-1.920809,2.130218,21.655,0,-2.596394,1.938687,-0.9361422,0,0,0,0,0,2.853661,-6.750782,-8.121758,40.81701,0,-6.750782,-7.629064,-1,0,0,0,0,0,-10,44.62995,-4.735834,0,57.60899,-16.99301,1,0,0,0,0,0,0,402,0,0,139,2,209

182.5469,190.2825,0,175.3366,193.8146,1,0,0,0,0,-1.892492,2.258169,14.93489,0,-1.892492,2.130218,-0.5657511,0,0,0,0,0,3.413145,-7.675046,-8.399309,44.64481,0,-7.675046,-8.121758,-1,0,0,0,0,0,-10,45.36461,-4.522444,0,55.54132,-15.53543,1,0,0,0,0,0,0,402,0,0,140,2,209

194.5007,178.9591,-39.94471,-177.4531,190.2825,-1,0,0,0,0,-2.374996,2.522107,0.9040825,0,-2.374996,2.258169,-0.3541231,0,0,0,0,0,3.511562,-7.56494,-8.992702,46.1535,0,-7.56494,-8.399309,-1,0,0,0,0,0,-10,46.6917,-3.937355,0,54.42102,-14.83543,1,0,0,0,0,0,0,402,0,0,141,2,209

194.5007,178.9591,-10.57361,-165.4993,178.9591,-1,0,0,0,0,-1.763502,2.522107,0.9040825,0,-2.374996,2.522107,0.09604238,0,0,0,0,0,4.002224,-9.578629,-8.992702,46.1535,0,-7.56494,-8.992702,-1,0,0,0,0,0,-10,46.6917,-3.937355,0,54.42102,-12.9161,1,0,0,0,0,0,0,403,0,0,142,2,209

225.8456,282.6326,0,-165.4993,178.9591,-1,0,0,0,0,-1.763502,2.733792,-29.72486,0,-1.763502,2.522107,0.1015208,0,0,0,0,0,4.178946,-9.578629,-9.898271,26.40293,0,-9.578629,-8.992702,-1,0,0,0,0,0,-10,48.96159,-3.446731,0,53.62501,-12.9161,1,0,0,0,0,0,0,403,0,0,143,2,209

262.2256,361.551,0,-134.1544,282.6326,-1,0,0,0,0,-1.568016,2.477213,-40.20881,0,-1.568016,2.733792,1,0,0,0,0,0,4.628963,-10.65935,-10.31686,-4.229548,0,-10.65935,-9.898271,-1,0,0,0,0,0,-10,49.94955,-3.335263,0,51.09147,-11.30666,1,0,0,0,0,0,0,403,0,0,144,2,209

305.4412,411.239,0,-97.77444,361.551,-1,0,0,0,0,-0.7340813,2.189203,-31.76738,0,-0.7340813,2.477213,1,0,0,0,0,0,4.392989,-11.98346,-10.78489,-39.95837,0,-11.98346,-10.31686,-0.5308816,0,0,0,0,0,-10,50.78056,-2.83157,0,49.82112,-10.941,1,0,0,0,0,0,0,403,0,0,145,2,209

338.3033,436.62,0,-54.55884,411.239,-1,0,0,0,0,-1.199499,2.023467,-5.454048,0,-0.7340813,2.189203,1,0,0,0,0,0,3.857579,-12.77444,-11.15286,-61.19488,0,-11.98346,-10.78489,1,0,0,0,0,0,-10,51.41512,-1.99307,0,49.82112,-9.288682,1,0,0,0,0,0,0,403,0,0,146,2,209

351.7171,442.8142,0,-21.69672,436.62,1,0,0,0,0,-0.7610359,2.051176,11.26642,0,-1.199499,2.023467,0.2749396,0,0,0,0,0,3.41497,-13.75376,-11.24977,-65.38622,0,-12.77444,-11.15286,1,0,0,0,0,0,-10,51.63758,-1.517232,0,48.71648,-6.538068,1,0,0,0,0,0,0,403,0,0,147,2,209

5.861881,447.3794,-8.960457,-8.282898,442.8142,1,0,0,0,0,-0.4320641,2.089335,28.74719,0,-0.4320641,2.051176,-0.2378698,0,0,0,0,0,3.688269,-14.92141,-11.31211,-63.37997,0,-14.92141,-11.24977,1,0,0,0,0,0,-10,51.8175,-1.21998,0,48.06336,-4.977129,1,0,0,0,0,0,0,403,0,0,148,2,209

53.55922,427.201,-13.64923,5.861881,447.3794,1,0,0,0,0,-0.5044212,2.137356,56.95179,0,-0.5044212,2.089335,-0.7752758,0,0,0,0,0,3.738296,-14.86636,-11.43652,-30.77863,0,-14.86636,-11.31211,1,0,0,0,0,0,-10,52.03252,-0.6596515,0,47.31889,-4.002023,1,0,0,0,0,0,0,403,0,0,149,2,209

119.2896,357.5517,-19.36526,53.55922,427.201,1,0,0,0,0,-0.07718468,1.855848,50.54797,0,-0.5044212,2.137356,-1,0,0,0,0,0,3.827567,-15.8225,-11.9117,27.76256,0,-14.86636,-11.43652,1,0,0,0,0,0,-10,52.15375,-0.3702736,0,47.31889,-2.163921,1,0,0,0,0,0,0,403,0,0,150,2,209

136.4257,330.5727,-31.34117,119.2896,357.5517,1,0,0,0,0,-0.4125729,1.661992,38.79417,0,-0.07718468,1.855848,-1,0,0,0,0,0,3.427714,-17.01333,-12.24835,43.17603,0,-15.8225,-11.9117,-1,0,0,0,0,0,-10,52.17086,-0.2163144,0,47.71037,-1.214646,1,0,0,0,0,0,0,403,0,0,151,2,209

155.0985,302.4611,-74.59082,136.4257,330.5727,1,0,0,0,0,-0.2395439,1.297386,12.41226,0,-0.2395439,1.661992,-1,0,0,0,0,0,3.020416,-18.0477,-12.81117,60.70656,0,-18.0477,-12.24835,-1,0,0,0,0,0,-10,52.03393,0.4921596,0,47.5616,-0.7095976,1,0,0,0,0,0,0,403,0,0,152,2,209

161.3497,294.5842,-93.84887,155.0985,302.4611,1,0,0,0,0,0.3695431,1.213469,-1.033073,0,0.3695431,1.297386,-0.3067022,0,0,0,0,0,2.518638,-18.87056,-13.10733,64.19953,0,-18.87056,-12.81117,-1,0,0,0,0,0,-10,51.8943,0.7113508,0,47.44156,1.61448,1,0,0,0,0,0,0,403,0,0,153,2,209

179.9333,274.5041,-114.0066,161.3497,294.5842,1,0,0,0,0,0.3866291,1.110464,-39.53595,0,0.3695431,1.213469,0.105267,0,0,0,0,0,2.362638,-19.77165,-13.73938,58.66796,0,-18.87056,-13.10733,-1,0,0,0,0,0,-10,51.01936,2.18543,0,47.44156,2.333515,1,0,0,0,0,0,0,403,0,0,154,2,209

217.2709,252.1655,-132.7076,179.9333,274.5041,1,0,0,0,0,-0.04116821,1.194987,-63.79365,0,0.3866291,1.110464,1,0,0,0,0,0,2.176087,-22.0519,-14.21881,22.98579,0,-19.77165,-13.73938,-1,0,0,0,0,0,-10,49.76742,3.273716,0,47.45721,7.169084,1,0,0,0,0,0,0,403,0,0,155,2,209

272.9409,213.8555,-126.1302,-142.7291,252.1655,-1,0,0,0,0,0.8709793,1.169494,-62.22516,0,0.8709793,1.194987,1,0,0,0,0,0,2.473194,-24.30898,-14.75944,-34.87144,0,-24.30898,-14.21881,-1,0,0,0,0,0,-10,48.37591,4.02122,0,49.25737,10.7391,1,0,0,0,0,0,0,403,0,0,156,2,209

290.4453,177.6655,-93.62214,-87.05911,213.8555,-1,0,0,0,0,0.8768368,1.032302,-52.23923,0,0.8768368,1.169494,1,0,0,0,0,0,2.427496,-25.18689,-15.24617,-55.19036,0,-25.18689,-14.75944,1,0,0,0,0,0,-10,47.32344,4.350935,0,50.61907,13.19121,1,0,0,0,0,0,0,403,0,0,157,2,209

300.3235,243.9771,-73.57322,-69.55475,177.6655,-1,0,0,0,0,1.220486,0.4831637,-35.4571,0,0.8768368,1.032302,1,0,0,0,0,0,2.172455,-26.0648,-15.63882,-69.69043,0,-25.18689,-15.24617,1,0,0,0,0,0,-10,46.03589,5.041231,0,50.61907,14.27281,1,0,0,0,0,0,0,403,0,0,158,2,209

304.6882,287.9708,-57.91385,-59.67645,243.9771,-1,0,0,0,0,1.044491,0.1232807,-11.5986,0,1.220486,0.4831637,1,0,0,0,0,0,1.250922,-27.076,-16.12453,-76.79953,0,-26.0648,-15.63882,1,0,0,0,0,0,-10,44.47244,5.571022,0,51.61213,16.53725,1,0,0,0,0,0,0,403,0,0,159,2,209

305.1978,297.8146,-38.02779,-55.3118,287.9708,-1,0,0,0,0,1.125111,-0.08980044,2.226101,0,1.125111,0.1232807,0.3760188,0,0,0,0,0,0.5543358,-29.1998,-16.34314,-78.17805,0,-29.1998,-16.12453,1,0,0,0,0,0,-10,43.58001,5.836067,0,54.91557,18.27518,1,0,0,0,0,0,0,403,0,0,160,2,209

302.7208,286.7986,-30.26563,-54.80219,297.8146,-1,0,0,0,0,1.041525,-0.7102532,30.73451,0,1.041525,-0.08980044,-0.06485323,0,0,0,0,0,0.1340617,-29.12157,-16.71174,-78.79853,0,-29.12157,-16.34314,1,0,0,0,0,0,-10,41.62963,6.214999,0,55.51715,19.14463,1,0,0,0,0,0,0,403,0,0,161,2,209

292.254,253.2361,-23.59937,-57.27917,286.7986,-1,0,0,0,0,1.350441,-1.686132,57.59848,0,1.041525,-0.7102532,-0.9843699,0,0,0,0,0,-1.01936,-31.4337,-16.91346,-82.49725,0,-29.12157,-16.71174,1,0,0,0,0,0,-10,39.50582,6.588832,0,55.51715,20.38768,1,0,0,0,0,0,0,403,0,0,162,2,209

242.1836,212.6839,-17.22076,-67.74603,253.2361,-1,0,0,0,0,0.9373226,-3.112094,76.89426,0,1.350441,-1.686132,-1,0,0,0,0,0,-2.744241,-33.42421,-16.93972,-123.558,0,-31.4337,-16.91346,1,0,0,0,0,0,-10,37.19181,7.175454,0,57.83472,21.614,1,0,0,0,0,0,0,403,0,0,163,2,209

162.4299,170.4411,0,-117.8164,212.6839,-1,0,0,0,0,0.3399506,-4.791655,67.49995,0,0.3399506,-3.112094,-1,0,0,0,0,0,-5.687137,-34.35718,-16.69098,170.6723,0,-34.35718,-16.93972,1,0,0,0,0,0,-10,34.59869,8.065531,0,62.33412,23.53836,1,0,0,0,0,0,0,403,0,0,164,2,209

144.1008,132.9232,22.18698,162.4299,170.4411,1,0,0,0,0,-0.1826611,-6.098807,48.93254,0,-0.1826611,-4.791655,-1,0,0,0,0,0,-8.960475,-36.53603,-16.04536,164.627,0,-36.53603,-16.69098,-1,0,0,0,0,0,-10,31.57034,9.431337,0,65.24608,26.45817,1,0,0,0,0,0,0,403,0,0,165,2,209

136.2529,100.0459,0,144.1008,132.9232,1,0,0,0,0,-0.2692146,-6.723225,30.75576,0,-0.1826611,-6.098807,-1,0,0,0,0,0,-10,-38.50337,-15.20326,170.0291,0,-36.53603,-16.04536,-1,0,0,0,0,0,-10,28.03094,11.0141,0,65.24608,30.93856,1,0,0,0,0,0,0,403,0,0,166,2,209

133.9145,68.93584,0,136.2529,100.0459,1,0,0,0,0,-1.313877,-6.47712,23.40295,0,-0.2692146,-6.723225,-1,0,0,0,0,0,-10,-39.62467,-14.97893,172.401,0,-38.50337,-15.20326,-1,0,0,0,0,0,-10,26.13555,11.40721,0,67.87944,36.13064,1,0,0,0,0,0,0,403,0,0,167,2,209

132.8479,14.19454,0,133.9145,68.93584,1,0,0,0,0,-1.489873,-5.868675,9.239586,0,-1.489873,-6.47712,-1,0,0,0,0,0,-10,-40.63587,-14.23272,176.7811,0,-40.63587,-14.97893,-1,0,0,0,0,0,-10,22.12803,12.27562,0,74.22076,37.42022,1,0,0,0,0,0,0,403,0,0,168,2,209

136.0957,-39.16976,0,132.8479,14.19454,1,0,0,0,0,-2.170832,-5.166427,-4.733082,0,-2.170832,-5.868675,-0.5964271,0,0,0,0,0,-10,-41.49061,-13.62779,179.2522,0,-41.49061,-14.23272,-1,0,0,0,0,0,-10,17.91619,12.79657,0,77.66579,40.26896,1,0,0,0,0,0,0,403,0,0,169,2,209

144.9416,-97.15349,0,136.0957,-39.16976,1,0,0,0,0,-2.366879,-4.565814,-18.81179,0,-2.170832,-5.166427,-0.1632745,0,0,0,0,0,-10,-43.64628,-13.0775,177.4942,0,-41.49061,-13.62779,-1,0,0,0,0,0,-10,13.57966,13.11187,0,77.66579,41.97788,1,0,0,0,0,0,0,403,0,0,170,2,209

162.5592,-158.4904,0,144.9416,-97.15349,1,0,0,0,0,-3.001393,-4.090052,-31.94899,0,-2.366879,-4.565814,0.2988372,0,0,0,0,0,-9.171877,-44.82264,-12.57101,167.2827,0,-43.64628,-13.0775,-1,0,0,0,0,0,-10,9.102546,13.62424,0,81.55516,43.01217,1,0,0,0,0,0,0,403,0,0,171,2,209

206.7588,-235.1822,0,162.5592,-158.4904,1,0,0,0,0,-3.609997,-2.943709,-38.16658,0,-3.609997,-4.090052,0.7278234,0,0,0,0,0,-8.646696,-45.73243,-12.30582,132.5392,0,-45.73243,-12.57101,-1,0,0,0,0,0,-10,2.477276,15.54558,0,90.58858,44.69297,1,0,0,0,0,0,0,403,0,0,172,2,209

231.2774,-4.531789,-31.12262,-153.2412,-235.1822,-1,0,0,0,0,-4.157475,-0.5828766,-39.30968,0,-4.157475,-2.943709,0.976274,0,0,0,0,0,-6.673865,-46.6741,-12.91885,101.3514,0,-46.6741,-12.30582,-1,0,0,0,0,0,-10,-2.0764,17.33297,0,96.86858,50.99573,1,0,0,0,0,0,0,403,0,0,173,2,209

231.2774,-4.531789,0,-128.7226,-4.531789,-1,0,0,0,0,-4.1829,-0.5828766,-39.30968,0,-4.157475,-0.5828766,1,0,0,0,0,0,-2.285078,-48.67332,-12.91885,101.3514,0,-46.6741,-12.91885,-1,0,0,0,0,0,-10,-2.0764,17.33297,0,96.86858,56.85908,1,0,0,0,0,0,0,403,0,0,174,2,209

231.2774,-4.531789,0,-128.7226,-4.531789,-1,0,0,0,0,-4.1829,-0.5828766,-39.30968,0,-4.1829,-0.5828766,1,0,0,0,0,0,-2.292426,-48.67332,-12.91885,101.3514,0,-48.67332,-12.91885,-1,0,0,0,0,0,-10,-2.0764,17.33297,0,101.5925,56.85908,1,0,0,0,0,0,0,403,0,0,175,2,209

231.2774,-4.531789,0,-128.7226,-4.531789,-1,0,0,0,0,-4.1829,-0.5828766,-39.30968,0,-4.1829,-0.5828766,1,0,0,0,0,0,-2.292426,-48.67332,-12.91885,101.3514,0,-48.67332,-12.91885,-1,0,0,0,0,0,-10,-2.0764,17.33297,0,101.5925,56.85908,1,0,0,0,0,0,0,403,0,0,176,2,209

231.2774,-4.531789,0,-128.7226,-4.531789,-1,0,0,0,0,-4.1829,-0.5828766,-39.30968,0,-4.1829,-0.5828766,1,0,0,0,0,0,-2.292426,-48.67332,-12.91885,101.3514,0,-48.67332,-12.91885,-1,0,0,0,0,0,-10,-2.0764,17.33297,0,101.5925,56.85908,1,0,0,0,0,0,0,403,0,0,177,2,209

231.2774,-4.531789,0,-128.7226,-4.531789,-1,0,0,0,0,-4.1829,-0.5828766,-39.30968,0,-4.1829,-0.5828766,1,0,0,0,0,0,-2.292426,-48.67332,-12.91885,101.3514,0,-48.67332,-12.91885,-1,0,0,0,0,0,-10,-2.0764,17.33297,0,101.5925,56.85908,1,0,0,0,0,0,0,403,0,0,178,2,209

231.2774,-4.531789,0,-128.7226,-4.531789,-1,0,0,0,0,-4.1829,-0.5828766,-39.30968,0,-4.1829,-0.5828766,1,0,0,0,0,0,-2.292426,-48.67332,-12.91885,101.3514,0,-48.67332,-12.91885,-1,0,0,0,0,0,-10,-2.0764,17.33297,0,101.5925,56.85908,1,0,0,0,0,0,0,403,0,0,179,2,209

231.2774,-4.531789,0,-128.7226,-4.531789,-1,0,0,0,0,-4.1829,-0.5828766,-39.30968,0,-4.1829,-0.5828766,1,0,0,0,0,0,-2.292426,-48.67332,-12.91885,101.3514,0,-48.67332,-12.91885,-1,0,0,0,0,0,-10,-2.0764,17.33297,0,101.5925,56.85908,1,0,0,0,0,0,0,403,0,0,180,2,209

231.2774,-4.531789,0,-128.7226,-4.531789,-1,0,0,0,0,-4.1829,-0.5828766,-39.30968,0,-4.1829,-0.5828766,1,0,0,0,0,0,-2.292426,-48.67332,-12.91885,101.3514,0,-48.67332,-12.91885,-1,0,0,0,0,0,-10,-2.0764,17.33297,0,101.5925,56.85908,1,0,0,0,0,0,0,403,0,0,181,2,209

231.2774,-4.531789,0,-128.7226,-4.531789,-1,0,0,0,0,-4.1829,-0.5828766,-39.30968,0,-4.1829,-0.5828766,1,0,0,0,0,0,-2.292426,-48.67332,-12.91885,101.3514,0,-48.67332,-12.91885,-1,0,0,0,0,0,-10,-2.0764,17.33297,0,101.5925,56.85908,1,0,0,0,0,0,0,403,0,0,182,2,209

231.2774,-4.531789,0,-128.7226,-4.531789,-1,0,0,0,0,-4.1829,-0.5828766,-39.30968,0,-4.1829,-0.5828766,1,0,0,0,0,0,-2.292426,-48.67332,-12.91885,101.3514,0,-48.67332,-12.91885,-1,0,0,0,0,0,-10,-2.0764,17.33297,0,101.5925,56.85908,1,0,0,0,0,0,0,403,0,0,183,2,209

231.2774,-4.531789,0,-128.7226,-4.531789,-1,0,0,0,0,-4.1829,-0.5828766,-39.30968,0,-4.1829,-0.5828766,1,0,0,0,0,0,-2.292426,-48.67332,-12.91885,101.3514,0,-48.67332,-12.91885,-1,0,0,0,0,0,-10,-2.0764,17.33297,0,101.5925,56.85908,1,0,0,0,0,0,0,403,0,0,184,2,209

231.2774,-4.531789,0,-128.7226,-4.531789,-1,0,0,0,0,-4.1829,-0.5828766,-39.30968,0,-4.1829,-0.5828766,1,0,0,0,0,0,-2.292426,-48.67332,-12.91885,101.3514,0,-48.67332,-12.91885,-1,0,0,0,0,0,-10,-2.0764,17.33297,0,101.5925,56.85908,1,0,0,0,0,0,0,403,0,0,185,2,209

231.2774,-4.531789,0,-128.7226,-4.531789,-1,0,0,0,0,-4.1829,-0.5828766,-39.30968,0,-4.1829,-0.5828766,1,0,0,0,0,0,-2.292426,-48.67332,-12.91885,101.3514,0,-48.67332,-12.91885,-1,0,0,0,0,0,-10,-2.0764,17.33297,0,101.5925,56.85908,1,0,0,0,0,0,0,403,0,0,186,2,209

231.2774,-4.531789,0,-128.7226,-4.531789,-1,0,0,0,0,-4.1829,-0.5828766,-39.30968,0,-4.1829,-0.5828766,1,0,0,0,0,0,-2.292426,-48.67332,-12.91885,101.3514,0,-48.67332,-12.91885,-1,0,0,0,0,0,-10,-2.0764,17.33297,0,101.5925,56.85908,1,0,0,0,0,0,0,403,0,0,187,2,209

231.2774,-4.531789,0,-128.7226,-4.531789,-1,0,0,0,0,-4.1829,-0.5828766,-39.30968,0,-4.1829,-0.5828766,1,0,0,0,0,0,-2.292426,-48.67332,-12.91885,101.3514,0,-48.67332,-12.91885,-1,0,0,0,0,0,-10,-2.0764,17.33297,0,101.5925,56.85908,1,0,0,0,0,0,0,403,0,0,188,2,209

231.2774,-4.531789,0,-128.7226,-4.531789,-1,0,0,0,0,-4.1829,-0.5828766,-39.30968,0,-4.1829,-0.5828766,1,0,0,0,0,0,-2.292426,-48.67332,-12.91885,101.3514,0,-48.67332,-12.91885,-1,0,0,0,0,0,-10,-2.0764,17.33297,0,101.5925,56.85908,1,0,0,0,0,0,0,403,0,0,189,2,209

231.2774,-4.531789,0,-128.7226,-4.531789,-1,0,0,0,0,-4.1829,-0.5828766,-39.30968,0,-4.1829,-0.5828766,1,0,0,0,0,0,-2.292426,-48.67332,-12.91885,101.3514,0,-48.67332,-12.91885,-1,0,0,0,0,0,-10,-2.0764,17.33297,0,101.5925,56.85908,1,0,0,0,0,0,0,403,0,0,190,2,209

231.2774,-4.531789,0,-128.7226,-4.531789,-1,0,0,0,0,-4.1829,-0.5828766,-39.30968,0,-4.1829,-0.5828766,1,0,0,0,0,0,-2.292426,-48.67332,-12.91885,101.3514,0,-48.67332,-12.91885,-1,0,0,0,0,0,-10,-2.0764,17.33297,0,101.5925,56.85908,1,0,0,0,0,0,0,403,0,0,191,2,209

231.2774,-4.531789,0,-128.7226,-4.531789,-1,0,0,0,0,-4.1829,-0.5828766,-39.30968,0,-4.1829,-0.5828766,1,0,0,0,0,0,-2.292426,-48.67332,-12.91885,101.3514,0,-48.67332,-12.91885,-1,0,0,0,0,0,-10,-2.0764,17.33297,0,101.5925,56.85908,1,0,0,0,0,0,0,403,0,0,192,2,209

231.2774,-4.531789,0,-128.7226,-4.531789,-1,0,0,0,0,-4.1829,-0.5828766,-39.30968,0,-4.1829,-0.5828766,1,0,0,0,0,0,-2.292426,-48.67332,-12.91885,101.3514,0,-48.67332,-12.91885,-1,0,0,0,0,0,-10,-2.0764,17.33297,0,101.5925,56.85908,1,0,0,0,0,0,0,403,0,0,193,2,209

231.2774,-4.531789,0,-128.7226,-4.531789,-1,0,0,0,0,-4.1829,-0.5828766,-39.30968,0,-4.1829,-0.5828766,1,0,0,0,0,0,-2.292426,-48.67332,-12.91885,101.3514,0,-48.67332,-12.91885,-1,0,0,0,0,0,-10,-2.0764,17.33297,0,101.5925,56.85908,1,0,0,0,0,0,0,403,0,0,194,2,209

231.2774,-4.531789,0,-128.7226,-4.531789,-1,0,0,0,0,-4.1829,-0.5828766,-39.30968,0,-4.1829,-0.5828766,1,0,0,0,0,0,-2.292426,-48.67332,-12.91885,101.3514,0,-48.67332,-12.91885,-1,0,0,0,0,0,-10,-2.0764,17.33297,0,101.5925,56.85908,1,0,0,0,0,0,0,403,0,0,195,2,209

231.2774,-4.531789,0,-128.7226,-4.531789,-1,0,0,0,0,-4.1829,-0.5828766,-39.30968,0,-4.1829,-0.5828766,1,0,0,0,0,0,-2.292426,-48.67332,-12.91885,101.3514,0,-48.67332,-12.91885,-1,0,0,0,0,0,-10,-2.0764,17.33297,0,101.5925,56.85908,1,0,0,0,0,0,0,403,0,0,196,2,209

231.2774,-4.531789,0,-128.7226,-4.531789,-1,0,0,0,0,-4.1829,-0.5828766,-39.30968,0,-4.1829,-0.5828766,1,0,0,0,0,0,-2.292426,-48.67332,-12.91885,101.3514,0,-48.67332,-12.91885,-1,0,0,0,0,0,-10,-2.0764,17.33297,0,101.5925,56.85908,1,0,0,0,0,0,0,403,0,0,197,2,209

231.2774,-4.531789,0,-128.7226,-4.531789,-1,0,0,0,0,-4.1829,-0.5828766,-39.30968,0,-4.1829,-0.5828766,1,0,0,0,0,0,-2.292426,-48.67332,-12.91885,101.3514,0,-48.67332,-12.91885,-1,0,0,0,0,0,-10,-2.0764,17.33297,0,101.5925,56.85908,1,0,0,0,0,0,0,403,0,0,198,2,209

231.2774,-4.531789,0,-128.7226,-4.531789,-1,0,0,0,0,-4.1829,-0.5828766,-39.30968,0,-4.1829,-0.5828766,1,0,0,0,0,0,-2.292426,-48.67332,-12.91885,101.3514,0,-48.67332,-12.91885,-1,0,0,0,0,0,-10,-2.0764,17.33297,0,101.5925,56.85908,1,0,0,0,0,0,0,403,0,0,199,2,209

231.2774,-4.531789,0,-128.7226,-4.531789,-1,0,0,0,0,-4.1829,-0.5828766,-39.30968,0,-4.1829,-0.5828766,1,0,0,0,0,0,-2.292426,-48.67332,-12.91885,101.3514,0,-48.67332,-12.91885,-1,0,0,0,0,0,-10,-2.0764,17.33297,0,101.5925,56.85908,1,0,0,0,0,0,0,403,0,0,200,2,209

231.2774,-4.531789,0,-128.7226,-4.531789,-1,0,0,0,0,-4.1829,-0.5828766,-39.30968,0,-4.1829,-0.5828766,1,0,0,0,0,0,-2.292426,-48.67332,-12.91885,101.3514,0,-48.67332,-12.91885,-1,0,0,0,0,0,-10,-2.0764,17.33297,0,101.5925,56.85908,1,0,0,0,0,0,0,403,0,0,201,2,209

231.2774,-4.531789,0,-128.7226,-4.531789,-1,0,0,0,0,-4.1829,-0.5828766,-39.30968,0,-4.1829,-0.5828766,1,0,0,0,0,0,-2.292426,-48.67332,-12.91885,101.3514,0,-48.67332,-12.91885,-1,0,0,0,0,0,-10,-2.0764,17.33297,0,101.5925,56.85908,1,0,0,0,0,0,0,403,0,0,202,2,209

231.2774,-4.531789,0,-128.7226,-4.531789,-1,0,0,0,0,-4.1829,-0.5828766,-39.30968,0,-4.1829,-0.5828766,1,0,0,0,0,0,-2.292426,-48.67332,-12.91885,101.3514,0,-48.67332,-12.91885,-1,0,0,0,0,0,-10,-2.0764,17.33297,0,101.5925,56.85908,1,0,0,0,0,0,0,403,0,0,203,2,209

0,0,0,-128.7226,-4.531789,-1,0,0,0,0,-4.1829,0,0,0,-4.1829,-0.5828766,1,0,0,0,0,0,-2.292426,-48.67332,0,0,0,-48.67332,-12.91885,-1,0,0,0,0,0,-10,0,0,0,101.5925,56.85908,1,0,0,0,0,0,0,403,0,0,204,2,209

158.1492,40.84406,0,0,0,0,0,0,0,0,-0.762622,0.2403639,2.497176,0,-0.762622,0,-0.00683233,0,0,0,0,0,-0.2203978,-0.2346839,0.3196414,-2.54647,0,-0.2346839,0,-0.03102615,0,0,0,0,0,-0.3372408,0.9492027,-3.543333,0,99.30119,0,1,0,0,0,0,0,0,403,0,0,205,2,209

162.9566,59.72548,3.953729,158.1492,40.84406,1,0,0,0,0,-0.3412431,0.4945455,5.88958,0,-0.762622,0.2403639,-0.07039286,0,0,0,0,0,0.2264387,-0.3129119,0.6808554,-8.532029,0,-0.2346839,0.3196414,0.2866562,0,0,0,0,0,0.5693579,2.21339,-4.419854,0,99.30119,-11.62355,1,0,0,0,0,0,0,403,0,0,206,2,209

165.6401,30.46682,0,162.9566,59.72548,1,0,0,0,0,-0.413599,0.6325922,9.670297,0,-0.3412431,0.4945455,-0.157134,0,0,0,0,0,0.8207409,-0.2578588,0.8061751,-13.86652,0,-0.3129119,0.6808554,0.9212406,0,0,0,0,0,1.481456,3.647713,-4.892574,0,98.33098,-14.49889,1,0,0,0,0,0,0,403,0,0,207,2,209

165.8965,-1.113451,0,165.6401,30.46682,1,0,0,0,0,-0.1628418,0.8379709,13.05524,0,-0.1628418,0.6325922,-0.267029,0,0,0,0,0,1.128928,-0.4925426,0.9927428,-17.82094,0,-0.4925426,0.8061751,1,0,0,0,0,0,1.578771,5.179163,-5.132293,0,95.78178,-16.0496,1,0,0,0,0,0,0,403,0,0,208,2,209

162.0888,-36.60697,0,165.8965,-1.113451,1,0,0,0,0,-0.3075535,1.095598,15.35692,0,-0.3075535,0.8379709,-0.3591764,0,0,0,0,0,1.468905,-0.3824363,1.140716,-19.88111,0,-0.3824363,0.9927428,1,0,0,0,0,0,2.266155,6.816845,-5.27512,0,94.29284,-16.83598,1,0,0,0,0,0,0,403,0,0,209,2,209

155.8054,-59.14011,0,162.0888,-36.60697,1,0,0,0,0,-0.3686798,1.374364,16.73454,0,-0.3075535,1.095598,-0.4156817,0,0,0,0,0,1.947834,-0.3505578,1.278897,-19.31798,0,-0.3824363,1.140716,1,0,0,0,0,0,2.685852,8.486935,-5.32593,0,94.29284,-17.3045,1,0,0,0,0,0,0,403,0,0,210,2,209

147.7216,-76.50563,0,155.8054,-59.14011,1,0,0,0,0,-0.1032419,1.670164,17.38728,0,-0.3686798,1.374364,-0.4428705,0,0,0,0,0,2.448394,-0.2955048,1.345376,-16.80756,0,-0.3505578,1.278897,1,0,0,0,0,0,3.123583,10.19546,-5.341672,0,92.20233,-17.47118,1,0,0,0,0,0,0,403,0,0,211,2,209

138.2029,-91.38087,0,147.7216,-76.50563,1,0,0,0,0,-0.09201241,1.956072,17.43238,0,-0.09201241,1.670164,-0.4436808,0,0,0,0,0,3.078244,-0.3186796,1.288541,-12.74953,0,-0.3186796,1.345376,1,0,0,0,0,0,3.357949,11.93315,-5.361081,0,89.74317,-17.52282,1,0,0,0,0,0,0,403,0,0,212,2,209

122.0785,-109.8929,0,138.2029,-91.38087,1,0,0,0,0,-0.1531382,2.251481,16.77059,0,-0.1531382,1.956072,-0.4290494,0,0,0,0,0,3.592081,-0.2868011,0.9443049,-4.524532,0,-0.2868011,1.288541,1,0,0,0,0,0,3.242554,14.5356,-5.456277,0,87.65266,-17.58649,1,0,0,0,0,0,0,403,0,0,213,2,209

110.5918,-118.9223,0,122.0785,-109.8929,1,0,0,0,0,0.02526331,2.28046,16.20898,0,-0.1531382,2.251481,-0.3915097,0,0,0,0,0,4.141246,-0.4664316,0.5706354,1.910532,0,-0.2868011,0.9443049,0.6247473,0,0,0,0,0,2.266199,16.2539,-5.588969,0,87.65266,-17.89877,1,0,0,0,0,0,0,403,0,0,214,2,209

98.97477,-124.7138,0,110.5918,-118.9223,1,0,0,0,0,1.049872,2.123705,15.85675,0,0.02526331,2.28046,-0.3708315,0,0,0,0,0,4.246676,-0.4896064,0.1356089,8.704276,0,-0.4664316,0.5706354,-0.08853168,0,0,0,0,0,0.9482308,17.94614,-5.763719,0,85.10346,-18.33405,1,0,0,0,0,0,0,403,0,0,215,2,209

86.67366,-129.3213,0,98.97477,-124.7138,1,0,0,0,0,0.9051609,1.765639,15.8841,0,0.9051609,2.123705,-0.3597663,0,0,0,0,0,4.20956,-0.3795004,-0.3120423,15.66625,0,-0.3795004,0.1356089,-0.8301355,0,0,0,0,0,-0.1607144,19.71012,-5.955347,0,81.16256,-18.9073,1,0,0,0,0,0,0,403,0,0,216,2,209

73.39281,-133.1364,0,86.67366,-129.3213,1,0,0,0,0,0.9163904,1.272545,16.40666,0,0.9163904,1.765639,-0.3824453,0,0,0,0,0,3.54716,-0.4026747,-0.6795504,20.9659,0,-0.4026747,-0.3120423,-1,0,0,0,0,0,-1.463689,21.57946,-6.117312,0,79.81651,-19.53592,1,0,0,0,0,0,0,403,0,0,217,2,209

59.13214,-136.0372,0,73.39281,-133.1364,1,0,0,0,0,1.109472,0.7157964,17.17068,0,0.9163904,1.272545,-0.4270609,0,0,0,0,0,2.630497,-0.2925687,-0.9220309,22.33655,0,-0.4026747,-0.6795504,-1,0,0,0,0,0,-2.506052,23.54337,-6.234478,0,79.81651,-20.06723,1,0,0,0,0,0,0,403,0,0,218,2,209

51.7268,-136.8554,0,59.13214,-136.0372,1,0,0,0,0,1.458495,0.4111799,17.44801,0,1.109472,0.7157964,-0.4811006,0,0,0,0,0,1.651303,-0.3157434,-0.9856818,21.54146,0,-0.2925687,-0.9220309,-1,0,0,0,0,0,-3.035577,24.55122,-6.280231,0,77.95894,-20.45158,1,0,0,0,0,0,0,403,0,0,219,2,209

36.75788,-136.0218,0,51.7268,-136.8554,1,0,0,0,0,1.469725,-0.1476181,17.44803,0,1.469725,0.4111799,-0.5041257,0,0,0,0,0,1.189134,-0.3389187,-1.011631,17.63105,0,-0.3389187,-0.9856818,-1,0,0,0,0,0,-3.282715,26.60285,-6.352135,0,74.89821,-20.60167,1,0,0,0,0,0,0,403,0,0,220,2,209

