MagYaw,YawVelocityDegreesPerSecond,YawIntegral,YawProportional,YawDerivativeError,YawControl,YawIntegralGain,YawDerivativeGain,YawProportionalGain,YawAntiWindupGain,XNEDBodyFrame,XVelocityMetersPerSecond,ThetaPitchDegrees,XIntegral,XProportional,XDerivativeError,LongitudeControl,XIntegralGain,XDerivativeGain,XProportionalGain,XAntiWindupGain,LongitudeInnerLoopGain,XLongitudeOuterLoopSetpoint,YNEDBodyFrame,YVelocityMetersPerSecond,PhiRollDegrees,YIntegral,YProportional,YDerivativeError,LateralControl,YIntegralGain,YDerivativeGain,YProportionalGain,YAntiWindupGain,LateralInnerLoopGain,YLateralOuterLoopSetpoint,AltitudeFeetAgl,ZVelocityMetersPerSecond,ZIntegral,ZProportional,ZDerivativeError,MainRotorCollectiveControl,ZIntegralGain,ZDerivativeGain,ZProportionalGain,ZAntiWindupGain,LatitudeDegrees,LongitudeDegrees,Timeouts,UnrecognizedMsgTypes,ChecksumErrors,NumOfBlownFrames,MessageType,NumOfBytesInMsg
155.1776,0,0,0,0,0,0,0,0,0,0,0,-1.188591,0,0,0,0,0,0,0,0,0,0,0,0,-0.1959406,0,0,0,0,0,0,0,0,0,0,0.09283435,-0.0001640758,0,0,0,0,0,0,0,0,0,0,69,0,0,0,2,209

155.1776,0,3.879439,155.1776,0,1,0,0,0,0,0,0,-1.194484,0,0,0,0.03684632,0,0,0,0,0,0,0,0,-0.1951218,0,0,0,0.01802653,0,0,0,0,0,0,0.09268915,0.000893814,0.1000928,100.0928,-0.0005382344,1,0,0,0,0,0,0,69,0,0,1,2,209

155.1777,0,0,155.1776,0,1,0,0,0,0,-0.762622,0,-1.20256,0,0,0,0.03702902,0,0,0,0,0,0,-0.2346839,0,-0.1949809,0,0,0,0.01795121,0,0,0,0,0,0,0.09280375,-0.0006952648,0,100.0927,0.002932067,1,0,0,0,0,0,0,69,0,0,2,2,209

153.8321,-29.77826,0,155.1777,0,1,0,0,0,0,-0.762622,-0.07060206,-1.245974,0,-0.762622,0,0.03044702,0,0,0,0,0,-0.2203978,-0.2346839,-0.099801,0.01817872,0,-0.2346839,0,-0.01308791,0,0,0,0,0,-0.3372408,0.5513236,-2.782305,0,100.0928,-0.002280747,1,0,0,0,0,0,0,69,0,0,3,2,209

151.8178,-40.06383,0,153.8321,-29.77826,1,0,0,0,0,-0.4248289,-0.1074834,-0.9894934,0,-0.4248289,-0.07060206,0.02772415,0,0,0,0,0,-0.2540248,-0.2346839,-0.1420765,0.2795486,0,-0.2346839,-0.099801,-0.05874063,0,0,0,0,0,-0.6203064,1.149614,-3.630605,0,100.5513,-9.127073,1,0,0,0,0,0,0,69,0,0,4,2,209

146.5361,-55.96425,0,151.8178,-40.06383,1,0,0,0,0,-0.3412431,-0.1518575,0.05038931,0,-0.3412431,-0.1074834,0.02142294,0,0,0,0,0,-0.2984309,-0.3129119,-0.2480918,0.8112297,0,-0.3129119,-0.1420765,-0.1041601,0,0,0,0,0,-0.852626,2.58113,-4.53108,0,101.1496,-11.90984,1,0,0,0,0,0,0,69,0,0,5,2,209

143.4866,-60.80242,0,146.5361,-55.96425,1,0,0,0,0,-0.5842206,-0.1629898,0.8038962,0,-0.3412431,-0.1518575,-0.01337066,0,0,0,0,0,-0.3809223,-0.4143147,-0.2969186,0.9401433,0,-0.3129119,-0.2480918,-0.1807383,0,0,0,0,0,-1.153317,3.373226,-4.806945,0,102.5811,-14.86376,1,0,0,0,0,0,0,69,0,0,6,2,209

140.2714,-64.12792,0,143.4866,-60.80242,1,0,0,0,0,-0.1628418,-0.1667143,1.69658,0,-0.5842206,-0.1629898,-0.03954775,0,0,0,0,0,-0.4718378,-0.4925426,-0.3481309,0.9427491,0,-0.4143147,-0.2969186,-0.2187451,0,0,0,0,0,-1.43752,4.19943,-5.01499,0,103.3732,-15.7687,1,0,0,0,0,0,0,69,0,0,7,2,209

133.627,-66.48334,0,140.2714,-64.12792,1,0,0,0,0,-0.5729907,-0.1464782,3.805836,0,-0.5729907,-0.1667143,-0.06366044,0,0,0,0,0,-0.4755162,-0.4374895,-0.4375813,0.3157213,0,-0.4374895,-0.3481309,-0.2426902,0,0,0,0,0,-1.616076,5.92707,-5.308688,0,104.1994,-16.45117,1,0,0,0,0,0,0,69,0,0,8,2,209

130.2842,-66.21816,0,133.627,-66.48334,1,0,0,0,0,-0.6341166,-0.121269,4.959599,0,-0.6341166,-0.1464782,-0.1321034,0,0,0,0,0,-0.4555626,-0.405611,-0.4765944,-0.4232874,0,-0.405611,-0.4375813,-0.196852,0,0,0,0,0,-1.823975,6.81974,-5.418881,0,105.9271,-17.41462,1,0,0,0,0,0,0,69,0,0,9,2,209

123.7345,-63.12242,0,130.2842,-66.21816,1,0,0,0,0,-0.3686798,-0.02923146,7.371959,0,-0.6341166,-0.121269,-0.1664172,0,0,0,0,0,-0.4086988,-0.3505578,-0.5500634,-2.723723,0,-0.405611,-0.4765944,-0.1390433,0,0,0,0,0,-1.934628,8.650666,-5.600504,0,106.8197,-17.7761,1,0,0,0,0,0,0,69,0,0,10,2,209

120.5922,-60.4052,0,123.7345,-63.12242,1,0,0,0,0,-0.3574495,0.0333717,8.567997,0,-0.3686798,-0.02923146,-0.2335183,0,0,0,0,0,-0.1608897,-0.3737326,-0.5824081,-4.21791,0,-0.3505578,-0.5500634,0.06070406,0,0,0,0,0,-2.063896,9.586318,-5.680182,0,108.6507,-18.37189,1,0,0,0,0,0,0,69,0,0,11,2,209

114.7188,-52.96567,0,120.5922,-60.4052,1,0,0,0,0,-0.4298053,0.2154892,10.89848,0,-0.4298053,0.0333717,-0.2668871,0,0,0,0,0,-0.06217573,-0.3186796,-0.643311,-7.701233,0,-0.3186796,-0.5824081,0.1866655,0,0,0,0,0,-2.109827,11.49334,-5.82473,0,109.5863,-18.63327,1,0,0,0,0,0,0,69,0,0,12,2,209

109.5837,-43.33112,0,114.7188,-52.96567,1,0,0,0,0,-0.490931,0.4422251,13.09076,0,-0.490931,0.2154892,-0.3298326,0,0,0,0,0,0.2587153,-0.2868011,-0.7194314,-10.94879,0,-0.2868011,-0.643311,0.5027319,0,0,0,0,0,-2.236756,13.44353,-5.95148,0,111.4933,-19.10744,1,0,0,0,0,0,0,69,0,0,13,2,209

107.3466,-38.06781,0,109.5837,-43.33112,1,0,0,0,0,-0.6503229,0.5736317,14.16649,0,-0.490931,0.4422251,-0.3847268,0,0,0,0,0,0.6802174,-0.4664316,-0.7660298,-12.28874,0,-0.2868011,-0.7194314,0.7816446,0,0,0,0,0,-2.452657,14.433,-6.009113,0,113.4435,-19.52324,1,0,0,0,0,0,0,69,0,0,14,2,209

105.3555,-32.62064,0,107.3466,-38.06781,1,0,0,0,0,-0.3848858,0.6917934,15.22759,0,-0.6503229,0.5736317,-0.4119297,0,0,0,0,0,0.878438,-0.4113784,-0.8322421,-13.07038,0,-0.4664316,-0.7660298,0.8690126,0,0,0,0,0,-2.842953,15.43094,-6.061168,0,114.433,-19.71229,1,0,0,0,0,0,0,69,0,0,15,2,209

103.6323,-27.06012,0,105.3555,-32.62064,1,0,0,0,0,-0.7114487,0.798664,16.28697,0,-0.7114487,0.6917934,-0.4356361,0,0,0,0,0,1.080435,-0.4345536,-0.916633,-13.05112,0,-0.4345536,-0.8322421,0.9309238,0,0,0,0,0,-2.984942,16.43631,-6.10681,0,115.4309,-19.88305,1,0,0,0,0,0,0,69,0,0,16,2,209

102.1669,-22.02338,0,103.6323,-27.06012,1,0,0,0,0,-0.4460115,0.9091593,17.36842,0,-0.4460115,0.798664,-0.4628657,0,0,0,0,0,1.355819,-0.3795004,-1.011361,-12.3094,0,-0.3795004,-0.916633,0.9113457,0,0,0,0,0,-3.145188,17.44831,-6.147608,0,116.4363,-20.03278,1,0,0,0,0,0,0,69,0,0,17,2,209

100.933,-17.81654,0,102.1669,-22.02338,1,0,0,0,0,-0.5183678,1.010709,18.47751,0,-0.4460115,0.9091593,-0.490023,0,0,0,0,0,1.56123,-0.3244472,-1.126318,-10.93115,0,-0.3795004,-1.011361,0.8183895,0,0,0,0,0,-3.413865,18.46621,-6.18399,0,117.4483,-20.16661,1,0,0,0,0,0,0,69,0,0,18,2,209

99.02834,-12.39399,0,100.933,-17.81654,1,0,0,0,0,-0.5071383,1.148069,20.68811,0,-0.5183678,1.010709,-0.5192009,0,0,0,0,0,1.729099,-0.3476219,-1.424217,-6.515347,0,-0.3244472,-1.126318,0.6688715,0,0,0,0,0,-3.660805,20.51761,-6.248538,0,118.4662,-20.28596,1,0,0,0,0,0,0,69,0,0,19,2,209

98.27604,-11.23134,0,99.02834,-12.39399,1,0,0,0,0,-0.2392941,1.172848,21.73856,0,-0.2392941,1.148069,-0.5797129,0,0,0,0,0,2.065105,-1.483396,-1.610092,-3.58485,0,-1.483396,-1.424217,0.1818202,0,0,0,0,0,-6.171146,21.55027,-6.276014,0,120.5176,-20.49771,1,0,0,0,0,0,0,69,0,0,20,2,209

96.92516,-11.90689,0,98.27604,-11.23134,1,0,0,0,0,-0.3116503,1.126412,23.66576,0,-0.3116503,1.172848,-0.6090975,0,0,0,0,0,2.090258,-1.428342,-2.053398,3.339903,0,-1.428342,-1.610092,-0.2791631,0,0,0,0,0,-6.619232,23.62503,-6.316065,0,121.5503,-20.58784,1,0,0,0,0,0,0,69,0,0,21,2,209

95.35403,-16.59613,0,96.92516,-11.90689,1,0,0,0,0,-0.4710417,1.001262,25.17606,0,-0.3116503,1.126412,-0.6715167,0,0,0,0,0,2.003933,-1.607973,-2.539212,9.398274,0,-1.428342,-2.053398,-1,0,0,0,0,0,-7.876581,25.70897,-6.338065,0,123.625,-20.71922,1,0,0,0,0,0,0,69,0,0,22,2,209

94.33664,-19.69172,0,95.35403,-16.59613,1,0,0,0,0,-0.1220188,0.9234552,25.73061,0,-0.4710417,1.001262,-0.7269762,0,0,0,0,0,1.725215,-1.631148,-2.787168,11.42214,0,-1.607973,-2.539212,-1,0,0,0,0,0,-9.512623,26.75114,-6.338555,0,125.709,-20.79139,1,0,0,0,0,0,0,69,0,0,23,2,209

93.11348,-22.9389,0,94.33664,-19.69172,1,0,0,0,0,-0.2667303,0.8074305,26.13213,0,-0.2667303,0.9234552,-0.7455242,0,0,0,0,0,1.639618,-1.521042,-3.04554,12.72483,0,-1.521042,-2.787168,-1,0,0,0,0,0,-10,27.79111,-6.325943,0,126.7511,-20.793,1,0,0,0,0,0,0,69,0,0,24,2,209

90.06158,-28.20286,0,93.11348,-22.9389,1,0,0,0,0,-0.2554998,0.6305722,26.33934,0,-0.2554998,0.8074305,-0.7658537,0,0,0,0,0,1.427174,-1.544216,-3.508634,11.71002,0,-1.544216,-3.04554,-1,0,0,0,0,0,-10,29.86729,-6.308434,0,127.7911,-20.75162,1,0,0,0,0,0,0,69,0,0,25,2,209

86.53221,-29.9554,0,90.06158,-28.20286,1,0,0,0,0,0.266551,0.4826909,25.5652,0,-0.2554998,0.6305722,-0.7824693,0,0,0,0,0,1.098394,-2.601762,-3.928327,7.026601,0,-1.544216,-3.508634,-1,0,0,0,0,0,-10,31.93857,-6.300367,0,129.8673,-20.69419,1,0,0,0,0,0,0,69,0,0,26,2,209

84.81502,-29.10319,0,86.53221,-29.9554,1,0,0,0,0,0.459631,0.4527301,24.78954,0,0.266551,0.4826909,-0.7623162,0,0,0,0,0,0.9743556,-2.491656,-4.110354,3.650702,0,-2.601762,-3.928327,-1,0,0,0,0,0,-10,32.97643,-6.31366,0,131.9386,-20.66772,1,0,0,0,0,0,0,69,0,0,27,2,209

82.00459,-23.65757,0,84.81502,-29.10319,1,0,0,0,0,0.4708614,0.5210379,22.49988,0,0.4708614,0.4527301,-0.7382675,0,0,0,0,0,0.9777042,-2.514831,-4.418314,-4.624563,0,-2.514831,-4.110354,-1,0,0,0,0,0,-10,35.07032,-6.395669,0,132.9764,-20.71133,1,0,0,0,0,0,0,69,0,0,28,2,209

81.12049,-18.99368,0,82.00459,-23.65757,1,0,0,0,0,0.5656757,0.6342732,21.04898,0,0.5656757,0.5210379,-0.6624016,0,0,0,0,0,1.13209,-2.616234,-4.542558,-9.357722,0,-2.616234,-4.418314,-0.4945402,0,0,0,0,0,-10,36.13288,-6.46463,0,135.0703,-20.98035,1,0,0,0,0,0,0,69,0,0,29,2,209

80.85569,-5.669907,0,81.12049,-18.99368,1,0,0,0,0,0.001993179,1.05762,17.84898,0,0.5656757,0.6342732,-0.6108979,0,0,0,0,0,1.342594,-3.618726,-4.718476,-19.69788,0,-2.616234,-4.542558,-0.05908955,0,0,0,0,0,-10,38.30773,-6.675257,0,136.1329,-21.20657,1,0,0,0,0,0,0,69,0,0,30,2,209

81.60306,3.04997,0,80.85569,-5.669907,1,0,0,0,0,0.2957478,1.344884,16.33834,0,0.001993179,1.05762,-0.492351,0,0,0,0,0,1.966692,-4.487937,-4.773431,-24.78599,0,-3.618726,-4.718476,0.8922046,0,0,0,0,0,-10,39.42508,-6.801329,0,138.3077,-21.89751,1,0,0,0,0,0,0,69,0,0,31,2,209

84.92757,23.53492,0,81.60306,3.04997,1,0,0,0,0,0.2233906,2.106462,14.11807,0,0.2233906,1.344884,-0.4263345,0,0,0,0,0,2.564698,-4.432884,-4.771097,-33.87643,0,-4.432884,-4.773431,1,0,0,0,0,0,-10,41.72514,-7.068501,0,139.4251,-22.31108,1,0,0,0,0,0,0,69,0,0,32,2,209

87.39157,34.75193,0,84.92757,23.53492,1,0,0,0,0,1.247999,2.453321,13.67706,0,1.247999,2.106462,-0.3050861,0,0,0,0,0,4.276584,-4.456059,-4.75254,-36.343,0,-4.456059,-4.771097,1,0,0,0,0,0,-10,42.90481,-7.185273,0,141.7251,-23.18751,1,0,0,0,0,0,0,69,0,0,33,2,209

93.49714,57.32392,0,87.39157,34.75193,1,0,0,0,0,1.25923,3.229635,14.3941,0,1.247999,2.453321,-0.2714257,0,0,0,0,0,4.921394,-4.479234,-4.611577,-37.10052,0,-4.456059,-4.75254,1,0,0,0,0,0,-10,45.30561,-7.347857,0,142.9048,-23.57057,1,0,0,0,0,0,0,69,0,0,34,2,209

97.00982,67.42043,0,93.49714,57.32392,1,0,0,0,0,1.512392,3.582676,15.49388,0,1.25923,3.229635,-0.2488151,0,0,0,0,0,6.367809,-5.904745,-4.538939,-35.75269,0,-4.479234,-4.611577,1,0,0,0,0,0,-10,46.51822,-7.389519,0,145.3056,-24.10391,1,0,0,0,0,0,0,69,0,0,35,2,209

100.8052,76.29319,0,97.00982,67.42043,1,0,0,0,0,1.440037,3.891318,16.96075,0,1.440037,3.582676,-0.2602947,0,0,0,0,0,7.076365,-5.84969,-4.469095,-33.38727,0,-5.84969,-4.538939,1,0,0,0,0,0,-10,47.73494,-7.415647,0,146.5182,-24.24058,1,0,0,0,0,0,0,69,0,0,36,2,209

109.1841,89.15524,0,100.8052,76.29319,1,0,0,0,0,1.295326,4.358013,20.582,0,1.295326,3.891318,-0.2899258,0,0,0,0,0,7.608308,-5.739585,-4.40742,-25.91574,0,-5.739585,-4.469095,1,0,0,0,0,0,-10,50.1661,-7.403013,0,147.7349,-24.32629,1,0,0,0,0,0,0,69,0,0,37,2,209

113.7304,92.6123,0,109.1841,89.15524,1,0,0,0,0,1.999228,4.5169,22.49844,0,1.295326,4.358013,-0.3752892,0,0,0,0,0,8.475895,-6.663849,-4.431588,-20.90948,0,-5.739585,-4.40742,1,0,0,0,0,0,-10,51.37403,-7.367742,0,150.1661,-24.28485,1,0,0,0,0,0,0,69,0,0,38,2,209

118.4365,93.39897,0,113.7304,92.6123,1,0,0,0,0,2.348251,4.631489,24.33002,0,1.999228,4.5169,-0.4192362,0,0,0,0,0,8.974694,-6.687025,-4.504526,-15.15836,0,-6.663849,-4.431588,1,0,0,0,0,0,-10,52.57141,-7.306265,0,151.374,-24.16914,1,0,0,0,0,0,0,69,0,0,39,2,209

123.2384,91.98949,0,118.4365,93.39897,1,0,0,0,0,2.613689,4.708442,25.977,0,2.613689,4.631489,-0.4662844,0,0,0,0,0,9.365294,-6.631972,-4.627899,-8.733333,0,-6.631972,-4.504526,0.4745691,0,0,0,0,0,-10,53.75446,-7.221064,0,152.5714,-23.96747,1,0,0,0,0,0,0,69,0,0,40,2,209

132.7308,82.56364,0,123.2384,91.98949,1,0,0,0,0,2.62492,4.777277,28.38447,0,2.62492,4.708442,-0.5104275,0,0,0,0,0,9.511595,-6.655146,-5.032431,5.713976,0,-6.655146,-4.627899,-0.1165334,0,0,0,0,0,-10,56.06264,-6.981975,0,153.7545,-23.68798,1,0,0,0,0,0,0,69,0,0,41,2,209

137.14,74.50758,0,132.7308,82.56364,1,0,0,0,0,2.73682,4.808221,29.12284,0,2.62492,4.777277,-0.5810921,0,0,0,0,0,9.63956,-7.657639,-5.285025,12.99675,0,-6.655146,-5.032431,-1,0,0,0,0,0,-10,57.18017,-6.82977,0,156.0627,-22.90367,1,0,0,0,0,0,0,69,0,0,42,2,209

141.099,64.18167,0,137.14,74.50758,1,0,0,0,0,3.7502,4.856372,29.59607,0,2.73682,4.808221,-0.6011958,0,0,0,0,0,9.729424,-7.657639,-5.544919,19.24462,0,-7.657639,-5.285025,-1,0,0,0,0,0,-10,58.27111,-6.670252,0,157.1802,-22.40438,1,0,0,0,0,0,0,69,0,0,43,2,209

144.4435,52.31286,0,141.099,64.18167,1,0,0,0,0,3.35128,4.922233,29.85785,0,3.35128,4.856372,-0.6074781,0,0,0,0,0,9.996515,-7.625759,-5.80477,23.60275,0,-7.625759,-5.544919,-1,0,0,0,0,0,-10,59.33709,-6.517521,0,158.2711,-21.8811,1,0,0,0,0,0,0,69,0,0,44,2,209

147.1179,40.66183,0,144.4435,52.31286,1,0,0,0,0,3.689074,4.967667,30.00738,0,3.689074,4.922233,-0.6155934,0,0,0,0,0,10,-7.625759,-6.117777,26.43878,0,-7.625759,-5.80477,-1,0,0,0,0,0,-10,60.37027,-6.318621,0,159.3371,-21.38008,1,0,0,0,0,0,0,69,0,0,45,2,209

150.7978,23.43386,0,147.1179,40.66183,1,0,0,0,0,4.127541,5.100338,30.17541,0,3.689074,4.967667,-0.6202288,0,0,0,0,0,10,-8.605078,-6.713018,28.2017,0,-7.625759,-6.117777,-1,0,0,0,0,0,-10,62.33895,-5.924075,0,160.3703,-20.72761,1,0,0,0,0,0,0,69,0,0,46,2,209

152.0475,18.52036,0,150.7978,23.43386,1,0,0,0,0,4.577232,5.197423,30.205,0,4.127541,5.100338,-0.6254377,0,0,0,0,0,10,-9.60757,-6.976627,27.38719,0,-8.605078,-6.713018,-1,0,0,0,0,0,-10,63.28015,-5.757497,0,162.339,-19.43334,1,0,0,0,0,0,0,69,0,0,47,2,209

153.0963,16.35734,0,152.0475,18.52036,1,0,0,0,0,4.998611,5.317528,30.15565,0,4.998611,5.197423,-0.626355,0,0,0,0,0,10,-9.685799,-7.21279,25.60914,0,-9.685799,-6.976627,-1,0,0,0,0,0,-10,64.1994,-5.625069,0,163.2802,-18.88689,1,0,0,0,0,0,0,69,0,0,48,2,209

155.2653,20.96469,0,153.0963,16.35734,1,0,0,0,0,5.336407,5.632677,29.63132,0,5.336407,5.317528,-0.6248251,0,0,0,0,0,10,-9.685799,-7.578259,19.67683,0,-9.685799,-7.21279,-1,0,0,0,0,0,-10,65.99981,-5.49131,0,164.1994,-18.45248,1,0,0,0,0,0,0,69,0,0,49,2,209

156.7375,27.62637,0,155.2653,20.96469,1,0,0,0,0,5.531891,5.832179,29.07404,0,5.336407,5.632677,-0.608571,0,0,0,0,0,10,-10.76652,-7.694989,15.78101,0,-9.685799,-7.578259,-1,0,0,0,0,0,-10,66.89896,-5.510374,0,165.9998,-18.01369,1,0,0,0,0,0,0,69,0,0,50,2,209

158.6841,36.74151,0,156.7375,27.62637,1,0,0,0,0,5.869686,6.061365,28.29556,0,5.531891,5.832179,-0.5912954,0,0,0,0,0,10,-10.76652,-7.757628,11.40948,0,-10.76652,-7.694989,-1,0,0,0,0,0,-10,67.81236,-5.599908,0,166.899,-18.07623,1,0,0,0,0,0,0,69,0,0,51,2,209

164.642,62.30006,0,158.6841,36.74151,1,0,0,0,0,6.547678,6.601766,26.13002,0,6.547678,6.061365,-0.5671622,0,0,0,0,0,10,-11.95735,-7.671326,1.676742,0,-11.95735,-7.757628,-1,0,0,0,0,0,-10,69.73869,-6.037159,0,167.8123,-18.36994,1,0,0,0,0,0,0,69,0,0,52,2,209

169.0127,79.18066,0,164.642,62.30006,1,0,0,0,0,6.8967,6.895514,24.85666,0,6.8967,6.601766,-0.5000306,0,0,0,0,0,10,-11.98052,-7.480902,-3.446746,0,-11.98052,-7.671326,-1,0,0,0,0,0,-10,70.78423,-6.404657,0,169.7387,-19.8043,1,0,0,0,0,0,0,69,0,0,53,2,209

181.2832,119.5013,0,169.0127,79.18066,1,0,0,0,0,7.179224,7.418316,22.43202,0,6.8967,6.895514,-0.4605565,0,0,0,0,0,10,-12.82656,-6.70057,-13.64838,0,-11.98052,-7.480902,-0.6028994,0,0,0,0,0,-10,73.12762,-7.450159,0,170.7842,-21.00984,1,0,0,0,0,0,0,69,0,0,54,2,209

198.7761,164.3655,-36.90256,-178.7168,119.5013,-1,0,0,0,0,7.628922,7.599394,21.22757,0,7.179224,7.418316,-0.3853927,0,0,0,0,0,10,-13.82905,-5.330173,-22.97464,0,-12.82656,-6.70057,0.3356506,0,0,0,0,0,-10,75.89763,-8.800633,0,173.1276,-24.4395,1,0,0,0,0,0,0,69,0,0,55,2,209

209.4929,186.5488,0,-161.2239,164.3655,-1,0,0,0,0,8.48291,7.455271,21.4528,0,8.48291,7.599394,-0.3480546,0,0,0,0,0,10,-14.00868,-4.514028,-26.65064,0,-14.00868,-5.330173,1,0,0,0,0,0,-10,77.45367,-9.481433,0,175.8976,-28.8696,1,0,0,0,0,0,0,69,0,0,56,2,209

235.7542,250.4183,0,-150.5071,186.5488,-1,0,0,0,0,8.511227,6.637283,24.21556,0,8.511227,7.455271,-0.3550369,0,0,0,0,0,10,-14.93295,-2.996615,-29.35459,0,-14.93295,-4.514028,1,0,0,0,0,0,-10,80.85608,-10.56324,0,177.4537,-31.10289,1,0,0,0,0,0,0,69,0,0,57,2,209

273.3377,350.7279,0,-124.2458,250.4183,-1,0,0,0,0,9.463478,5.460898,28.9678,0,8.511227,6.637283,-0.4406824,0,0,0,0,0,10,-14.90107,-2.136231,-19.30565,0,-14.93295,-2.996615,1,0,0,0,0,0,-10,84.48003,-11.11344,0,180.8561,-34.65164,1,0,0,0,0,0,0,69,0,0,58,2,209

322.4199,441.6947,0,-86.66229,350.7279,-1,0,0,0,0,10.00558,4.681766,26.03988,0,9.463478,5.460898,-0.5880019,0,0,0,0,0,10,-14.81413,-1.992031,2.781323,0,-14.90107,-2.136231,0.8561197,0,0,0,0,0,-10,88.16232,-11.19232,0,184.48,-36.45652,1,0,0,0,0,0,0,69,0,0,59,2,209

8.733883,465.844,-1.240775,-37.58008,441.6947,1,0,0,0,0,10.36583,4.507874,9.201005,0,10.36583,4.681766,-0.4972362,0,0,0,0,0,10,-14.86049,-1.678232,20.54274,0,-14.86049,-1.992031,-1,0,0,0,0,0,-10,91.79658,-10.97816,0,188.1623,-36.71527,1,0,0,0,0,0,0,69,0,0,60,2,209

50.0774,457.4816,-1.199624,8.733883,465.844,1,0,0,0,0,10.73732,4.075797,-12.63317,0,10.73732,4.507874,0.02476884,0,0,0,0,0,10,-14.93001,-0.9546152,26.20631,0,-14.93001,-1.678232,-1,0,0,0,0,0,-10,95.355,-10.77196,0,191.7966,-36.01276,1,0,0,0,0,0,0,69,0,0,61,2,209

113.1758,407.58,0,50.0774,457.4816,1,0,0,0,0,10.94163,3.045654,-31.50652,0,10.73732,4.075797,0.7016283,0,0,0,0,0,10,-14.84308,-0.1451058,4.724803,0,-14.93001,-0.9546152,-1,0,0,0,0,0,-10,100.292,-10.6097,0,195.355,-35.33635,1,0,0,0,0,0,0,69,0,0,62,2,209

149.4172,360.7039,0,113.1758,407.58,1,0,0,0,0,12.5807,2.354345,-28.50072,0,10.94163,3.045654,1,0,0,0,0,0,8.824001,-14.83438,0.05944605,-15.72748,0,-14.84308,-0.1451058,-1,0,0,0,0,0,-10,103.2424,-10.66695,0,200.292,-34.80407,1,0,0,0,0,0,0,69,0,0,63,2,209

186.6812,307.7068,0,149.4172,360.7039,1,0,0,0,0,12.34895,1.69834,-11.69855,0,12.34895,2.354345,1,0,0,0,0,0,7.945573,-14.95895,0.4965612,-35.86366,0,-14.95895,0.05944605,0.5269282,0,0,0,0,0,-10,107.5064,-10.79517,0,203.2424,-34.99185,1,0,0,0,0,0,0,69,0,0,64,2,209

197.0075,302.1587,-37.82813,-173.3188,307.7068,-1,0,0,0,0,12.97464,1.47834,-3.817311,0,12.97464,1.69834,0.5767686,0,0,0,0,0,6.906886,-14.95025,0.7993476,-40.49221,0,-14.95025,0.4965612,1,0,0,0,0,0,-10,109.0252,-10.83206,0,207.5064,-35.41247,1,0,0,0,0,0,0,69,0,0,65,2,209

217.1582,300.8506,-11.32171,-162.9925,302.1587,-1,0,0,0,0,12.82993,1.02271,14.80545,0,12.97464,1.47834,0.3197717,0,0,0,0,0,6.497906,-14.84014,1.482554,-45.34368,0,-14.95025,0.7993476,1,0,0,0,0,0,-10,112.2535,-10.83799,0,209.0252,-35.5335,1,0,0,0,0,0,0,69,0,0,66,2,209

242.6624,356.9077,0,-142.8418,300.8506,-1,0,0,0,0,12.78003,0.3295088,36.61762,0,12.82993,1.02271,-0.2850877,0,0,0,0,0,5.609068,-14.83144,2.247758,-37.3587,0,-14.84014,1.482554,1,0,0,0,0,0,-10,115.5918,-10.60506,0,212.2535,-35.55293,1,0,0,0,0,0,0,69,0,0,67,2,209

330.7011,475.0172,0,-117.3376,356.9077,-1,0,0,0,0,12.88608,-0.8559886,49.10153,0,12.88608,0.3295088,-1,0,0,0,0,0,4.336635,-14.95601,3.211391,29.23487,0,-14.95601,2.247758,1,0,0,0,0,0,-10,120.2922,-10.11891,0,215.5918,-34.78884,1,0,0,0,0,0,0,69,0,0,68,2,209

14.03995,495.7474,0,-29.29886,475.0172,1,0,0,0,0,12.69147,-1.386085,20.59452,0,12.69147,-0.8559886,-1,0,0,0,0,0,2.076552,-14.8372,3.97658,58.83072,0,-14.8372,3.211391,-1,0,0,0,0,0,-10,123.2249,-9.743277,0,220.2921,-33.19408,1,0,0,0,0,0,0,69,0,0,69,2,209

42.5752,491.0349,0,14.03995,495.7474,1,0,0,0,0,12.37614,-2.17237,-17.18873,0,12.69147,-1.386085,-0.6046061,0,0,0,0,0,1.091103,-14.88356,4.938736,64.6537,0,-14.8372,3.97658,-1,0,0,0,0,0,-10,126.1004,-9.084146,0,223.2249,-31.96184,1,0,0,0,0,0,0,69,0,0,70,2,209

79.6435,433.4874,0,42.5752,491.0349,1,0,0,0,0,12.30916,-3.053573,-48.13608,0,12.37614,-2.17237,0.518537,0,0,0,0,0,-0.4617307,-13.97376,5.391915,37.14966,0,-14.88356,4.938736,-1,0,0,0,0,0,-7.379932,128.7289,-8.32293,0,226.1004,-29.79963,1,0,0,0,0,0,0,69,0,0,71,2,209

155.8278,368.1372,0,79.6435,433.4874,1,0,0,0,0,11.50008,-3.903359,-45.5823,0,11.50008,-3.053573,1,0,0,0,0,0,-2.353068,-13.88683,5.57722,-42.95599,0,-13.88683,5.391915,-1,0,0,0,0,0,-4.66229,131.9838,-7.510637,0,228.7289,-27.30254,1,0,0,0,0,0,0,69,0,0,72,2,209

177.2171,320.7544,0,155.8278,368.1372,1,0,0,0,0,11.19358,-4.105237,-25.6984,0,11.19358,-3.903359,1,0,0,0,0,0,-4.0214,-12.76553,5.995293,-67.67024,0,-12.76553,5.57722,1,0,0,0,0,0,-2.525398,133.8855,-7.143692,0,231.9838,-24.63789,1,0,0,0,0,0,0,69,0,0,73,2,209

188.1167,290.127,0,177.2171,320.7544,1,0,0,0,0,11.11536,-4.411031,-3.074362,0,11.19358,-4.105237,0.6603529,0,0,0,0,0,-4.396691,-11.83256,6.856829,-82.23904,0,-12.76553,5.995293,1,0,0,0,0,0,-1.339617,135.7378,-6.535517,0,233.8855,-23.43417,1,0,0,0,0,0,0,69,0,0,74,2,209

194.3525,269.9398,-42.26305,-171.8833,290.127,-1,0,0,0,0,10.71645,-4.825803,21.34849,0,11.11536,-4.411031,-0.05931551,0,0,0,0,0,-4.987765,-11.80068,7.756144,-91.79801,0,-11.83256,6.856829,1,0,0,0,0,0,2.444632,137.521,-5.764858,0,235.7378,-21.43911,1,0,0,0,0,0,0,69,0,0,75,2,209

197.3703,246.7105,0,-165.6475,269.9398,-1,0,0,0,0,10.14449,-5.484118,56.85873,0,10.14449,-4.825803,-0.8439009,0,0,0,0,0,-6.039409,-10.73443,8.768195,-95.82313,0,-10.73443,7.756144,1,0,0,0,0,0,6.573371,139.7695,-4.439037,0,237.521,-18.91104,1,0,0,0,0,0,0,69,0,0,76,2,209

184.9118,336.712,0,-162.6297,246.7105,-1,0,0,0,0,9.401932,-5.998762,83.7923,0,9.401932,-5.484118,-1,0,0,0,0,0,-7.477817,-9.824638,8.861656,-107.8711,0,-9.824638,8.768195,1,0,0,0,0,0,10,140.8433,-3.5486,0,239.7695,-14.56182,1,0,0,0,0,0,0,69,0,0,77,2,209

21.61342,414.5213,0,-175.0882,336.712,-1,0,0,0,0,9.000603,-6.289924,48.43306,0,9.401932,-5.998762,-1,0,0,0,0,0,-8.43454,-8.601933,9.025682,93.2551,0,-9.824638,8.861656,1,0,0,0,0,0,10,142.0175,-2.535272,0,240.8433,-11.64083,1,0,0,0,0,0,0,69,0,0,78,2,209

20.54256,430.7531,27.1834,21.61342,414.5213,1,0,0,0,0,8.65696,-6.328894,30.89648,0,9.000603,-6.289924,-1,0,0,0,0,0,-9.091794,-7.724014,9.147237,94.3065,0,-8.601933,9.025682,-1,0,0,0,0,0,10,142.3111,-2.128858,0,242.0175,-8.316706,1,0,0,0,0,0,0,69,0,0,79,2,209

16.14611,461.9759,2.434256,20.54256,430.7531,1,0,0,0,0,7.836662,-6.524055,-29.82838,0,7.836662,-6.328894,-1,0,0,0,0,0,-9.500619,-7.613911,9.564658,102.6785,0,-7.613911,9.147237,-1,0,0,0,0,0,10,142.8132,-0.491722,0,242.3111,-6.983506,1,0,0,0,0,0,0,69,0,0,80,2,209

4.880413,401.5245,0,16.14611,461.9759,1,0,0,0,0,7.227562,-6.829969,-67.00859,0,7.227562,-6.524055,0.6146797,0,0,0,0,0,-10,-6.791046,9.539073,113.914,0,-6.791046,9.564658,-1,0,0,0,0,0,10,142.7253,0.6715764,0,242.8132,-1.613045,1,0,0,0,0,0,0,69,0,0,81,2,209

216.7047,306.8988,0,4.880413,401.5245,1,0,0,0,0,6.716751,-7.577477,-69.75312,0,7.227562,-6.829969,1,0,0,0,0,0,-10,-5.75668,9.123557,-101.8541,0,-6.791046,9.539073,-1,0,0,0,0,0,10,142.1311,1.903061,0,242.7253,2.203039,1,0,0,0,0,0,0,69,0,0,82,2,209

200.418,216.9596,-11.05875,-143.2953,306.8988,-1,0,0,0,0,5.712196,-8.037746,-41.34457,0,6.716751,-7.577477,1,0,0,0,0,0,-10,-4.589024,8.991619,-90.77924,0,-5.75668,9.123557,1,0,0,0,0,0,10,141.2992,2.386567,0,242.1311,6.242802,1,0,0,0,0,0,0,69,0,0,83,2,209

193.5432,162.7602,0,-159.582,216.9596,-1,0,0,0,0,5.256645,-8.193928,-27.59035,0,5.256645,-8.037746,0.9716815,0,0,0,0,0,-10,-2.708618,9.115853,-89.93626,0,-2.708618,8.991619,1,0,0,0,0,0,10,140.6304,2.778123,0,241.2992,7.828895,1,0,0,0,0,0,0,69,0,0,84,2,209

185.6142,228.2549,0,-166.4568,162.7602,-1,0,0,0,0,3.833115,-8.230464,-9.193221,0,3.833115,-8.193928,0.545301,0,0,0,0,0,-10,-2.653564,9.50047,-88.40574,0,-2.653564,9.115853,1,0,0,0,0,0,10,139.7288,3.483491,0,240.6304,9.113354,1,0,0,0,0,0,0,69,0,0,85,2,209

175.5638,269.8718,0,-174.3858,228.2549,-1,0,0,0,0,3.238708,-8.183971,14.97508,0,3.833115,-8.230464,-0.02501015,0,0,0,0,0,-10,-1.540966,10.06183,-87.97163,0,-2.653564,9.50047,1,0,0,0,0,0,10,138.5187,4.321446,0,239.7288,11.42724,1,0,0,0,0,0,0,69,0,0,86,2,209

159.2806,284.3039,32.70542,175.5638,269.8718,1,0,0,0,0,3.152718,-7.996313,41.69759,0,3.238708,-8.183971,-0.7742274,0,0,0,0,0,-10,-0.2719116,10.80166,-92.72846,0,-1.540966,10.06183,1,0,0,0,0,0,10,137.0118,5.103357,0,238.5187,14.17607,1,0,0,0,0,0,0,69,0,0,87,2,209

122.8945,275.5529,0,159.2806,284.3039,1,0,0,0,0,2.376457,-7.536295,63.1012,0,2.376457,-7.996313,-1,0,0,0,0,0,-10,0.7074051,11.6268,-116.8824,0,0.7074051,10.80166,1,0,0,0,0,0,10,135.3085,5.906695,0,237.0118,16.74105,1,0,0,0,0,0,0,69,0,0,88,2,209

45.73056,196.5436,0,122.8945,275.5529,1,0,0,0,0,1.025284,-6.206567,58.20884,0,1.025284,-7.536295,-1,0,0,0,0,0,-10,0.7074051,12.61041,-177.2478,0,0.7074051,11.6268,1,0,0,0,0,0,10,132.4649,7.349275,0,235.3085,19.37632,1,0,0,0,0,0,0,69,0,0,89,2,209

26.88408,146.0112,0,45.73056,196.5436,1,0,0,0,0,0.1371231,-5.292531,43.42431,0,1.025284,-6.206567,-1,0,0,0,0,0,-10,2.689217,12.82893,175.3335,0,0.7074051,12.61041,1,0,0,0,0,0,10,130.2531,8.632671,0,232.4649,24.10856,1,0,0,0,0,0,0,69,0,0,90,2,209

17.81601,96.5481,0,26.88408,146.0112,1,0,0,0,0,-0.2289886,-4.503572,28.79999,0,0.1371231,-5.292531,-1,0,0,0,0,0,-9.799186,3.613483,12.70112,178.5625,0,2.689217,12.82893,-1,0,0,0,0,0,10,127.6966,10.05393,0,230.2531,28.31862,1,0,0,0,0,0,0,69,0,0,91,2,209

12.40067,49.44059,0,17.81601,96.5481,1,0,0,0,0,-0.7622681,-3.825065,14.65885,0,-0.7622681,-4.503572,-1,0,0,0,0,0,-8.592436,4.694202,12.289,-173.3967,0,4.694202,12.70112,-1,0,0,0,0,0,10,124.6182,11.63139,0,227.6966,32.98091,1,0,0,0,0,0,0,69,0,0,92,2,209

9.412081,-3.748401,0,12.40067,49.44059,1,0,0,0,0,-1.22319,-3.448909,1.575866,0,-1.22319,-3.825065,-0.6858175,0,0,0,0,0,-7.464298,5.719868,11.70723,-163.9001,0,5.719868,12.289,1,0,0,0,0,0,10,120.8184,13.08913,0,224.6183,38.1556,1,0,0,0,0,0,0,69,0,0,93,2,209

9.841499,-55.35766,0,9.412081,-3.748401,1,0,0,0,0,-1.010937,-3.186675,-10.62446,0,-1.22319,-3.448909,-0.2585676,0,0,0,0,0,-6.765024,7.936361,10.88003,-158.8884,0,5.719868,11.70723,1,0,0,0,0,0,10,116.4236,14.49505,0,220.8184,42.93759,1,0,0,0,0,0,0,69,0,0,94,2,209

14.20241,-96.78985,0,9.841499,-55.35766,1,0,0,0,0,-1.226479,-2.667813,-22.96684,0,-1.010937,-3.186675,0.1366565,0,0,0,0,0,-6.216189,7.872606,9.416423,-153.282,0,7.936361,10.88003,1,0,0,0,0,0,10,111.2567,16.74272,0,216.4236,47.54956,1,0,0,0,0,0,0,69,0,0,95,2,209

22.43531,-139.4145,0,14.20241,-96.78985,1,0,0,0,0,-1.698635,-2.199014,-36.66045,0,-1.698635,-2.667813,0.5472406,0,0,0,0,0,-5.450371,8.921448,7.585812,-147.3712,0,8.921448,9.416423,1,0,0,0,0,0,10,105.3449,18.99791,0,211.2567,54.92282,1,0,0,0,0,0,0,69,0,0,96,2,209

47.27153,-219.59,0,22.43531,-139.4145,1,0,0,0,0,-1.94249,-1.045983,-60.09146,0,-1.94249,-2.199014,0.9923441,0,0,0,0,0,-4.649346,9.781954,4.011794,-148.1668,0,9.781954,7.585812,1,0,0,0,0,0,10,96.02866,22.08263,0,205.3449,62.32074,1,0,0,0,0,0,0,69,0,0,97,2,209

135.4293,-235.5993,0,47.27153,-219.59,1,0,0,0,0,-2.194126,0.5168208,-75.46332,0,-1.94249,-1.045983,1,0,0,0,0,0,-2.505863,10.97855,0.05609944,145.4787,0,9.781954,4.011794,1,0,0,0,0,0,10,86.53037,24.36131,0,196.0287,72.43987,1,0,0,0,0,0,0,69,0,0,98,2,209

187.9951,-181.0744,0,135.4293,-235.5993,1,0,0,0,0,-2.116795,1.67685,-67.39295,0,-2.194126,0.5168208,1,0,0,0,0,0,0.3266674,11.00749,-2.43538,102.4049,0,10.97855,0.05609944,-1,0,0,0,0,0,10,80.20564,25.25154,0,186.5304,79.91486,1,0,0,0,0,0,0,69,0,0,99,2,209

225.1443,-78.19351,0,-172.0049,-181.0744,-1,0,0,0,0,-2.172943,4.031448,-53.81361,0,-2.172943,1.67685,1,0,0,0,0,0,2.489284,11.12337,-5.63193,79.01519,0,11.12337,-2.43538,-1,0,0,0,0,0,9.076808,70.79881,25.72615,0,180.2056,82.83517,1,0,0,0,0,0,0,69,0,0,100,2,209

254.8785,35.58236,0,-134.8557,-78.19351,-1,0,0,0,0,-1.599472,8.097459,-45.68797,0,-1.599472,4.031448,1,0,0,0,0,0,7.032214,9.828201,-9.243536,53.64841,0,9.828201,-5.63193,-1,0,0,0,0,0,-1.850718,61.78951,24.54836,0,170.7988,84.39207,1,0,0,0,0,0,0,69,0,0,101,2,209

276.3862,148.1912,0,-105.1215,35.58236,-1,0,0,0,0,-1.011316,10.86002,-42.04314,0,-1.599472,8.097459,1,0,0,0,0,0,10,8.822772,-11.42954,27.63173,0,9.828201,-9.243536,-1,0,0,0,0,0,-10,56.1193,22.67799,0,161.7895,80.52843,1,0,0,0,0,0,0,69,0,0,102,2,209

304.2592,273.4931,0,-83.61377,148.1912,-1,0,0,0,0,0.1018543,12.71443,-38.23067,0,-1.011316,10.86002,1,0,0,0,0,0,10,8.805366,-13.20123,-4.733274,0,8.822772,-11.42954,-1,0,0,0,0,0,-10,50.58977,20.95644,0,156.1193,74.39289,1,0,0,0,0,0,0,69,0,0,103,2,209

341.8864,275.2392,0,-55.74084,273.4931,-1,0,0,0,0,1.315697,14.01043,-23.55659,0,1.315697,12.71443,1,0,0,0,0,0,10,7.80864,-13.75809,-42.95197,0,7.80864,-13.20123,-0.4845389,0,0,0,0,0,-10,42.43748,20.23697,0,150.5898,68.74549,1,0,0,0,0,0,0,69,0,0,104,2,209

356.4073,201.8499,0,-18.11356,275.2392,1,0,0,0,0,3.017902,14.45028,-11.38449,0,3.017902,14.01043,1,0,0,0,0,0,10,5.823895,-13.66514,-54.60566,0,5.823895,-13.75809,1,0,0,0,0,0,-10,37.01585,19.71442,0,142.4375,66.38536,1,0,0,0,0,0,0,69,0,0,105,2,209

0.4111862,156.1516,-1.219612,-3.592743,201.8499,1,0,0,0,0,3.457893,14.66246,-5.819244,0,3.017902,14.45028,0.6629192,0,0,0,0,0,10,4.61566,-14.04073,-56.26334,0,5.823895,-13.66514,1,0,0,0,0,0,-10,34.27996,18.97215,0,137.0158,64.67117,1,0,0,0,0,0,0,69,0,0,106,2,209

1.438282,57.85715,-3.679289,0.4111862,156.1516,1,0,0,0,0,4.792464,14.87564,2.768861,0,3.457893,14.66246,0.4903966,0,0,0,0,0,10,3.784094,-15.49167,-52.51022,0,4.61566,-14.04073,1,0,0,0,0,0,-10,28.9221,17.02669,0,134.28,62.23624,1,0,0,0,0,0,0,69,0,0,107,2,209

353.0685,-42.02475,-6.354002,1.438282,57.85715,1,0,0,0,0,5.668514,14.86073,7.704365,0,5.668514,14.87564,0.2241653,0,0,0,0,0,10,2.78737,-17.83447,-39.27116,0,2.78737,-15.49167,1,0,0,0,0,0,-10,24.29912,13.76923,0,128.9221,55.85437,1,0,0,0,0,0,0,69,0,0,108,2,209

338.014,-132.8031,-7.019366,-6.931519,-42.02475,-1,0,0,0,0,7.476765,14.20423,9.844627,0,7.476765,14.86073,0.07116468,0,0,0,0,0,10,0.6780453,-20.61994,-22.19435,0,0.6780453,-17.83447,1,0,0,0,0,0,-10,21.07154,8.441133,0,124.2991,45.16858,1,0,0,0,0,0,0,69,0,0,109,2,209

317.9831,-200.8644,-4.988144,-21.98602,-132.8031,-1,0,0,0,0,9.039631,12.84388,10.99156,0,7.476765,14.20423,0.004816551,0,0,0,0,0,10,-0.3418541,-21.90257,-8.54247,0,0.6780453,-20.61994,1,0,0,0,0,0,-10,19.77918,2.463859,0,121.0715,27.69029,1,0,0,0,0,0,0,69,0,0,110,2,209

298.4416,-180.6653,0,-42.01691,-200.8644,-1,0,0,0,0,9.868193,11.61758,12.76093,0,9.039631,12.84388,-0.03073848,0,0,0,0,0,10,-2.520703,-21.9519,-6.249429,0,-0.3418541,-21.90257,-0.1340928,0,0,0,0,0,-10,19.84917,-1.184527,0,119.7792,8.082442,1,0,0,0,0,0,0,69,0,0,111,2,209

283.9803,-117.2274,0,-61.55844,-180.6653,-1,0,0,0,0,11.06286,10.17618,15.1826,0,11.06286,11.61758,-0.08558898,0,0,0,0,0,10,-5.623816,-21.60571,-12.82413,0,-5.623816,-21.9519,-0.3450526,0,0,0,0,0,-10,20.91677,-4.242009,0,119.8492,-3.885721,1,0,0,0,0,0,0,69,0,0,112,2,209

277.6688,-18.10975,0,-76.01974,-117.2274,-1,0,0,0,0,12.50588,7.766645,21.05399,0,12.50588,10.17618,-0.1606607,0,0,0,0,0,10,-7.770785,-20.72562,-18.7736,0,-7.770785,-21.60571,0.2598195,0,0,0,0,0,-10,23.41208,-8.763932,0,120.9168,-13.91549,1,0,0,0,0,0,0,69,0,0,113,2,209

277.5692,28.26174,0,-82.33121,-18.10975,-1,0,0,0,0,12.97266,6.591549,25.84045,0,12.50588,7.766645,-0.3426737,0,0,0,0,0,10,-9.674368,-20.24606,-20.42879,0,-7.770785,-20.72562,0.8071715,0,0,0,0,0,-10,25.11071,-10.45195,0,123.4121,-28.7492,1,0,0,0,0,0,0,69,0,0,114,2,209

282.0906,87.15506,0,-82.43085,28.26174,-1,0,0,0,0,13.33877,4.255595,37.82894,0,12.97266,6.591549,-0.491054,0,0,0,0,0,10,-10.59863,-18.96445,-19.54609,0,-9.674368,-20.24606,0.9594491,0,0,0,0,0,-10,29.21912,-13.34649,0,125.1107,-34.28657,1,0,0,0,0,0,0,69,0,0,115,2,209

291.9347,106.0434,0,-77.90936,87.15506,-1,0,0,0,0,14.19517,2.054674,50.24969,0,14.19517,4.255595,-0.8626971,0,0,0,0,0,10,-11.96909,-16.9256,-9.025525,0,-11.96909,-18.96445,0.87824,0,0,0,0,0,-10,34.08402,-15.84734,0,129.2191,-43.78183,1,0,0,0,0,0,0,69,0,0,116,2,209

309.9836,107.4943,0,-68.06528,106.0434,-1,0,0,0,0,14.52847,-0.1752978,59.80765,0,14.52847,2.054674,-1,0,0,0,0,0,8.018366,-13.78574,-14.04611,13.73526,0,-13.78574,-16.9256,-0.08965169,0,0,0,0,0,-10,39.42928,-17.88424,0,134.084,-51.98562,1,0,0,0,0,0,0,69,0,0,117,2,209

344.1768,74.11903,0,-50.01645,107.4943,-1,0,0,0,0,14.50929,-3.219229,63.16067,0,14.52847,-0.1752978,-1,0,0,0,0,0,3.872849,-15.89213,-8.260388,59.41273,0,-13.78574,-14.04611,-1,0,0,0,0,0,-10,48.00245,-19.6768,0,139.4293,-58.66747,1,0,0,0,0,0,0,69,0,0,118,2,209

358.1624,48.70326,0,-15.82318,74.11903,-1,0,0,0,0,13.92941,-4.71998,60.66884,0,14.50929,-3.219229,-1,0,0,0,0,0,-1.79136,-16.95544,-4.429976,79.85032,0,-15.89213,-8.260388,-1,0,0,0,0,0,-10,53.70541,-19.74574,0,148.0024,-64.54778,1,0,0,0,0,0,0,69,0,0,119,2,209

5.468792,28.65034,-0.4161477,-1.837646,48.70326,1,0,0,0,0,13.32465,-5.813951,58.23279,0,13.32465,-4.71998,-1,0,0,0,0,0,-4.92362,-16.78158,-1.421437,88.48392,0,-16.78158,-4.429976,-1,0,0,0,0,0,-10,59.0741,-19.20894,0,153.7054,-64.77391,1,0,0,0,0,0,0,69,0,0,120,2,209

12.13474,10.50414,-0.6080197,5.468792,28.65034,1,0,0,0,0,13.11536,-6.860924,56.23188,0,13.11536,-5.813951,-1,0,0,0,0,0,-7.017796,-16.95251,1.73648,90.2859,0,-16.95251,-1.421437,-1,0,0,0,0,0,-10,66.83784,-17.87704,0,159.0741,-63.01302,1,0,0,0,0,0,0,69,0,0,121,2,209

15.3709,-14.27851,-1.63027,12.13474,10.50414,1,0,0,0,0,12.27885,-7.173533,56.89884,0,13.11536,-6.860924,-1,0,0,0,0,0,-8.964119,-16.90322,2.924221,88.23898,0,-16.95251,1.73648,-1,0,0,0,0,0,-10,71.61456,-16.87482,0,166.8378,-58.64385,1,0,0,0,0,0,0,69,0,0,122,2,209

18.30973,-44.81918,-3.398997,15.3709,-14.27851,1,0,0,0,0,10.81666,-7.283192,60.05987,0,12.27885,-7.173533,-1,0,0,0,0,0,-9.787009,-16.86264,3.606494,84.71702,0,-16.90322,2.924221,-1,0,0,0,0,0,-10,76.11998,-15.87367,0,171.6146,-55.35616,1,0,0,0,0,0,0,69,0,0,123,2,209

22.20489,-103.59,-6.672011,18.30973,-44.81918,1,0,0,0,0,10.52379,-7.272515,70.52509,0,10.52379,-7.283192,-1,0,0,0,0,0,-10,-16.95534,4.139045,77.35028,0,-16.95534,3.606494,-1,0,0,0,0,0,-10,82.21629,-14.46661,0,176.12,-52.072,1,0,0,0,0,0,0,69,0,0,124,2,209

7.732912,-151.5548,-7.986609,22.20489,-103.59,1,0,0,0,0,9.919029,-7.568547,87.89764,0,9.919029,-7.272515,-1,0,0,0,0,0,-10,-16.78148,4.457023,50.71676,0,-16.78148,4.139045,-1,0,0,0,0,0,-10,87.54955,-13.25955,0,182.2163,-47.45627,1,0,0,0,0,0,0,69,0,0,125,2,209

216.2019,-138.095,-9.274021,7.732912,-151.5548,-1,0,0,0,0,9.198921,-8.279073,80.02425,0,9.919029,-7.568547,-1,0,0,0,0,0,-10,-15.91803,4.472674,-114.2387,0,-16.78148,4.457023,-1,0,0,0,0,0,-10,90.7981,-12.50669,0,187.5496,-43.49664,1,0,0,0,0,0,0,69,0,0,126,2,209

214.4964,-106.2948,-10.95049,-143.7981,-138.095,-1,0,0,0,0,8.738876,-9.472684,69.61552,0,9.198921,-8.279073,-1,0,0,0,0,0,-10,-15.85427,4.30967,-126.9462,0,-15.91803,4.472674,1,0,0,0,0,0,-10,93.88405,-11.60574,0,190.7981,-41.02694,1,0,0,0,0,0,0,69,0,0,127,2,209

208.2782,13.28754,0,-145.5036,-106.2948,-1,0,0,0,0,7.840366,-11.9306,60.9052,0,7.840366,-9.472684,-1,0,0,0,0,0,-10,-14.8112,3.274603,-153.4327,0,-14.8112,4.30967,1,0,0,0,0,0,-9.060176,98.06123,-9.602288,0,193.884,-38.07147,1,0,0,0,0,0,0,69,0,0,128,2,209

191.9232,111.8714,0,-151.7218,13.28754,-1,0,0,0,0,6.690052,-13.21739,59.21979,0,6.690052,-11.9306,-1,0,0,0,0,0,-10,-15.03718,2.442888,-179.1391,0,-15.03718,3.274603,1,0,0,0,0,0,-10,100.3647,-8.103697,0,198.0612,-31.49935,1,0,0,0,0,0,0,69,0,0,129,2,209

151.4386,266.0845,0,-168.0768,111.8714,-1,0,0,0,0,5.808628,-14.72817,46.51209,0,6.690052,-13.21739,-1,0,0,0,0,0,-10,-14.8952,0.8364406,137.8087,0,-15.03718,2.442888,1,0,0,0,0,0,-10,103.0692,-5.88293,0,200.3647,-26.58337,1,0,0,0,0,0,0,69,0,0,130,2,209

139.7932,307.2588,32.8717,151.4386,266.0845,1,0,0,0,0,3.488995,-15.11231,36.80738,0,5.808628,-14.72817,-1,0,0,0,0,0,-10,-14.98789,0.3830026,127.9476,0,-14.8952,0.8364406,-1,0,0,0,0,0,-10,103.8006,-5.223893,0,203.0692,-19.29836,1,0,0,0,0,0,0,69,0,0,131,2,209

121.8375,351.3279,0,139.7932,307.2588,1,0,0,0,0,2.824642,-15.79361,10.63929,0,2.824642,-15.11231,-1,0,0,0,0,0,-10,-15.01107,-0.1979432,118.3762,0,-15.01107,0.3830026,-1,0,0,0,0,0,-10,105.0439,-3.840276,0,203.8006,-17.13646,1,0,0,0,0,0,0,69,0,0,132,2,209

114.7545,332.7399,0,121.8375,351.3279,1,0,0,0,0,1.750137,-15.9291,-3.229384,0,1.750137,-15.79361,-0.639818,0,0,0,0,0,-10,-14.97919,-0.2728984,116.3447,0,-14.97919,-0.1979432,-1,0,0,0,0,0,-10,105.5385,-3.220551,0,205.0439,-12.59764,1,0,0,0,0,0,0,69,0,0,133,2,209

93.15019,273.5373,0,114.7545,332.7399,1,0,0,0,0,0.9298363,-15.68987,-40.78842,0,1.750137,-15.9291,-0.2098891,0,0,0,0,0,-10,-14.86909,-0.2277326,117.6856,0,-14.97919,-0.2728984,-1,0,0,0,0,0,-10,106.4285,-1.21839,0,205.5385,-10.5647,1,0,0,0,0,0,0,69,0,0,134,2,209

72.66563,230.925,0,93.15019,273.5373,1,0,0,0,0,-1.75005,-15.23729,-58.74815,0,0.9298363,-15.68987,0.954441,0,0,0,0,0,-10,-14.91543,-0.2272473,127.8722,0,-14.86909,-0.2277326,-1,0,0,0,0,0,-10,106.5672,-0.168966,0,206.4285,-3.996805,1,0,0,0,0,0,0,69,0,0,135,2,209

21.64421,158.8652,0,72.66563,230.925,1,0,0,0,0,-3.162346,-14.49549,-70.88874,0,-3.162346,-15.23729,1,0,0,0,0,0,-10,-14.88356,-0.2494214,164.8236,0,-14.88356,-0.2272473,-1,0,0,0,0,0,-10,106.2984,1.044846,0,206.5672,-0.554276,1,0,0,0,0,0,0,69,0,0,136,2,209

351.3141,97.32134,0,21.64421,158.8652,1,0,0,0,0,-4.756493,-13.99884,-71.66019,0,-4.756493,-14.49549,1,0,0,0,0,0,-10,-14.98496,-0.29267,-174.0928,0,-14.98496,-0.2494214,-1,0,0,0,0,0,-10,105.8936,1.623605,0,206.2984,3.427513,1,0,0,0,0,0,0,69,0,0,137,2,209

337.3304,30.25845,-6.756009,-8.685883,97.32134,-1,0,0,0,0,-6.180023,-13.56413,-72.72706,0,-4.756493,-13.99884,1,0,0,0,0,0,-10,-14.9299,-0.3666579,-168.6064,0,-14.98496,-0.29267,1,0,0,0,0,0,-10,105.2999,2.3307,0,205.8936,5.326073,1,0,0,0,0,0,0,69,0,0,138,2,209

344.5674,-34.91751,-6.76064,-22.66965,30.25845,-1,0,0,0,0,-7.447613,-13.2061,-78.88705,0,-6.180023,-13.56413,1,0,0,0,0,0,-10,-15.00813,-0.3615339,171.6221,0,-14.9299,-0.3666579,1,0,0,0,0,0,-10,104.0792,3.353509,0,205.2999,7.645628,1,0,0,0,0,0,0,69,0,0,139,2,209

313.2187,63.18981,0,-15.43265,-34.91751,-1,0,0,0,0,-8.87114,-13.12518,-85.571,0,-8.87114,-13.2061,1,0,0,0,0,0,-10,-14.95308,-0.01845155,-168.0482,0,-14.95308,-0.3615339,-1,0,0,0,0,0,-10,103.0349,3.995296,0,204.0792,11.00085,1,0,0,0,0,0,0,69,0,0,140,2,209

213.0103,192.2574,0,-46.78134,63.18981,-1,0,0,0,0,-9.474369,-13.22814,-69.10724,0,-9.474369,-13.12518,1,0,0,0,0,0,-10,-15.00813,0.7637221,-71.47109,0,-15.00813,-0.01845155,1,0,0,0,0,0,-10,101.1912,4.913138,0,203.0349,13.10617,1,0,0,0,0,0,0,69,0,0,141,2,209

207.9817,250.0149,0,-146.9897,192.2574,-1,0,0,0,0,-11.50113,-13.55727,-47.99798,0,-9.474369,-13.22814,1,0,0,0,0,0,-10,-15.00813,1.519749,-73.94891,0,-15.00813,0.7637221,1,0,0,0,0,0,-10,99.76341,5.586984,0,201.1912,16.11706,1,0,0,0,0,0,0,69,0,0,142,2,209

203.657,289.2959,0,-152.0183,250.0149,-1,0,0,0,0,-12.92466,-14.1004,-24.00441,0,-11.50113,-13.55727,1,0,0,0,0,0,-10,-14.95308,2.17784,-79.08636,0,-15.00813,1.519749,1,0,0,0,0,0,-10,98.21017,6.07091,0,199.7634,18.32754,1,0,0,0,0,0,0,69,0,0,143,2,209

197.2248,304.1875,0,-156.343,289.2959,-1,0,0,0,0,-13.27368,-14.73283,3.91212,0,-13.27368,-14.1004,0.4341367,0,0,0,0,0,-10,-14.9299,3.089531,-82.50415,0,-14.9299,2.17784,1,0,0,0,0,0,-10,96.40362,6.463492,0,198.2102,19.91501,1,0,0,0,0,0,0,69,0,0,144,2,209

185.4669,283.6533,0,-162.7752,304.1875,-1,0,0,0,0,-15.38988,-15.14302,32.06641,0,-15.38988,-14.73283,-0.4312757,0,0,0,0,0,-10,-13.97376,4.36624,-86.96008,0,-13.97376,3.089531,1,0,0,0,0,0,-10,94.37925,6.790836,0,196.4036,21.20284,1,0,0,0,0,0,0,69,0,0,145,2,209

159.82,238.8158,0,-174.5331,283.6533,-1,0,0,0,0,-16.07669,-15.08802,54.71514,0,-15.38988,-15.14302,-1,0,0,0,0,0,-10,-13.95059,5.911147,-101.6075,0,-13.97376,4.36624,1,0,0,0,0,0,-7.696333,92.16231,7.280817,0,194.3792,22.27666,1,0,0,0,0,0,0,69,0,0,146,2,209

112.2989,189.0538,31.41808,159.82,238.8158,1,0,0,0,0,-18.44125,-14.61196,62.85784,0,-16.07669,-15.08802,-1,0,0,0,0,0,-10,-13.95059,7.501615,-136.4532,0,-13.95059,5.911147,1,0,0,0,0,0,-3.28121,89.80228,8.025657,0,192.1623,23.88399,1,0,0,0,0,0,0,69,0,0,147,2,209

63.18198,121.8354,0,112.2989,189.0538,1,0,0,0,0,-19.04689,-13.23548,49.09602,0,-19.04689,-14.61196,-1,0,0,0,0,0,-10,-12.81482,9.507023,-167.767,0,-12.81482,7.501615,1,0,0,0,0,0,2.86194,85.86378,9.786991,0,189.8023,26.32737,1,0,0,0,0,0,0,69,0,0,148,2,209

49.80577,76.17582,0,63.18198,121.8354,1,0,0,0,0,-20.69181,-12.05595,35.77448,0,-20.69181,-13.23548,-1,0,0,0,0,0,-10,-11.9456,10.26433,-168.4694,0,-11.9456,9.507023,1,0,0,0,0,0,9.798933,82.71941,11.32837,0,185.8638,32.10525,1,0,0,0,0,0,0,69,0,0,149,2,209

42.30913,31.15906,0,49.80577,76.17582,1,0,0,0,0,-22.05662,-10.77158,22.56698,0,-20.69181,-12.05595,-1,0,0,0,0,0,-10,-10.7316,10.54674,-162.3902,0,-11.9456,10.26433,1,0,0,0,0,0,10,78.99482,13.07086,0,182.7194,37.16159,1,0,0,0,0,0,0,69,0,0,150,2,209

39.75368,9.433569,0,42.30913,31.15906,1,0,0,0,0,-22.67349,-10.07746,16.09349,0,-22.05662,-10.77158,-1,0,0,0,0,0,-10,-9.572653,10.52593,-157.7981,0,-10.7316,10.54674,1,0,0,0,0,0,10,76.85606,14.02857,0,178.9948,42.87763,1,0,0,0,0,0,0,69,0,0,151,2,209

36.46489,-34.22305,0,39.75368,9.433569,1,0,0,0,0,-23.20436,-8.502673,3.547375,0,-23.20436,-10.07746,-0.8088983,0,0,0,0,0,-10,-9.682758,10.12333,-146.5625,0,-9.682758,10.52593,1,0,0,0,0,0,10,71.97144,16.13896,0,176.856,46.01932,1,0,0,0,0,0,0,69,0,0,152,2,209

35.82273,-80.85748,0,36.46489,-34.22305,1,0,0,0,0,-24.03139,-6.504604,-8.766734,0,-24.03139,-8.502673,-0.4199686,0,0,0,0,0,-10,-7.732826,9.126216,-133.6092,0,-7.732826,10.12333,1,0,0,0,0,0,10,66.24882,18.49225,0,171.9714,52.94224,1,0,0,0,0,0,0,69,0,0,153,2,209

36.71946,-102.8662,0,35.82273,-80.85748,1,0,0,0,0,-25.25149,-5.278131,-14.98025,0,-24.03139,-6.504604,-0.03823124,0,0,0,0,0,-10,-6.628931,8.359985,-126.8868,0,-7.732826,9.126216,1,0,0,0,0,0,10,63.06394,19.72176,0,166.2488,60.66198,1,0,0,0,0,0,0,69,0,0,154,2,209

40.76024,-142.6403,0,36.71946,-102.8662,1,0,0,0,0,-25.4558,-2.288265,-28.47641,0,-25.25149,-5.278131,0.1543878,0,0,0,0,0,-10,-6.715864,6.336299,-113.7278,0,-6.628931,8.359985,1,0,0,0,0,0,10,56.09027,21.99503,0,163.0639,64.69527,1,0,0,0,0,0,0,69,0,0,155,2,209

44.64835,-170.2688,0,40.76024,-142.6403,1,0,0,0,0,-25.11889,1.296445,-44.62641,0,-25.11889,-2.288265,0.5727688,0,0,0,0,0,-10,-5.753952,3.949081,-100.722,0,-5.753952,6.336299,1,0,0,0,0,0,9.703217,48.58589,23.58681,0,156.0903,72.1525,1,0,0,0,0,0,0,69,0,0,156,2,209

32.88795,-230.5699,0,44.64835,-170.2688,1,0,0,0,0,-25.20095,6.380136,-71.45068,0,-25.20095,1.296445,1,0,0,0,0,0,-4.872984,-5.90464,1.685245,-70.03389,0,-5.90464,3.949081,1,0,0,0,0,0,2.715809,38.09409,24.28576,0,148.5859,77.37417,1,0,0,0,0,0,0,69,0,0,157,2,209

314.9314,-226.554,0,32.88795,-230.5699,1,0,0,0,0,-25.545,9.336575,-77.49056,0,-25.20095,6.380136,1,0,0,0,0,0,4.577599,-5.79747,0.7997646,14.34356,0,-5.90464,1.685245,1,0,0,0,0,0,-3.705108,31.68149,24.25098,0,138.0941,79.66699,1,0,0,0,0,0,0,69,0,0,158,2,209

290.483,-132.5278,-3.268477,-45.0686,-226.554,-1,0,0,0,0,-24.10526,13.2398,-54.60312,0,-25.545,9.336575,1,0,0,0,0,0,9.974188,-5.791702,-0.009446759,52.55535,0,-5.79747,0.7997646,-1,0,0,0,0,0,-6.062593,21.84195,23.66367,0,131.6815,79.55292,1,0,0,0,0,0,0,69,0,0,159,2,209

299.2609,-60.03832,0,-69.51697,-132.5278,-1,0,0,0,0,-22.35019,15.61225,-41.89059,0,-22.35019,13.2398,1,0,0,0,0,0,10,-5.739585,0.07025254,52.5902,0,-5.739585,-0.009446759,-1,0,0,0,0,0,-8.274577,15.70973,22.84228,0,121.8419,77.6263,1,0,0,0,0,0,0,69,0,0,160,2,209

313.4443,31.36725,0,-60.73907,-60.03832,-1,0,0,0,0,-21.24825,18.76795,-33.07715,0,-21.24825,15.61225,1,0,0,0,0,0,10,-5.733818,0.7482427,37.5083,0,-5.733818,0.07025254,-1,0,0,0,0,0,-8.04024,9.970215,20.76261,0,115.7097,74.93181,1,0,0,0,0,0,0,69,0,0,161,2,209

342.3289,223.7678,0,-46.55573,31.36725,-1,0,0,0,0,-19.7137,22.58175,-22.83602,0,-21.24825,18.76795,1,0,0,0,0,0,10,-5.829453,0.9009195,-5.643479,0,-5.733818,0.7482427,-1,0,0,0,0,0,-6.117256,2.742543,15.58601,0,109.9702,68.10967,1,0,0,0,0,0,0,69,0,0,162,2,209

353.106,251.3252,0,-17.67111,223.7678,1,0,0,0,0,-17.27422,23.18712,-18.10424,0,-19.7137,22.58175,1,0,0,0,0,0,10,-4.609684,0.9571049,-15.44463,0,-5.829453,0.9009195,-0.01639131,0,0,0,0,0,-5.821646,0.7456031,14.43252,0,102.7425,51.12834,1,0,0,0,0,0,0,69,0,0,163,2,209

3.21983,249.3667,-3.45235,-6.894043,251.3252,1,0,0,0,0,-16.11268,23.68129,-12.52426,0,-16.11268,23.18712,0.8712314,0,0,0,0,0,10,-4.406878,1.038595,-21.41233,0,-4.406878,0.9571049,1,0,0,0,0,0,-3.618047,-1.156575,13.18099,0,100.7456,47.34445,1,0,0,0,0,0,0,69,0,0,164,2,209

3.21983,249.3667,-5.831226,3.21983,249.3667,1,0,0,0,0,-15.63018,23.68129,-12.52426,0,-15.63018,23.68129,0.698252,0,0,0,0,0,10,-4.516984,1.038595,-21.41233,0,-4.516984,1.038595,1,0,0,0,0,0,-3.545139,-1.156575,13.18099,0,98.84342,43.23891,1,0,0,0,0,0,0,69,0,0,165,2,209

3.21983,249.3667,-9.807791,3.21983,249.3667,1,0,0,0,0,-15.63018,23.68129,-12.52426,0,-15.63018,23.68129,0.698252,0,0,0,0,0,10,-4.516984,1.038595,-21.41233,0,-4.516984,1.038595,1,0,0,0,0,0,-3.545139,-1.156575,13.18099,0,98.84342,43.23891,1,0,0,0,0,0,0,69,0,0,166,2,209

3.21983,249.3667,-13.3867,3.21983,249.3667,1,0,0,0,0,-15.63018,23.68129,-12.52426,0,-15.63018,23.68129,0.698252,0,0,0,0,0,10,-4.516984,1.038595,-21.41233,0,-4.516984,1.038595,1,0,0,0,0,0,-3.545139,-1.156575,13.18099,0,98.84342,43.23891,1,0,0,0,0,0,0,69,0,0,167,2,209

3.21983,249.3667,-19.50663,3.21983,249.3667,1,0,0,0,0,-15.63018,23.68129,-12.52426,0,-15.63018,23.68129,0.698252,0,0,0,0,0,10,-4.516984,1.038595,-21.41233,0,-4.516984,1.038595,1,0,0,0,0,0,-3.545139,-1.156575,13.18099,0,98.84342,43.23891,1,0,0,0,0,0,0,69,0,0,168,2,209

3.21983,249.3667,-22.11565,3.21983,249.3667,1,0,0,0,0,-15.63018,23.68129,-12.52426,0,-15.63018,23.68129,0.698252,0,0,0,0,0,10,-4.516984,1.038595,-21.41233,0,-4.516984,1.038595,1,0,0,0,0,0,-3.545139,-1.156575,13.18099,0,98.84342,43.23891,1,0,0,0,0,0,0,69,0,0,169,2,209

3.21983,249.3667,-24.46378,3.21983,249.3667,1,0,0,0,0,-15.63018,23.68129,-12.52426,0,-15.63018,23.68129,0.698252,0,0,0,0,0,10,-4.516984,1.038595,-21.41233,0,-4.516984,1.038595,1,0,0,0,0,0,-3.545139,-1.156575,13.18099,0,98.84342,43.23891,1,0,0,0,0,0,0,69,0,0,170,2,209

3.21983,249.3667,-26.57709,3.21983,249.3667,1,0,0,0,0,-15.63018,23.68129,-12.52426,0,-15.63018,23.68129,0.698252,0,0,0,0,0,10,-4.516984,1.038595,-21.41233,0,-4.516984,1.038595,1,0,0,0,0,0,-3.545139,-1.156575,13.18099,0,98.84342,43.23891,1,0,0,0,0,0,0,69,0,0,171,2,209

3.21983,249.3667,-30.19084,3.21983,249.3667,1,0,0,0,0,-15.63018,23.68129,-12.52426,0,-15.63018,23.68129,0.698252,0,0,0,0,0,10,-4.516984,1.038595,-21.41233,0,-4.516984,1.038595,1,0,0,0,0,0,-3.545139,-1.156575,13.18099,0,98.84342,43.23891,1,0,0,0,0,0,0,69,0,0,172,2,209

3.21983,249.3667,-31.73145,3.21983,249.3667,1,0,0,0,0,-15.63018,23.68129,-12.52426,0,-15.63018,23.68129,0.698252,0,0,0,0,0,10,-4.516984,1.038595,-21.41233,0,-4.516984,1.038595,1,0,0,0,0,0,-3.545139,-1.156575,13.18099,0,98.84342,43.23891,1,0,0,0,0,0,0,69,0,0,173,2,209

3.21983,249.3667,-33.11799,3.21983,249.3667,1,0,0,0,0,-15.63018,23.68129,-12.52426,0,-15.63018,23.68129,0.698252,0,0,0,0,0,10,-4.516984,1.038595,-21.41233,0,-4.516984,1.038595,1,0,0,0,0,0,-3.545139,-1.156575,13.18099,0,98.84342,43.23891,1,0,0,0,0,0,0,69,0,0,174,2,209

3.21983,249.3667,-34.36588,3.21983,249.3667,1,0,0,0,0,-15.63018,23.68129,-12.52426,0,-15.63018,23.68129,0.698252,0,0,0,0,0,10,-4.516984,1.038595,-21.41233,0,-4.516984,1.038595,1,0,0,0,0,0,-3.545139,-1.156575,13.18099,0,98.84342,43.23891,1,0,0,0,0,0,0,69,0,0,175,2,209

3.21983,249.3667,-36.49977,3.21983,249.3667,1,0,0,0,0,-15.63018,23.68129,-12.52426,0,-15.63018,23.68129,0.698252,0,0,0,0,0,10,-4.516984,1.038595,-21.41233,0,-4.516984,1.038595,1,0,0,0,0,0,-3.545139,-1.156575,13.18099,0,98.84342,43.23891,1,0,0,0,0,0,0,69,0,0,176,2,209

3.21983,249.3667,-37.40948,3.21983,249.3667,1,0,0,0,0,-15.63018,23.68129,-12.52426,0,-15.63018,23.68129,0.698252,0,0,0,0,0,10,-4.516984,1.038595,-21.41233,0,-4.516984,1.038595,1,0,0,0,0,0,-3.545139,-1.156575,13.18099,0,98.84342,43.23891,1,0,0,0,0,0,0,69,0,0,177,2,209

3.21983,249.3667,-38.22822,3.21983,249.3667,1,0,0,0,0,-15.63018,23.68129,-12.52426,0,-15.63018,23.68129,0.698252,0,0,0,0,0,10,-4.516984,1.038595,-21.41233,0,-4.516984,1.038595,1,0,0,0,0,0,-3.545139,-1.156575,13.18099,0,98.84342,43.23891,1,0,0,0,0,0,0,69,0,0,178,2,209

3.21983,249.3667,-38.96509,3.21983,249.3667,1,0,0,0,0,-15.63018,23.68129,-12.52426,0,-15.63018,23.68129,0.698252,0,0,0,0,0,10,-4.516984,1.038595,-21.41233,0,-4.516984,1.038595,1,0,0,0,0,0,-3.545139,-1.156575,13.18099,0,98.84342,43.23891,1,0,0,0,0,0,0,69,0,0,179,2,209

3.21983,249.3667,-40.22513,3.21983,249.3667,1,0,0,0,0,-15.63018,23.68129,-12.52426,0,-15.63018,23.68129,0.698252,0,0,0,0,0,10,-4.516984,1.038595,-21.41233,0,-4.516984,1.038595,1,0,0,0,0,0,-3.545139,-1.156575,13.18099,0,98.84342,43.23891,1,0,0,0,0,0,0,69,0,0,180,2,209

3.21983,249.3667,-40.76231,3.21983,249.3667,1,0,0,0,0,-15.63018,23.68129,-12.52426,0,-15.63018,23.68129,0.698252,0,0,0,0,0,10,-4.516984,1.038595,-21.41233,0,-4.516984,1.038595,1,0,0,0,0,0,-3.545139,-1.156575,13.18099,0,98.84342,43.23891,1,0,0,0,0,0,0,69,0,0,181,2,209

3.21983,249.3667,-41.24577,3.21983,249.3667,1,0,0,0,0,-15.63018,23.68129,-12.52426,0,-15.63018,23.68129,0.698252,0,0,0,0,0,10,-4.516984,1.038595,-21.41233,0,-4.516984,1.038595,1,0,0,0,0,0,-3.545139,-1.156575,13.18099,0,98.84342,43.23891,1,0,0,0,0,0,0,69,0,0,182,2,209

3.21983,249.3667,-41.68088,3.21983,249.3667,1,0,0,0,0,-15.63018,23.68129,-12.52426,0,-15.63018,23.68129,0.698252,0,0,0,0,0,10,-4.516984,1.038595,-21.41233,0,-4.516984,1.038595,1,0,0,0,0,0,-3.545139,-1.156575,13.18099,0,98.84342,43.23891,1,0,0,0,0,0,0,69,0,0,183,2,209

3.21983,249.3667,-42.42492,3.21983,249.3667,1,0,0,0,0,-15.63018,23.68129,-12.52426,0,-15.63018,23.68129,0.698252,0,0,0,0,0,10,-4.516984,1.038595,-21.41233,0,-4.516984,1.038595,1,0,0,0,0,0,-3.545139,-1.156575,13.18099,0,98.84342,43.23891,1,0,0,0,0,0,0,69,0,0,184,2,209

3.21983,249.3667,-42.74212,3.21983,249.3667,1,0,0,0,0,-15.63018,23.68129,-12.52426,0,-15.63018,23.68129,0.698252,0,0,0,0,0,10,-4.516984,1.038595,-21.41233,0,-4.516984,1.038595,1,0,0,0,0,0,-3.545139,-1.156575,13.18099,0,98.84342,43.23891,1,0,0,0,0,0,0,69,0,0,185,2,209

3.21983,249.3667,-43.02759,3.21983,249.3667,1,0,0,0,0,-15.63018,23.68129,-12.52426,0,-15.63018,23.68129,0.698252,0,0,0,0,0,10,-4.516984,1.038595,-21.41233,0,-4.516984,1.038595,1,0,0,0,0,0,-3.545139,-1.156575,13.18099,0,98.84342,43.23891,1,0,0,0,0,0,0,69,0,0,186,2,209

3.21983,249.3667,-43.28452,3.21983,249.3667,1,0,0,0,0,-15.63018,23.68129,-12.52426,0,-15.63018,23.68129,0.698252,0,0,0,0,0,10,-4.516984,1.038595,-21.41233,0,-4.516984,1.038595,1,0,0,0,0,0,-3.545139,-1.156575,13.18099,0,98.84342,43.23891,1,0,0,0,0,0,0,69,0,0,187,2,209

3.21983,249.3667,-43.72387,3.21983,249.3667,1,0,0,0,0,-15.63018,23.68129,-12.52426,0,-15.63018,23.68129,0.698252,0,0,0,0,0,10,-4.516984,1.038595,-21.41233,0,-4.516984,1.038595,1,0,0,0,0,0,-3.545139,-1.156575,13.18099,0,98.84342,43.23891,1,0,0,0,0,0,0,69,0,0,188,2,209

3.21983,249.3667,-43.91117,3.21983,249.3667,1,0,0,0,0,-15.63018,23.68129,-12.52426,0,-15.63018,23.68129,0.698252,0,0,0,0,0,10,-4.516984,1.038595,-21.41233,0,-4.516984,1.038595,1,0,0,0,0,0,-3.545139,-1.156575,13.18099,0,98.84342,43.23891,1,0,0,0,0,0,0,69,0,0,189,2,209

3.21983,249.3667,-44.07974,3.21983,249.3667,1,0,0,0,0,-15.63018,23.68129,-12.52426,0,-15.63018,23.68129,0.698252,0,0,0,0,0,10,-4.516984,1.038595,-21.41233,0,-4.516984,1.038595,1,0,0,0,0,0,-3.545139,-1.156575,13.18099,0,98.84342,43.23891,1,0,0,0,0,0,0,69,0,0,190,2,209

3.21983,249.3667,-44.23146,3.21983,249.3667,1,0,0,0,0,-15.63018,23.68129,-12.52426,0,-15.63018,23.68129,0.698252,0,0,0,0,0,10,-4.516984,1.038595,-21.41233,0,-4.516984,1.038595,1,0,0,0,0,0,-3.545139,-1.156575,13.18099,0,98.84342,43.23891,1,0,0,0,0,0,0,69,0,0,191,2,209

3.21983,249.3667,-44.49089,3.21983,249.3667,1,0,0,0,0,-15.63018,23.68129,-12.52426,0,-15.63018,23.68129,0.698252,0,0,0,0,0,10,-4.516984,1.038595,-21.41233,0,-4.516984,1.038595,1,0,0,0,0,0,-3.545139,-1.156575,13.18099,0,98.84342,43.23891,1,0,0,0,0,0,0,69,0,0,192,2,209

3.21983,249.3667,-44.60149,3.21983,249.3667,1,0,0,0,0,-15.63018,23.68129,-12.52426,0,-15.63018,23.68129,0.698252,0,0,0,0,0,10,-4.516984,1.038595,-21.41233,0,-4.516984,1.038595,1,0,0,0,0,0,-3.545139,-1.156575,13.18099,0,98.84342,43.23891,1,0,0,0,0,0,0,69,0,0,193,2,209

3.21983,249.3667,-44.70103,3.21983,249.3667,1,0,0,0,0,-15.63018,23.68129,-12.52426,0,-15.63018,23.68129,0.698252,0,0,0,0,0,10,-4.516984,1.038595,-21.41233,0,-4.516984,1.038595,1,0,0,0,0,0,-3.545139,-1.156575,13.18099,0,98.84342,43.23891,1,0,0,0,0,0,0,69,0,0,194,2,209

0,0,-44.79062,3.21983,249.3667,1,0,0,0,0,-15.63018,0,0,0,-15.63018,23.68129,0.698252,0,0,0,0,0,10,-4.516984,0,0,0,-4.516984,1.038595,1,0,0,0,0,0,-3.545139,0,0,0,98.84342,43.23891,1,0,0,0,0,0,0,69,0,0,195,2,209

153.7384,-30.0064,-40.55656,0,0,-1,0,0,0,0,-1.100415,0.08449163,1.618145,0,-1.100415,0,-0.1400308,0,0,0,0,0,-0.31802,-0.2346839,-0.1477541,0.9215864,0,-0.2346839,0,-0.5971634,0,0,0,0,0,-0.3372408,0.499419,-3.203539,0,100,0,1,0,0,0,0,0,0,69,0,0,196,2,209

151.4301,-48.03942,-32.75745,153.7384,-30.0064,1,0,0,0,0,-0.762622,0.1660983,2.586474,0,-0.762622,0.08449163,-0.05212567,0,0,0,0,0,-0.06332783,-0.2346839,-0.3330359,2.677393,0,-0.2346839,-0.1477541,-0.154367,0,0,0,0,0,-0.7563158,1.100854,-3.805556,0,100.4994,-10.50889,1,0,0,0,0,0,0,69,0,0,197,2,209

148.3771,-63.75669,-53.49414,151.4301,-48.03942,1,0,0,0,0,-1.016829,0.2478401,4.14677,0,-0.762622,0.1660983,-0.07744095,0,0,0,0,0,0.08837892,-0.3129119,-0.5311992,5.255402,0,-0.2346839,-0.3330359,-0.3642486,0,0,0,0,0,-1.281831,1.782651,-4.269858,0,101.1009,-12.48375,1,0,0,0,0,0,0,69,0,0,198,2,209

147.0957,-28.49258,-71.50735,148.3771,-63.75669,1,0,0,0,0,-0.7513921,0.3169566,5.64905,0,-1.016829,0.2478401,-0.1233769,0,0,0,0,0,0.1668711,-0.2578588,-0.3892948,6.511678,0,-0.3129119,-0.5311992,-0.6634761,0,0,0,0,0,-1.956295,2.528215,-4.631346,0,101.7827,-14.00684,1,0,0,0,0,0,0,69,0,0,199,2,209

141.998,-62.03183,-101.1525,147.0957,-28.49258,1,0,0,0,0,-0.9220138,0.3884089,9.150614,0,-0.9220138,0.3169566,-0.1635864,0,0,0,0,0,0.3227603,-0.4143147,-0.6991233,7.474174,0,-0.4143147,-0.3892948,-0.7347468,0,0,0,0,0,-1.699527,4.127473,-5.001035,0,102.5282,-15.19267,1,0,0,0,0,0,0,69,0,0,200,2,209

138.472,-73.64836,-114.0836,141.998,-62.03183,1,0,0,0,0,-0.9107838,0.4481773,11.04546,0,-0.9107838,0.3884089,-0.2694451,0,0,0,0,0,0.4588356,-0.4374895,-0.8099,6.652918,0,-0.4374895,-0.6991233,-0.9278908,0,0,0,0,0,-2.611596,4.958784,-5.098129,0,104.1275,-16.4054,1,0,0,0,0,0,0,69,0,0,201,2,209

134.4296,-82.54092,-124.3107,138.472,-73.64836,1,0,0,0,0,-1.064319,0.5199565,12.92739,0,-0.9107838,0.4481773,-0.3247408,0,0,0,0,0,0.5699451,-1.495035,-0.9119011,4.870366,0,-0.4374895,-0.8099,-0.8812413,0,0,0,0,0,-2.925792,5.803126,-5.167179,0,104.9588,-16.7239,1,0,0,0,0,0,0,69,0,0,202,2,209

129.9597,-88.87953,-132.7717,134.4296,-82.54092,1,0,0,0,0,-0.715296,0.6048084,14.67192,0,-1.064319,0.5199565,-0.3803196,0,0,0,0,0,0.6590109,-1.51821,-0.9911563,2.131873,0,-1.495035,-0.9119011,-0.8836743,0,0,0,0,0,-4.734791,6.657613,-5.219692,0,105.8031,-16.95041,1,0,0,0,0,0,0,69,0,0,203,2,209

125.1572,-92.90125,-144.8219,129.9597,-88.87953,1,0,0,0,0,-0.3775029,0.7122456,16.18216,0,-0.3775029,0.6048084,-0.4263833,0,0,0,0,0,1.01524,-1.51821,-1.05168,-1.47363,0,-1.51821,-0.9911563,-0.6554777,0,0,0,0,0,-4.992885,7.519809,-5.259655,0,106.6576,-17.12268,1,0,0,0,0,0,0,69,0,0,204,2,209

114.9803,-94.83696,-149.6381,125.1572,-92.90125,1,0,0,0,0,-0.704066,1.025099,18.25147,0,-0.704066,0.7122456,-0.4669086,0,0,0,0,0,1.120589,-1.541385,-1.107312,-10.90387,0,-1.541385,-1.05168,-0.3426281,0,0,0,0,0,-5.197849,9.259549,-5.310304,0,107.5198,-17.25377,1,0,0,0,0,0,0,69,0,0,205,2,209

109.848,-93.02825,-153.2732,114.9803,-94.83696,1,0,0,0,0,-0.5109849,1.22653,18.70085,0,-0.704066,1.025099,-0.5130278,0,0,0,0,0,1.702183,-1.431278,-1.109417,-16.35652,0,-1.541385,-1.107312,0.5104371,0,0,0,0,0,-5.35564,10.13373,-5.321288,0,109.2596,-17.41992,1,0,0,0,0,0,0,69,0,0,206,2,209

104.862,-89.52586,-154.7611,109.848,-93.02825,1,0,0,0,0,-0.5833406,1.449936,18.75382,0,-0.5109849,1.22653,-0.5136207,0,0,0,0,0,2.132444,-1.376225,-1.108051,-21.78018,0,-1.431278,-1.109417,1,0,0,0,0,0,-5.203386,11.00848,-5.322457,0,110.1337,-17.45595,1,0,0,0,0,0,0,69,0,0,207,2,209

100.1215,-84.76682,-154.9355,104.862,-89.52586,1,0,0,0,0,-0.1619616,1.721475,18.47937,0,-0.1619616,1.449936,-0.5030363,0,0,0,0,0,2.648624,-1.454453,-1.08562,-27.13377,0,-1.454453,-1.108051,1,0,0,0,0,0,-5.232815,11.87997,-5.300349,0,111.0085,-17.45979,1,0,0,0,0,0,0,69,0,0,208,2,209

91.67522,-72.22491,-154.7197,100.1215,-84.76682,1,0,0,0,0,-0.742732,2.228246,17.26626,0,-0.742732,1.721475,-0.4803077,0,0,0,0,0,2.985573,-1.555856,-1.104961,-34.64283,0,-1.555856,-1.08562,1,0,0,0,0,0,-5.314909,13.61025,-5.238372,0,111.88,-17.38727,1,0,0,0,0,0,0,69,0,0,209,2,209

84.53444,-60.40435,-153.9401,91.67522,-72.22491,1,0,0,0,0,-0.3213534,2.800553,15.89294,0,-0.742732,2.228246,-0.4134965,0,0,0,0,0,3.92766,-1.634084,-1.129604,-37.93003,0,-1.555856,-1.104961,1,0,0,0,0,0,-5.369766,15.29904,-5.092411,0,113.6103,-17.18396,1,0,0,0,0,0,0,69,0,0,210,2,209

81.3692,-55.39434,-152.0654,84.53444,-60.40435,-1,0,0,0,0,0.2095213,3.077445,15.27098,0,-0.3213534,2.800553,-0.3341672,0,0,0,0,0,5.113357,-1.523978,-1.162147,-38.31315,0,-1.634084,-1.129604,1,0,0,0,0,0,-5.552074,16.12305,-5.007072,0,115.299,-16.70514,1,0,0,0,0,0,0,69,0,0,211,2,209

75.56604,-48.80761,-146.756,81.3692,-55.39434,-1,0,0,0,0,0.293107,3.574254,14.24924,0,0.293107,3.077445,-0.2941733,0,0,0,0,0,5.805677,-1.602205,-1.279165,-37.05241,0,-1.602205,-1.162147,1,0,0,0,0,0,-5.598567,17.72912,-4.837531,0,116.123,-16.4252,1,0,0,0,0,0,0,69,0,0,212,2,209

74.58679,-3.897361,-144.4001,75.56604,-48.80761,-1,0,0,0,0,0.8963366,3.929024,15.16396,0,0.8963366,3.574254,-0.2277155,0,0,0,0,0,6.903579,-1.547152,-1.324669,-35.51953,0,-1.547152,-1.279165,1,0,0,0,0,0,-5.851353,18.49526,-4.653533,0,117.7291,-15.86904,1,0,0,0,0,0,0,69,0,0,213,2,209

78.29689,80.21734,-141.3418,74.58679,-3.897361,-1,0,0,0,0,1.161774,4.566802,20.70884,0,0.8963366,3.929024,-0.2356268,0,0,0,0,0,7.563097,-1.492099,-1.460156,-30.41941,0,-1.547152,-1.324669,1,0,0,0,0,0,-5.980416,19.94435,-4.324422,0,118.4953,-15.26545,1,0,0,0,0,0,0,69,0,0,214,2,209

82.91335,114.7594,-139.0624,78.29689,80.21734,1,0,0,0,0,1.173004,4.835963,24.81484,0,1.161774,4.566802,-0.3683856,0,0,0,0,0,8.825438,-1.515274,-1.562358,-26.40367,0,-1.492099,-1.460156,1,0,0,0,0,0,-6.285585,20.63443,-4.19313,0,119.9444,-14.18583,1,0,0,0,0,0,0,69,0,0,215,2,209

98.44794,172.3868,-139.951,82.91335,114.7594,1,0,0,0,0,2.258739,5.290426,33.80353,0,2.258739,4.835963,-0.4800595,0,0,0,0,0,9.642831,-1.570327,-1.844713,-13.60234,0,-1.570327,-1.562358,1,0,0,0,0,0,-6.687877,21.96315,-3.994667,0,120.6344,-13.75514,1,0,0,0,0,0,0,69,0,0,216,2,209

115.9671,136.8973,-140.6174,98.44794,172.3868,1,0,0,0,0,2.624849,5.366392,39.60326,0,2.624849,5.290426,-0.7379095,0,0,0,0,0,10,-2.494592,-2.484865,3.930687,0,-2.494592,-1.844713,0.4402617,0,0,0,0,0,-8.816889,23.25183,-3.895267,0,121.9632,-13.10411,1,0,0,0,0,0,0,69,0,0,217,2,209

124.0848,118.7911,-144.6065,115.9671,136.8973,1,0,0,0,0,2.636078,5.388829,41.10034,0,2.624849,5.366392,-0.9177011,0,0,0,0,0,10,-2.517766,-2.885091,13.35749,0,-2.494592,-2.484865,-1,0,0,0,0,0,-10,23.87674,-3.8134,0,123.2518,-12.77803,1,0,0,0,0,0,0,69,0,0,218,2,209

137.8435,83.77602,-150.6398,124.0848,118.7911,1,0,0,0,0,2.973871,5.412499,42.09176,0,2.636078,5.388829,-0.9641104,0,0,0,0,0,10,-2.517766,-3.789869,31.4505,0,-2.517766,-2.885091,-1,0,0,0,0,0,-10,25.05759,-3.533331,0,123.8767,-12.50948,1,0,0,0,0,0,0,69,0,0,219,2,209

147.2385,51.0001,-164.5394,137.8435,83.77602,1,0,0,0,0,3.98725,5.503289,41.59316,0,3.98725,5.412499,-0.9948446,0,0,0,0,0,10,-2.517766,-4.60117,42.47936,0,-2.517766,-3.789869,-1,0,0,0,0,0,-10,26.10694,-3.092197,0,125.0576,-11.59074,1,0,0,0,0,0,0,69,0,0,220,2,209

152.3681,26.5911,-171.1582,147.2385,51.0001,1,0,0,0,0,3.579509,5.57375,40.89366,0,3.579509,5.503289,-0.9793879,0,0,0,0,0,10,-3.653541,-5.452861,46.34027,0,-3.653541,-4.60117,-1,0,0,0,0,0,-10,26.9767,-2.53738,0,126.1069,-10.14364,1,0,0,0,0,0,0,69,0,0,221,2,209

