DateTime,MagYaw,YawVelocityDegreesPerSecond,YawIntegral,YawProportional,YawDerivativeError,YawControl,YawIntegralGain,YawDerivativeGain,YawProportionalGain,YawAntiWindupGain,XNEDBodyFrame,XVelocityMetersPerSecond,ThetaPitchDegrees,XIntegral,XProportional,XDerivativeError,LongitudeControl,XIntegralGain,XDerivativeGain,XProportionalGain,XAntiWindupGain,LongitudeInnerLoopGain,XLongitudeOuterLoopSetpoint,PitchAngularVelocityRadsPerSecond,PitchAngularVelocityGain,YNEDBodyFrame,YVelocityMetersPerSecond,PhiRollDegrees,YIntegral,YProportional,YDerivativeError,LateralControl,YIntegralGain,YDerivativeGain,YProportionalGain,YAntiWindupGain,LateralInnerLoopGain,YLateralOuterLoopSetpoint,RollAngularVelocityRadsPerSecond,RollAngularVelocityGain,AltitudeFeetAgl,ZVelocityMetersPerSecond,ZIntegral,ZProportional,ZDerivativeError,MainRotorCollectiveControl,ZIntegralGain,ZDerivativeGain,ZProportionalGain,ZAntiWindupGain,ZNEDBodyFrame,LatitudeDegrees,LongitudeDegrees,Timeouts,UnrecognizedMsgTypes,ChecksumErrors,NumOfBlownFrames,MessageType,NumOfBytesInMsg
11.48.13.805044, 95.95369,0,23.21589,95.95369,0,1,0,0,0,0,18.29506,0,-1.074574,0,18.29506,0,0.1972173,0,0,0,0,0,5.287274,0,0,-8.130149,0,0.4636721,0,-8.130149,0,-0.5026578,0,0,0,0,0,-5,0,0,0.09283614,-0.0002729231,0,99.13181,-0.0008952969,0.5,0,0,0,0,-0.8681965,0,0,3492,0,0,3671,2,229
11.48.13.854047, 95.95369,0,23.21589,95.95369,0,1,0,0,0,0,18.29506,0,-1.074574,0,18.29506,0,0.1972173,0,0,0,0,0,5.287274,0,0,-8.130149,0,0.4636721,0,-8.130149,0,-0.5026578,0,0,0,0,0,-5,0,0,0.09283614,-0.0002729231,0,99.13181,-0.0008952969,0.5,0,0,0,0,-0.8681965,0,0,3493,0,0,3672,2,229
11.48.13.899050, 95.95369,0,23.21589,95.95369,0,1,0,0,0,0,18.29506,0,-1.074574,0,18.29506,0,0.1972173,0,0,0,0,0,5.287274,0,0,-8.130149,0,0.4636721,0,-8.130149,0,-0.5026578,0,0,0,0,0,-5,0,0,0.09283614,-0.0002729231,0,99.13181,-0.0008952969,0.5,0,0,0,0,-0.8681965,0,0,3494,0,0,3673,2,229
11.48.13.942052, 95.95369,0,23.21589,95.95369,0,1,0,0,0,0,18.29506,0,-1.074574,0,18.29506,0,0.1972173,0,0,0,0,0,5.287274,0,0,-8.130149,0,0.4636721,0,-8.130149,0,-0.5026578,0,0,0,0,0,-5,0,0,0.09283614,-0.0002729231,0,99.13181,-0.0008952969,0.5,0,0,0,0,-0.8681965,0,0,3495,0,0,3674,2,229
11.48.13.989055, 95.95369,0,23.21589,95.95369,0,1,0,0,0,0,18.29506,0,-1.074574,0,18.29506,0,0.1972173,0,0,0,0,0,5.287274,0,0,-8.130149,0,0.4636721,0,-8.130149,0,-0.5026578,0,0,0,0,0,-5,0,0,0.09283614,-0.0002729231,0,99.13181,-0.0008952969,0.5,0,0,0,0,-0.8681965,0,0,3496,0,0,3675,2,229
11.48.14.036058, 95.95369,0,23.21589,95.95369,0,1,0,0,0,0,18.29506,0,-1.074574,0,18.29506,0,0.1972173,0,0,0,0,0,5.287274,0,0,-8.130149,0,0.4636721,0,-8.130149,0,-0.5026578,0,0,0,0,0,-5,0,0,0.09283614,-0.0002729231,0,99.13181,-0.0008952969,0.5,0,0,0,0,-0.8681965,0,0,3497,0,0,3676,2,229
11.48.14.073060, 122.2263,0,23.21589,95.95369,0,1,0,0,0,0,18.29506,0,-1.221164,0,18.29506,0,0.1972173,0,0,0,0,0,5.287274,0,0,-8.130149,0,0.2344346,0,-8.130149,0,-0.5026578,0,0,0,0,0,-5,0,0,0.09296848,6.977365E-05,0,99.13181,-0.0008952969,0.5,0,0,0,0,-0.8681965,0,0,3497,0,0,3677,2,229
11.48.14.117062, 122.2263,0,23.28157,122.2263,0,1,0,0,0,0,17.95727,0,-1.221164,0,17.95727,0,0.1987353,0,0,0,0,0,5.189651,0,0,-8.130149,0,0.2344346,0,-8.130149,0,-0.481568,0,0,0,0,0,-5,0,0,0.09296848,6.977365E-05,0,99.50044,0.0002288855,0.5,0,0,0,0,-0.4995556,0,0,3498,0,0,3678,2,229
11.48.14.164065, 122.2263,0,23.34174,122.2263,0,1,0,0,0,0,17.95727,0,-1.221164,0,17.95727,0,0.1987353,0,0,0,0,0,5.189651,0,0,-8.130149,0,0.2344346,0,-8.130149,0,-0.481568,0,0,0,0,0,-5,0,0,0.09296848,6.977365E-05,0,99.50044,0.0002288855,0.5,0,0,0,0,-0.4995556,0,0,3499,0,0,3679,2,229
11.48.14.213068, 122.2263,0,23.40131,122.2263,0,1,0,0,0,0,17.95727,0,-1.221164,0,17.95727,0,0.1987353,0,0,0,0,0,5.189651,0,0,-8.130149,0,0.2344346,0,-8.130149,0,-0.481568,0,0,0,0,0,-5,0,0,0.09296848,6.977365E-05,0,99.50044,0.0002288855,0.5,0,0,0,0,-0.4995556,0,0,3500,0,0,3680,2,229
11.48.14.262071, 122.2263,0,23.51867,122.2263,0,1,0,0,0,0,17.95727,0,-1.221164,0,17.95727,0,0.1987353,0,0,0,0,0,5.189651,0,0,-8.130149,0,0.2344346,0,-8.130149,0,-0.481568,0,0,0,0,0,-5,0,0,0.09296848,6.977365E-05,0,99.50044,0.0002288855,0.5,0,0,0,0,-0.4995556,0,0,3501,0,0,3681,2,229
11.48.14.350076, 122.2263,0,23.57648,122.2263,0,1,0,0,0,0,17.95727,0,-1.222285,0,17.95727,0,0.1987353,0,0,0,0,0,5.189651,0,0,-8.130149,0,0.2343386,0,-8.130149,0,-0.481568,0,0,0,0,0,-5,0,0,0.09295667,-0.00021985,0,99.50044,0.0002288855,0.5,0,0,0,0,-0.4995556,0,0,3501,0,0,3682,2,229
11.48.14.445081, 122.2263,0,23.6337,122.2263,0,1,0,0,0,0,17.95727,0,-1.222543,0,17.95727,0,0.19877,0,0,0,0,0,5.189651,0,0,-8.130149,0,0.2339769,0,-8.130149,0,-0.4815592,0,0,0,0,0,-5,0,0,0.09292108,0.0002225781,0,99.50044,-0.000721196,0.5,0,0,0,0,-0.4995556,0,0,3501,0,0,3683,2,229
11.48.14.547087, 122.2263,0,23.69035,122.2263,0,1,0,0,0,0,17.95727,0,-1.221638,0,17.95727,0,0.198778,0,0,0,0,0,5.189651,0,0,-8.130149,0,0.2341665,0,-8.130149,0,-0.4815259,0,0,0,0,0,-5,0,0,0.09295661,-0.0002155112,0,99.50044,0.0007301454,0.5,0,0,0,0,-0.4995556,0,0,3501,0,0,3684,2,229
11.48.14.647093, 122.2263,0,23.80196,122.2263,0,1,0,0,0,0,17.95727,0,-1.221766,0,17.95727,0,0.19875,0,0,0,0,0,5.189651,0,0,-8.130149,0,0.2346189,0,-8.130149,0,-0.4815433,0,0,0,0,0,-5,0,0,0.0929453,7.521924E-05,0,99.50044,-0.0007069631,0.5,0,0,0,0,-0.4995556,0,0,3501,0,0,3685,2,229
11.48.14.746098, 122.2263,0,23.85693,122.2263,0,1,0,0,0,0,17.95727,0,-1.221111,0,17.95727,0,0.1987539,0,0,0,0,0,5.189651,0,0,-8.130149,0,0.2343214,0,-8.130149,0,-0.481585,0,0,0,0,0,-5,0,0,0.09290714,0.0002315067,0,99.50044,0.0002467492,0.5,0,0,0,0,-0.4995556,0,0,3501,0,0,3686,2,229
11.48.14.846104, 122.2263,0,23.91135,122.2263,0,1,0,0,0,0,17.95727,0,-1.220986,0,17.95727,0,0.1987336,0,0,0,0,0,5.189651,0,0,-8.130149,0,0.2350768,0,-8.130149,0,-0.4815576,0,0,0,0,0,-5,0,0,0.09298133,7.302811E-05,0,99.50044,0.0007594347,0.5,0,0,0,0,-0.4995556,0,0,3501,0,0,3687,2,229
11.48.14.945110, 122.2263,0,23.96523,122.2263,0,1,0,0,0,0,17.95727,0,-1.221382,0,17.95727,0,0.1987298,0,0,0,0,0,5.189651,0,0,-8.130149,0,0.2348386,0,-8.130149,0,-0.4816271,0,0,0,0,0,-5,0,0,0.09294495,0.0002273505,0,99.50044,0.0002395614,0.5,0,0,0,0,-0.4995556,0,0,3501,0,0,3688,2,229
11.48.15.046115, 122.2263,0,24.07137,122.2263,0,1,0,0,0,0,17.95727,0,-1.220923,0,17.95727,0,0.198742,0,0,0,0,0,5.189651,0,0,-8.130149,0,0.2342444,0,-8.130149,0,-0.4816051,0,0,0,0,0,-5,0,0,0.09290648,0.0002333303,0,99.50044,0.0007458006,0.5,0,0,0,0,-0.4995556,0,0,3501,0,0,3689,2,229
11.48.15.145121, 122.2263,0,24.12364,122.2263,0,1,0,0,0,0,17.95727,0,-1.221105,0,17.95727,0,0.1987278,0,0,0,0,0,5.189651,0,0,-8.130149,0,0.2347832,0,-8.130149,0,-0.4815505,0,0,0,0,0,-5,0,0,0.09298071,7.293448E-05,0,99.50044,0.0007654167,0.5,0,0,0,0,-0.4995556,0,0,3501,0,0,3690,2,229
11.48.15.248127, 122.2263,0,24.17539,122.2263,0,1,0,0,0,0,17.95727,0,-1.221902,0,17.95727,0,0.1987335,0,0,0,0,0,5.189651,0,0,-8.130149,0,0.2353929,0,-8.130149,0,-0.4816,0,0,0,0,0,-5,0,0,0.09296898,7.781187E-05,0,99.50044,0.0002392543,0.5,0,0,0,0,-0.4995556,0,0,3501,0,0,3691,2,229
11.48.15.345133, 122.2263,0,24.22663,122.2263,0,1,0,0,0,0,17.95727,0,-1.22184,0,17.95727,0,0.1987582,0,0,0,0,0,5.189651,0,0,-8.130149,0,0.2352254,0,-8.130149,0,-0.4816562,0,0,0,0,0,-5,0,0,0.09293108,0.0002298816,0,99.50044,0.0002552541,0.5,0,0,0,0,-0.4995556,0,0,3501,0,0,3692,2,229
11.48.15.444138, 122.2263,0,24.32757,122.2263,0,1,0,0,0,0,17.95727,0,-1.222434,0,17.95727,0,0.1987562,0,0,0,0,0,5.189651,0,0,-8.130149,0,0.2346928,0,-8.130149,0,-0.4816407,0,0,0,0,0,-5,0,0,0.09289435,0.0002294388,0,99.50044,0.0007541035,0.5,0,0,0,0,-0.4995556,0,0,3501,0,0,3693,2,229
11.48.15.545144, 122.2263,0,24.37728,122.2263,0,1,0,0,0,0,17.95727,0,-1.222706,0,17.95727,0,0.1987747,0,0,0,0,0,5.189651,0,0,-8.130149,0,0.2339826,0,-8.130149,0,-0.4815917,0,0,0,0,0,-5,0,0,0.09294354,7.254183E-05,0,99.50044,0.0007526509,0.5,0,0,0,0,-0.4995556,0,0,3501,0,0,3694,2,229
11.48.15.644150, 122.2263,0,24.4265,122.2263,0,1,0,0,0,0,17.95727,0,-1.222293,0,17.95727,0,0.1987831,0,0,0,0,0,5.189651,0,0,-8.130149,0,0.2343489,0,-8.130149,0,-0.4815264,0,0,0,0,0,-5,0,0,0.09298092,0.0003806228,0,99.50044,0.0002379662,0.5,0,0,0,0,-0.4995556,0,0,3501,0,0,3695,2,229
11.48.15.748156, 122.2263,0,24.47522,122.2263,0,1,0,0,0,0,17.95727,0,-1.222777,0,17.95727,0,0.1987703,0,0,0,0,0,5.189651,0,0,-8.130149,0,0.2330997,0,-8.130149,0,-0.4815601,0,0,0,0,0,-5,0,0,0.09301738,-0.0002145324,0,99.50044,0.001248595,0.5,0,0,0,0,-0.4995556,0,0,3501,0,0,3696,2,229
11.48.15.844161, 122.2263,0,24.57121,122.2263,0,1,0,0,0,0,17.95727,0,-1.222677,0,17.95727,0,0.1987853,0,0,0,0,0,5.189651,0,0,-8.130149,0,0.2328299,0,-8.130149,0,-0.4814452,0,0,0,0,0,-5,0,0,0.09305375,-0.0002206308,0,99.50044,-0.0007037519,0.5,0,0,0,0,-0.4995556,0,0,3501,0,0,3697,2,229
11.48.15.948167, 122.2263,0,24.61849,122.2263,0,1,0,0,0,0,17.95727,0,-1.224001,0,17.95727,0,0.1987822,0,0,0,0,0,5.189651,0,0,-8.130149,0,0.2333419,0,-8.130149,0,-0.4814204,0,0,0,0,0,-5,0,0,0.09302853,-0.0002134163,0,99.50044,-0.0007237574,0.5,0,0,0,0,-0.4995556,0,0,3501,0,0,3698,2,229
11.48.16.046173, 122.2263,0,24.66529,122.2263,0,1,0,0,0,0,17.95727,0,-1.22367,0,17.95727,0,0.1988232,0,0,0,0,0,5.189651,0,0,-8.130149,0,0.2329164,0,-8.130149,0,-0.4814674,0,0,0,0,0,-5,0,0,0.09294266,0.0005275663,0,99.50044,-0.0007000908,0.5,0,0,0,0,-0.4995556,0,0,3501,0,0,3699,2,229
11.48.16.147178, 122.2263,0,24.71163,122.2263,0,1,0,0,0,0,17.95727,0,-1.224276,0,17.95727,0,0.198813,0,0,0,0,0,5.189651,0,0,-8.130149,0,0.2330095,0,-8.130149,0,-0.4814283,0,0,0,0,0,-5,0,0,0.09297758,-0.0002118095,0,99.50044,0.001730629,0.5,0,0,0,0,-0.4995556,0,0,3501,0,0,3700,2,229
11.48.16.245184, 122.2263,0,24.80292,122.2263,0,1,0,0,0,0,17.95727,0,-1.224059,0,17.95727,0,0.1988318,0,0,0,0,0,5.189651,0,0,-8.130149,0,0.2324431,0,-8.130149,0,-0.4814368,0,0,0,0,0,-5,0,0,0.09299037,-7.100333E-05,0,99.50044,-0.00069482,0.5,0,0,0,0,-0.4995556,0,0,3501,0,0,3701,2,229
11.48.16.343190, 122.2263,0,24.84788,122.2263,0,1,0,0,0,0,17.95727,0,-1.224356,0,17.95727,0,0.198825,0,0,0,0,0,5.189651,0,0,-8.130149,0,0.2331619,0,-8.130149,0,-0.4813848,0,0,0,0,0,-5,0,0,0.09296596,0.0005253158,0,99.50044,-0.0002329193,0.5,0,0,0,0,-0.4995556,0,0,3501,0,0,3702,2,229
11.48.16.455196, 122.2263,0,24.89239,122.2263,0,1,0,0,0,0,17.95727,0,-1.224877,0,17.95727,0,0.1988343,0,0,0,0,0,5.189651,0,0,-8.130149,0,0.2324835,0,-8.130149,0,-0.4814509,0,0,0,0,0,-5,0,0,0.09297626,-6.24582E-05,0,99.50044,0.001723246,0.5,0,0,0,0,-0.4995556,0,0,3501,0,0,3703,2,229
11.48.16.556202, 122.2263,0,24.93645,122.2263,0,1,0,0,0,0,17.95727,0,-1.224264,0,17.95727,0,0.1988504,0,0,0,0,0,5.189651,0,0,-8.130149,0,0.232432,0,-8.130149,0,-0.4813885,0,0,0,0,0,-5,0,0,0.09301313,-0.000217091,0,99.50044,-0.0002048879,0.5,0,0,0,0,-0.4995556,0,0,3501,0,0,3704,2,229
11.48.16.646207, 122.2263,0,25.02327,122.2263,0,1,0,0,0,0,17.95727,0,-1.224381,0,17.95727,0,0.1988314,0,0,0,0,0,5.189651,0,0,-8.130149,0,0.2335644,0,-8.130149,0,-0.4813837,0,0,0,0,0,-5,0,0,0.09307422,-0.0003706215,0,99.50044,-0.0007121454,0.5,0,0,0,0,-0.4995556,0,0,3501,0,0,3705,2,229
11.48.16.746213, 122.2263,0,25.06602,122.2263,0,1,0,0,0,0,17.95727,0,-1.224126,0,17.95727,0,0.198835,0,0,0,0,0,5.189651,0,0,-8.130149,0,0.2329126,0,-8.130149,0,-0.4814879,0,0,0,0,0,-5,0,0,0.09299839,-6.058674E-05,0,99.50044,-0.001215787,0.5,0,0,0,0,-0.4995556,0,0,3501,0,0,3706,2,229
11.48.16.846218, 122.2263,0,25.10835,122.2263,0,1,0,0,0,0,17.95727,0,-1.223539,0,17.95727,0,0.1988271,0,0,0,0,0,5.189651,0,0,-8.130149,0,0.2320279,0,-8.130149,0,-0.481428,0,0,0,0,0,-5,0,0,0.09301033,-6.587044E-05,0,99.50044,-0.0001987487,0.5,0,0,0,0,-0.4995556,0,0,3501,0,0,3707,2,229
11.48.16.945224, 122.2263,0,25.15026,122.2263,0,1,0,0,0,0,17.95727,0,-1.223379,0,17.95727,0,0.1988089,0,0,0,0,0,5.189651,0,0,-8.130149,0,0.2333579,0,-8.130149,0,-0.4813466,0,0,0,0,0,-5,0,0,0.09300964,0.0003786552,0,99.50044,-0.0002160814,0.5,0,0,0,0,-0.4995556,0,0,3501,0,0,3708,2,229
11.48.17.047230, 122.2263,0,25.23282,122.2263,0,1,0,0,0,0,17.95727,0,-1.224064,0,17.95727,0,0.1988039,0,0,0,0,0,5.189651,0,0,-8.130149,0,0.2339542,0,-8.130149,0,-0.4814689,0,0,0,0,0,-5,0,0,0.09304467,-0.0002125219,0,99.50044,0.00124214,0.5,0,0,0,0,-0.4995556,0,0,3501,0,0,3709,2,229
11.48.17.147236, 122.2263,0,25.27348,122.2263,0,1,0,0,0,0,17.95727,0,-1.224032,0,17.95727,0,0.1988252,0,0,0,0,0,5.189651,0,0,-8.130149,0,0.233684,0,-8.130149,0,-0.4815238,0,0,0,0,0,-5,0,0,0.09295866,0.0005283169,0,99.50044,-0.0006971567,0.5,0,0,0,0,-0.4995556,0,0,3501,0,0,3710,2,229
11.48.17.244241, 122.2263,0,25.31373,122.2263,0,1,0,0,0,0,17.95727,0,-1.224446,0,17.95727,0,0.1988242,0,0,0,0,0,5.189651,0,0,-8.130149,0,0.232088,0,-8.130149,0,-0.4814989,0,0,0,0,0,-5,0,0,0.09298085,-6.661005E-05,0,99.50044,0.001733091,0.5,0,0,0,0,-0.4995556,0,0,3501,0,0,3711,2,229
11.48.17.345247, 122.2263,0,25.35359,122.2263,0,1,0,0,0,0,17.95727,0,-1.224654,0,17.95727,0,0.198837,0,0,0,0,0,5.189651,0,0,-8.130149,0,0.2337053,0,-8.130149,0,-0.4813521,0,0,0,0,0,-5,0,0,0.09301695,-0.0002189902,0,99.50044,-0.0002185076,0.5,0,0,0,0,-0.4995556,0,0,3501,0,0,3712,2,229
11.48.17.444253, 122.2263,0,25.4321,122.2263,0,1,0,0,0,0,17.95727,0,-1.223863,0,17.95727,0,0.1988435,0,0,0,0,0,5.189651,0,0,-8.130149,0,0.2347856,0,-8.130149,0,-0.4815009,0,0,0,0,0,-5,0,0,0.09300448,8.242863E-05,0,99.50044,-0.0007183754,0.5,0,0,0,0,-0.4995556,0,0,3501,0,0,3713,2,229
11.48.17.548259, 122.2263,0,25.47077,122.2263,0,1,0,0,0,0,17.95727,0,-1.223573,0,17.95727,0,0.198819,0,0,0,0,0,5.189651,0,0,-8.130149,0,0.2357002,0,-8.130149,0,-0.4816003,0,0,0,0,0,-5,0,0,0.09299047,8.495746E-05,0,99.50044,0.0002703989,0.5,0,0,0,0,-0.4995556,0,0,3501,0,0,3714,2,229
11.48.17.646264, 122.2263,0,25.50905,122.2263,0,1,0,0,0,0,17.95727,0,-1.223241,0,17.95727,0,0.19881,0,0,0,0,0,5.189651,0,0,-8.130149,0,0.2343921,0,-8.130149,0,-0.4816844,0,0,0,0,0,-5,0,0,0.09303782,-0.0002143388,0,99.50044,0.0002786945,0.5,0,0,0,0,-0.4995556,0,0,3501,0,0,3715,2,229
11.48.17.747270, 122.2263,0,25.54695,122.2263,0,1,0,0,0,0,17.95727,0,-1.22312,0,17.95727,0,0.1987997,0,0,0,0,0,5.189651,0,0,-8.130149,0,0.2341859,0,-8.130149,0,-0.4815641,0,0,0,0,0,-5,0,0,0.09292706,0.0006784853,0,99.50044,-0.000703117,0.5,0,0,0,0,-0.4995556,0,0,3501,0,0,3716,2,229
11.48.17.845276, 122.2263,0,25.62162,122.2263,0,1,0,0,0,0,17.95727,0,-1.223346,0,17.95727,0,0.1987959,0,0,0,0,0,5.189651,0,0,-8.130149,0,0.2344705,0,-8.130149,0,-0.4815451,0,0,0,0,0,-5,0,0,0.0929119,9.195742E-05,0,99.50044,0.002225703,0.5,0,0,0,0,-0.4995556,0,0,3501,0,0,3717,2,229
11.48.17.944281, 122.2263,0,25.65839,122.2263,0,1,0,0,0,0,17.95727,0,-1.222101,0,17.95727,0,0.1988029,0,0,0,0,0,5.189651,0,0,-8.130149,0,0.2347848,0,-8.130149,0,-0.4815713,0,0,0,0,0,-5,0,0,0.09300871,-7.169761E-05,0,99.50044,0.0003016571,0.5,0,0,0,0,-0.4995556,0,0,3501,0,0,3718,2,229
11.48.18.045287, 122.2263,0,25.69479,122.2263,0,1,0,0,0,0,17.95727,0,-1.222557,0,17.95727,0,0.1987643,0,0,0,0,0,5.189651,0,0,-8.130149,0,0.2342082,0,-8.130149,0,-0.4816002,0,0,0,0,0,-5,0,0,0.09302101,-6.801845E-05,0,99.50044,-0.0002351968,0.5,0,0,0,0,-0.4995556,0,0,3501,0,0,3719,2,229
11.48.18.144293, 122.2263,0,25.73083,122.2263,0,1,0,0,0,0,17.95727,0,-1.222174,0,17.95727,0,0.1987785,0,0,0,0,0,5.189651,0,0,-8.130149,0,0.2334273,0,-8.130149,0,-0.4815471,0,0,0,0,0,-5,0,0,0.0930316,-6.41955E-05,0,99.50044,-0.0002231277,0.5,0,0,0,0,-0.4995556,0,0,3501,0,0,3720,2,229
11.48.18.246299, 122.2263,0,25.80184,122.2263,0,1,0,0,0,0,17.95727,0,-1.22258,0,17.95727,0,0.1987666,0,0,0,0,0,5.189651,0,0,-8.130149,0,0.234297,0,-8.130149,0,-0.4814753,0,0,0,0,0,-5,0,0,0.0929452,0.0005307931,0,99.50044,-0.0002105869,0.5,0,0,0,0,-0.4995556,0,0,3501,0,0,3721,2,229
11.48.18.344304, 122.2263,0,25.83681,122.2263,0,1,0,0,0,0,17.95727,0,-1.222501,0,17.95727,0,0.1987792,0,0,0,0,0,5.189651,0,0,-8.130149,0,0.23451,0,-8.130149,0,-0.4815553,0,0,0,0,0,-5,0,0,0.09299083,-0.0002155919,0,99.50044,0.001741214,0.5,0,0,0,0,-0.4995556,0,0,3501,0,0,3722,2,229
11.48.18.446310, 122.2263,0,25.87143,122.2263,0,1,0,0,0,0,17.95727,0,-1.222094,0,17.95727,0,0.1987767,0,0,0,0,0,5.189651,0,0,-8.130149,0,0.234164,0,-8.130149,0,-0.4815749,0,0,0,0,0,-5,0,0,0.09300166,-6.572701E-05,0,99.50044,-0.0007072277,0.5,0,0,0,0,-0.4995556,0,0,3501,0,0,3723,2,229
11.48.18.545316, 122.2263,0,25.90571,122.2263,0,1,0,0,0,0,17.95727,0,-1.222643,0,17.95727,0,0.1987641,0,0,0,0,0,5.189651,0,0,-8.130149,0,0.2343886,0,-8.130149,0,-0.4815431,0,0,0,0,0,-5,0,0,0.09303833,-0.0002157586,0,99.50044,-0.0002156109,0.5,0,0,0,0,-0.4995556,0,0,3501,0,0,3724,2,229
11.48.18.647321, 122.2263,0,25.97323,122.2263,0,1,0,0,0,0,17.95727,0,-1.222471,0,17.95727,0,0.1987811,0,0,0,0,0,5.189651,0,0,-8.130149,0,0.2339822,0,-8.130149,0,-0.4815638,0,0,0,0,0,-5,0,0,0.09295066,0.0005317904,0,99.50044,-0.0007077745,0.5,0,0,0,0,-0.4995556,0,0,3501,0,0,3725,2,229
11.48.18.746327, 122.2263,0,26.00649,122.2263,0,1,0,0,0,0,17.95727,0,-1.222757,0,17.95727,0,0.1987758,0,0,0,0,0,5.189651,0,0,-8.130149,0,0.2346301,0,-8.130149,0,-0.4815263,0,0,0,0,0,-5,0,0,0.09297223,8.309706E-05,0,99.50044,0.001744485,0.5,0,0,0,0,-0.4995556,0,0,3501,0,0,3726,2,229
11.48.18.844333, 122.2263,0,26.03941,122.2263,0,1,0,0,0,0,17.95727,0,-1.223028,0,17.95727,0,0.1987846,0,0,0,0,0,5.189651,0,0,-8.130149,0,0.2343542,0,-8.130149,0,-0.481586,0,0,0,0,0,-5,0,0,0.09298377,-6.338771E-05,0,99.50044,0.0002725916,0.5,0,0,0,0,-0.4995556,0,0,3501,0,0,3727,2,229
11.48.18.945338, 122.2263,0,26.07201,122.2263,0,1,0,0,0,0,17.95727,0,-1.222478,0,17.95727,0,0.1987931,0,0,0,0,0,5.189651,0,0,-8.130149,0,0.2337224,0,-8.130149,0,-0.4815606,0,0,0,0,0,-5,0,0,0.09299398,-6.191332E-05,0,99.50044,-0.000207937,0.5,0,0,0,0,-0.4995556,0,0,3501,0,0,3728,2,229
11.48.19.044344, 122.2263,0,26.13622,122.2263,0,1,0,0,0,0,17.95727,0,-1.222688,0,17.95727,0,0.198776,0,0,0,0,0,5.189651,0,0,-8.130149,0,0.2346843,0,-8.130149,0,-0.4815024,0,0,0,0,0,-5,0,0,0.09295648,0.0002341373,0,99.50044,-0.0002031005,0.5,0,0,0,0,-0.4995556,0,0,3501,0,0,3729,2,229
11.48.19.147350, 122.2263,0,26.16785,122.2263,0,1,0,0,0,0,17.95727,0,-1.222111,0,17.95727,0,0.1987825,0,0,0,0,0,5.189651,0,0,-8.130149,0,0.2341312,0,-8.130149,0,-0.481591,0,0,0,0,0,-5,0,0,0.09297677,-0.0003586328,0,99.50044,0.0007680641,0.5,0,0,0,0,-0.4995556,0,0,3501,0,0,3730,2,229
11.48.19.245356, 122.2263,0,26.19916,122.2263,0,1,0,0,0,0,17.95727,0,-1.221634,0,17.95727,0,0.1987646,0,0,0,0,0,5.189651,0,0,-8.130149,0,0.2342798,0,-8.130149,0,-0.4815401,0,0,0,0,0,-5,0,0,0.09296279,8.480188E-05,0,99.50044,-0.001176459,0.5,0,0,0,0,-0.4995556,0,0,3501,0,0,3731,2,229
11.48.19.353362, 122.2263,0,26.23016,122.2263,0,1,0,0,0,0,17.95727,0,-1.222152,0,17.95727,0,0.1987498,0,0,0,0,0,5.189651,0,0,-8.130149,0,0.2347362,0,-8.130149,0,-0.4815537,0,0,0,0,0,-5,0,0,0.09294951,8.723486E-05,0,99.50044,0.0002781841,0.5,0,0,0,0,-0.4995556,0,0,3501,0,0,3732,2,229
11.48.19.445367, 122.2263,0,26.29123,122.2263,0,1,0,0,0,0,17.95727,0,-1.221837,0,17.95727,0,0.1987659,0,0,0,0,0,5.189651,0,0,-8.130149,0,0.2344633,0,-8.130149,0,-0.4815958,0,0,0,0,0,-5,0,0,0.09291008,0.0002392087,0,99.50044,0.0002861652,0.5,0,0,0,0,-0.4995556,0,0,3501,0,0,3733,2,229
11.48.19.546373, 122.2263,0,26.32131,122.2263,0,1,0,0,0,0,17.95727,0,-1.222088,0,17.95727,0,0.1987561,0,0,0,0,0,5.189651,0,0,-8.130149,0,0.2338434,0,-8.130149,0,-0.4815706,0,0,0,0,0,-5,0,0,0.09297037,-0.0003591578,0,99.50044,0.0007847002,0.5,0,0,0,0,-0.4995556,0,0,3501,0,0,3734,2,229
11.48.19.645379, 122.2263,0,26.35109,122.2263,0,1,0,0,0,0,17.95727,0,-1.222559,0,17.95727,0,0.1987639,0,0,0,0,0,5.189651,0,0,-8.130149,0,0.2343181,0,-8.130149,0,-0.4815136,0,0,0,0,0,-5,0,0,0.09294324,8.694952E-05,0,99.50044,-0.001178181,0.5,0,0,0,0,-0.4995556,0,0,3501,0,0,3735,2,229
11.48.19.742384, 122.2263,0,26.38057,122.2263,0,1,0,0,0,0,17.95727,0,-1.222446,0,17.95727,0,0.1987785,0,0,0,0,0,5.189651,0,0,-8.130149,0,0.2339894,0,-8.130149,0,-0.4815573,0,0,0,0,0,-5,0,0,0.09290386,0.0002388754,0,99.50044,0.0002852292,0.5,0,0,0,0,-0.4995556,0,0,3501,0,0,3736,2,229
11.48.19.845390, 122.2263,0,26.43864,122.2263,0,1,0,0,0,0,17.95727,0,-1.222853,0,17.95727,0,0.198775,0,0,0,0,0,5.189651,0,0,-8.130149,0,0.2346978,0,-8.130149,0,-0.481527,0,0,0,0,0,-5,0,0,0.09292626,0.0003795743,0,99.50044,0.000783607,0.5,0,0,0,0,-0.4995556,0,0,3501,0,0,3737,2,229
11.48.19.943396, 122.2263,0,26.46725,122.2263,0,1,0,0,0,0,17.95727,0,-1.223274,0,17.95727,0,0.1987877,0,0,0,0,0,5.189651,0,0,-8.130149,0,0.234436,0,-8.130149,0,-0.4815922,0,0,0,0,0,-5,0,0,0.09288751,0.0002417169,0,99.50044,0.001245156,0.5,0,0,0,0,-0.4995556,0,0,3501,0,0,3738,2,229
11.48.20.045401, 122.2263,0,26.49556,122.2263,0,1,0,0,0,0,17.95727,0,-1.222378,0,17.95727,0,0.1988007,0,0,0,0,0,5.189651,0,0,-8.130149,0,0.2343723,0,-8.130149,0,-0.4815681,0,0,0,0,0,-5,0,0,0.09298225,-0.0003628439,0,99.50044,0.0007929282,0.5,0,0,0,0,-0.4995556,0,0,3501,0,0,3739,2,229
11.48.20.143407, 122.2263,0,26.5236,122.2263,0,1,0,0,0,0,17.95727,0,-1.223014,0,17.95727,0,0.1987729,0,0,0,0,0,5.189651,0,0,-8.130149,0,0.2337089,0,-8.130149,0,-0.4815622,0,0,0,0,0,-5,0,0,0.09294434,0.0002299878,0,99.50044,-0.001190273,0.5,0,0,0,0,-0.4995556,0,0,3501,0,0,3740,2,229
11.48.20.251413, 122.2263,0,26.57882,122.2263,0,1,0,0,0,0,17.95727,0,-1.222725,0,17.95727,0,0.1987926,0,0,0,0,0,5.189651,0,0,-8.130149,0,0.2350318,0,-8.130149,0,-0.4815012,0,0,0,0,0,-5,0,0,0.09293912,-0.0003546822,0,99.50044,0.000754452,0.5,0,0,0,0,-0.4995556,0,0,3501,0,0,3741,2,229
11.48.20.345419, 122.2263,0,26.60603,122.2263,0,1,0,0,0,0,17.95727,0,-1.222114,0,17.95727,0,0.1987837,0,0,0,0,0,5.189651,0,0,-8.130149,0,0.2351549,0,-8.130149,0,-0.481623,0,0,0,0,0,-5,0,0,0.09290134,0.0002358968,0,99.50044,-0.0011635,0.5,0,0,0,0,-0.4995556,0,0,3501,0,0,3742,2,229
11.48.20.448424, 122.2263,0,26.63296,122.2263,0,1,0,0,0,0,17.95727,0,-1.222134,0,17.95727,0,0.1987647,0,0,0,0,0,5.189651,0,0,-8.130149,0,0.2347659,0,-8.130149,0,-0.4816343,0,0,0,0,0,-5,0,0,0.09296004,-0.0003560471,0,99.50044,0.0007738359,0.5,0,0,0,0,-0.4995556,0,0,3501,0,0,3743,2,229
11.48.20.546430, 122.2263,0,26.65962,122.2263,0,1,0,0,0,0,17.95727,0,-1.221561,0,17.95727,0,0.1987654,0,0,0,0,0,5.189651,0,0,-8.130149,0,0.2341967,0,-8.130149,0,-0.4815985,0,0,0,0,0,-5,0,0,0.09300526,-0.0005045563,0,99.50044,-0.001167977,0.5,0,0,0,0,-0.4995556,0,0,3501,0,0,3744,2,229
11.48.20.644436, 122.2263,0,26.71214,122.2263,0,1,0,0,0,0,17.95727,0,-1.221218,0,17.95727,0,0.1987476,0,0,0,0,0,5.189651,0,0,-8.130149,0,0.2346199,0,-8.130149,0,-0.4815461,0,0,0,0,0,-5,0,0,0.09299238,8.482448E-05,0,99.50044,-0.001655146,0.5,0,0,0,0,-0.4995556,0,0,3501,0,0,3745,2,229
11.48.20.751442, 122.2263,0,26.73801,122.2263,0,1,0,0,0,0,17.95727,0,-1.221635,0,17.95727,0,0.1987369,0,0,0,0,0,5.189651,0,0,-8.130149,0,0.2350603,0,-8.130149,0,-0.4815851,0,0,0,0,0,-5,0,0,0.09293888,0.0002415799,0,99.50044,0.0002782582,0.5,0,0,0,0,-0.4995556,0,0,3501,0,0,3746,2,229
11.48.20.843447, 122.2263,0,26.76362,122.2263,0,1,0,0,0,0,17.95727,0,-1.222076,0,17.95727,0,0.1987499,0,0,0,0,0,5.189651,0,0,-8.130149,0,0.2345287,0,-8.130149,0,-0.4816255,0,0,0,0,0,-5,0,0,0.09289911,0.000241185,0,99.50044,0.0007924786,0.5,0,0,0,0,-0.4995556,0,0,3501,0,0,3747,2,229
11.48.20.952453, 122.2263,0,26.78897,122.2263,0,1,0,0,0,0,17.95727,0,-1.222026,0,17.95727,0,0.1987635,0,0,0,0,0,5.189651,0,0,-8.130149,0,0.2338208,0,-8.130149,0,-0.4815766,0,0,0,0,0,-5,0,0,0.09294447,8.424011E-05,0,99.50044,0.0007911832,0.5,0,0,0,0,-0.4995556,0,0,3501,0,0,3748,2,229
11.48.21.044459, 122.2263,0,26.83892,122.2263,0,1,0,0,0,0,17.95727,0,-1.221963,0,17.95727,0,0.198762,0,0,0,0,0,5.189651,0,0,-8.130149,0,0.2341896,0,-8.130149,0,-0.4815115,0,0,0,0,0,-5,0,0,0.09293017,9.343119E-05,0,99.50044,0.0002763413,0.5,0,0,0,0,-0.4995556,0,0,3501,0,0,3749,2,229
11.48.21.147464, 122.2263,0,26.86352,122.2263,0,1,0,0,0,0,17.95727,0,-1.222837,0,17.95727,0,0.1987601,0,0,0,0,0,5.189651,0,0,-8.130149,0,0.2347424,0,-8.130149,0,-0.4815454,0,0,0,0,0,-5,0,0,0.09291542,8.948952E-05,0,99.50044,0.0003064917,0.5,0,0,0,0,-0.4995556,0,0,3501,0,0,3750,2,229
11.48.21.244470, 122.2263,0,26.88787,122.2263,0,1,0,0,0,0,17.95727,0,-1.223415,0,17.95727,0,0.1987871,0,0,0,0,0,5.189651,0,0,-8.130149,0,0.2339252,0,-8.130149,0,-0.4815963,0,0,0,0,0,-5,0,0,0.09293694,0.0002322973,0,99.50044,0.0002935614,0.5,0,0,0,0,-0.4995556,0,0,3501,0,0,3751,2,229
11.48.21.342476, 122.2263,0,26.91199,122.2263,0,1,0,0,0,0,17.95727,0,-1.223019,0,17.95727,0,0.1988051,0,0,0,0,0,5.189651,0,0,-8.130149,0,0.2340187,0,-8.130149,0,-0.4815211,0,0,0,0,0,-5,0,0,0.09287301,0.0003944802,0,99.50044,0.0007620282,0.5,0,0,0,0,-0.4995556,0,0,3501,0,0,3752,2,229
11.48.21.446482, 122.2263,0,26.95949,122.2263,0,1,0,0,0,0,17.95727,0,-1.223458,0,17.95727,0,0.1987928,0,0,0,0,0,5.189651,0,0,-8.130149,0,0.2341297,0,-8.130149,0,-0.4815297,0,0,0,0,0,-5,0,0,0.09296735,-0.0003627849,0,99.50044,0.001294053,0.5,0,0,0,0,-0.4995556,0,0,3501,0,0,3753,2,229
11.48.21.543487, 122.2263,0,26.98288,122.2263,0,1,0,0,0,0,17.95727,0,-1.222988,0,17.95727,0,0.1988064,0,0,0,0,0,5.189651,0,0,-8.130149,0,0.2343701,0,-8.130149,0,-0.48154,0,0,0,0,0,-5,0,0,0.09290367,0.0003862978,0,99.50044,-0.001190079,0.5,0,0,0,0,-0.4995556,0,0,3501,0,0,3754,2,229
11.48.21.647493, 122.2263,0,27.00604,122.2263,0,1,0,0,0,0,17.95727,0,-1.2223,0,17.95727,0,0.1987918,0,0,0,0,0,5.189651,0,0,-8.130149,0,0.2341697,0,-8.130149,0,-0.481562,0,0,0,0,0,-5,0,0,0.09289874,0.0003881922,0,99.50044,0.001267212,0.5,0,0,0,0,-0.4995556,0,0,3501,0,0,3755,2,229
11.48.21.744499, 122.2263,0,27.02897,122.2263,0,1,0,0,0,0,17.95727,0,-1.222094,0,17.95727,0,0.1987705,0,0,0,0,0,5.189651,0,0,-8.130149,0,0.2337418,0,-8.130149,0,-0.4815436,0,0,0,0,0,-5,0,0,0.0929575,-0.0003497936,0,99.50044,0.001273426,0.5,0,0,0,0,-0.4995556,0,0,3501,0,0,3756,2,229
11.48.21.845504, 122.2263,0,27.07415,122.2263,0,1,0,0,0,0,17.95727,0,-1.222559,0,17.95727,0,0.1987641,0,0,0,0,0,5.189651,0,0,-8.130149,0,0.234337,0,-8.130149,0,-0.4815042,0,0,0,0,0,-5,0,0,0.09287973,0.000392903,0,99.50044,-0.001147463,0.5,0,0,0,0,-0.4995556,0,0,3501,0,0,3757,2,229
11.48.21.945510, 122.2263,0,27.0964,122.2263,0,1,0,0,0,0,17.95727,0,-1.223147,0,17.95727,0,0.1987785,0,0,0,0,0,5.189651,0,0,-8.130149,0,0.2331306,0,-8.130149,0,-0.481559,0,0,0,0,0,-5,0,0,0.09291305,-0.0002021564,0,99.50044,0.001288879,0.5,0,0,0,0,-0.4995556,0,0,3501,0,0,3758,2,229
11.48.22.047516, 122.2263,0,27.11842,122.2263,0,1,0,0,0,0,17.95727,0,-1.222768,0,17.95727,0,0.1987967,0,0,0,0,0,5.189651,0,0,-8.130149,0,0.2330787,0,-8.130149,0,-0.481448,0,0,0,0,0,-5,0,0,0.09288385,0.0003921018,0,99.50044,-0.0006631538,0.5,0,0,0,0,-0.4995556,0,0,3501,0,0,3759,2,229
11.48.22.144521, 122.2263,0,27.14023,122.2263,0,1,0,0,0,0,17.95727,0,-1.223314,0,17.95727,0,0.198785,0,0,0,0,0,5.189651,0,0,-8.130149,0,0.2334712,0,-8.130149,0,-0.4814432,0,0,0,0,0,-5,0,0,0.09291828,-0.0002013759,0,99.50044,0.001286251,0.5,0,0,0,0,-0.4995556,0,0,3501,0,0,3760,2,229
11.48.22.243527, 122.2263,0,27.18319,122.2263,0,1,0,0,0,0,17.95727,0,-1.223796,0,17.95727,0,0.1988019,0,0,0,0,0,5.189651,0,0,-8.130149,0,0.2332152,0,-8.130149,0,-0.4814794,0,0,0,0,0,-5,0,0,0.09286477,0.0003895751,0,99.50044,-0.0006605934,0.5,0,0,0,0,-0.4995556,0,0,3501,0,0,3761,2,229
11.48.22.345533, 122.2263,0,27.20435,122.2263,0,1,0,0,0,0,17.95727,0,-1.223692,0,17.95727,0,0.1988169,0,0,0,0,0,5.189651,0,0,-8.130149,0,0.2326905,0,-8.130149,0,-0.4814558,0,0,0,0,0,-5,0,0,0.09287297,-4.980832E-05,0,99.50044,0.001277962,0.5,0,0,0,0,-0.4995556,0,0,3501,0,0,3762,2,229
11.48.22.445539, 122.2263,0,27.22529,122.2263,0,1,0,0,0,0,17.95727,0,-1.224522,0,17.95727,0,0.1988137,0,0,0,0,0,5.189651,0,0,-8.130149,0,0.2327339,0,-8.130149,0,-0.4814075,0,0,0,0,0,-5,0,0,0.09290849,-0.0002088028,0,99.50044,-0.0001633912,0.5,0,0,0,0,-0.4995556,0,0,3501,0,0,3763,2,229
11.48.22.547545, 122.2264,0,27.24603,122.2263,0,1,0,0,0,0,17.95727,0,-1.224805,0,17.95727,0,0.1988394,0,0,0,0,0,5.189651,0,0,-8.130149,0,0.232578,0,-8.130149,0,-0.4814115,0,0,0,0,0,-5,0,0,0.09285539,0.000537201,0,99.50044,-0.0006849566,0.5,0,0,0,0,-0.4995556,0,0,3501,0,0,3764,2,229
11.48.22.643550, 122.2263,0,27.28688,122.2264,0,1,0,0,0,0,17.95727,0,-1.224219,0,17.95727,0,0.1988481,0,0,0,0,0,5.189651,0,0,-8.130149,0,0.2326424,0,-8.130149,0,-0.4813972,0,0,0,0,0,-5,0,0,0.09288763,-0.0001956564,0,99.50044,0.001762234,0.5,0,0,0,0,-0.4995556,0,0,3501,0,0,3765,2,229
11.48.22.747556, 122.2263,0,27.307,122.2263,0,1,0,0,0,0,17.95727,0,-1.224298,0,17.95727,0,0.19883,0,0,0,0,0,5.189651,0,0,-8.130149,0,0.2324888,0,-8.130149,0,-0.4814031,0,0,0,0,0,-5,0,0,0.09293241,-5.658708E-05,0,99.50044,-0.0006418311,0.5,0,0,0,0,-0.4995556,0,0,3501,0,0,3766,2,229
11.48.22.844562, 122.2264,0,27.32693,122.2263,0,1,0,0,0,0,17.95727,0,-1.224766,0,17.95727,0,0.1988324,0,0,0,0,0,5.189651,0,0,-8.130149,0,0.2334456,0,-8.130149,0,-0.481389,0,0,0,0,0,-5,0,0,0.0928937,0.0002414287,0,99.50044,-0.0001856282,0.5,0,0,0,0,-0.4995556,0,0,3501,0,0,3767,2,229
11.48.22.947567, 122.2264,0,27.34665,122.2264,0,1,0,0,0,0,17.95727,0,-1.224805,0,17.95727,0,0.1988469,0,0,0,0,0,5.189651,0,0,-8.130149,0,0.2326793,0,-8.130149,0,-0.481477,0,0,0,0,0,-5,0,0,0.09291238,-5.705276E-05,0,99.50044,0.0007919827,0.5,0,0,0,0,-0.4995556,0,0,3501,0,0,3768,2,229
11.48.23.046573, 122.2263,0,27.3855,122.2264,0,1,0,0,0,0,17.95727,0,-1.224097,0,17.95727,0,0.1988481,0,0,0,0,0,5.189651,0,0,-8.130149,0,0.232672,0,-8.130149,0,-0.4814065,0,0,0,0,0,-5,0,0,0.09294584,-0.0002029624,0,99.50044,-0.0001871559,0.5,0,0,0,0,-0.4995556,0,0,3501,0,0,3769,2,229
11.48.23.142579, 122.2263,0,27.40463,122.2263,0,1,0,0,0,0,17.95727,0,-1.224174,0,17.95727,0,0.1988262,0,0,0,0,0,5.189651,0,0,-8.130149,0,0.232469,0,-8.130149,0,-0.4814059,0,0,0,0,0,-5,0,0,0.09289023,-4.673421E-05,0,99.50044,-0.0006657978,0.5,0,0,0,0,-0.4995556,0,0,3501,0,0,3770,2,229
11.48.23.246585, 122.2263,0,27.42358,122.2263,0,1,0,0,0,0,17.95727,0,-1.224454,0,17.95727,0,0.1988286,0,0,0,0,0,5.189651,0,0,-8.130149,0,0.2334213,0,-8.130149,0,-0.4813872,0,0,0,0,0,-5,0,0,0.09294987,-0.0003552216,0,99.50044,-0.0001533069,0.5,0,0,0,0,-0.4995556,0,0,3501,0,0,3771,2,229
11.48.23.345590, 122.2263,0,27.44233,122.2263,0,1,0,0,0,0,17.95727,0,-1.224186,0,17.95727,0,0.1988373,0,0,0,0,0,5.189651,0,0,-8.130149,0,0.2335442,0,-8.130149,0,-0.4814748,0,0,0,0,0,-5,0,0,0.09294506,0.0001024368,0,99.50044,-0.001165269,0.5,0,0,0,0,-0.4995556,0,0,3501,0,0,3772,2,229
11.48.23.445596, 122.2263,0,27.47928,122.2263,0,1,0,0,0,0,17.95727,0,-1.223183,0,17.95727,0,0.198829,0,0,0,0,0,5.189651,0,0,-8.130149,0,0.2340043,0,-8.130149,0,-0.4814861,0,0,0,0,0,-5,0,0,0.0929285,0.0001004603,0,99.50044,0.0003360338,0.5,0,0,0,0,-0.4995556,0,0,3501,0,0,3773,2,229
11.48.23.544602, 122.2263,0,27.49748,122.2263,0,1,0,0,0,0,17.95727,0,-1.222652,0,17.95727,0,0.1987979,0,0,0,0,0,5.189651,0,0,-8.130149,0,0.234588,0,-8.130149,0,-0.4815284,0,0,0,0,0,-5,0,0,0.09291332,9.867545E-05,0,99.50044,0.0003295499,0.5,0,0,0,0,-0.4995556,0,0,3501,0,0,3774,2,229
11.48.23.647607, 122.2263,0,27.51549,122.2263,0,1,0,0,0,0,17.95727,0,-1.222683,0,17.95727,0,0.1987814,0,0,0,0,0,5.189651,0,0,-8.130149,0,0.234373,0,-8.130149,0,-0.4815821,0,0,0,0,0,-5,0,0,0.09302055,-0.0006504781,0,99.50044,0.0003236949,0.5,0,0,0,0,-0.4995556,0,0,3501,0,0,3775,2,229
11.48.23.746613, 122.2263,0,27.53333,122.2263,0,1,0,0,0,0,17.95727,0,-1.222366,0,17.95727,0,0.1987824,0,0,0,0,0,5.189651,0,0,-8.130149,0,0.2338609,0,-8.130149,0,-0.4815623,0,0,0,0,0,-5,0,0,0.09296633,0.0003945116,0,99.50044,-0.002133828,0.5,0,0,0,0,-0.4995556,0,0,3501,0,0,3776,2,229
11.48.23.844619, 122.2263,0,27.56847,122.2263,0,1,0,0,0,0,17.95727,0,-1.221869,0,17.95727,0,0.1987725,0,0,0,0,0,5.189651,0,0,-8.130149,0,0.2351652,0,-8.130149,0,-0.4815152,0,0,0,0,0,-5,0,0,0.09297483,-4.491988E-05,0,99.50044,0.001294156,0.5,0,0,0,0,-0.4995556,0,0,3501,0,0,3777,2,229
11.48.23.946625, 122.2263,0,27.58577,122.2263,0,1,0,0,0,0,17.95727,0,-1.222018,0,17.95727,0,0.1987571,0,0,0,0,0,5.189651,0,0,-8.130149,0,0.2353156,0,-8.130149,0,-0.4816352,0,0,0,0,0,-5,0,0,0.09298381,-5.446934E-05,0,99.50044,-0.0001473552,0.5,0,0,0,0,-0.4995556,0,0,3501,0,0,3778,2,229
11.48.24.043630, 122.2263,0,27.6029,122.2263,0,1,0,0,0,0,17.95727,0,-1.221322,0,17.95727,0,0.1987617,0,0,0,0,0,5.189651,0,0,-8.130149,0,0.234329,0,-8.130149,0,-0.481649,0,0,0,0,0,-5,0,0,0.09300199,-5.324604E-05,0,99.50044,-0.0001786812,0.5,0,0,0,0,-0.4995556,0,0,3501,0,0,3779,2,229
11.48.24.145636, 122.2263,0,27.61987,122.2263,0,1,0,0,0,0,17.95727,0,-1.222186,0,17.95727,0,0.1987402,0,0,0,0,0,5.189651,0,0,-8.130149,0,0.2344449,0,-8.130149,0,-0.4815582,0,0,0,0,0,-5,0,0,0.09303696,-0.0002054824,0,99.50044,-0.0001746683,0.5,0,0,0,0,-0.4995556,0,0,3501,0,0,3780,2,229
11.48.24.245642, 122.2263,0,27.65328,122.2263,0,1,0,0,0,0,17.95727,0,-1.222283,0,17.95727,0,0.198767,0,0,0,0,0,5.189651,0,0,-8.130149,0,0.2339996,0,-8.130149,0,-0.481569,0,0,0,0,0,-5,0,0,0.09294755,0.0005424022,0,99.50044,-0.0006740644,0.5,0,0,0,0,-0.4995556,0,0,3501,0,0,3781,2,229
11.48.24.346647, 122.2263,0,27.66974,122.2263,0,1,0,0,0,0,17.95727,0,-1.222179,0,17.95727,0,0.1987699,0,0,0,0,0,5.189651,0,0,-8.130149,0,0.2346413,0,-8.130149,0,-0.481528,0,0,0,0,0,-5,0,0,0.09301376,-0.0002050853,0,99.50044,0.001779296,0.5,0,0,0,0,-0.4995556,0,0,3501,0,0,3782,2,229
11.48.24.444653, 122.2263,0,27.68603,122.2263,0,1,0,0,0,0,17.95727,0,-1.221757,0,17.95727,0,0.1987667,0,0,0,0,0,5.189651,0,0,-8.130149,0,0.2343745,0,-8.130149,0,-0.481587,0,0,0,0,0,-5,0,0,0.09302359,-5.296768E-05,0,99.50044,-0.0006727618,0.5,0,0,0,0,-0.4995556,0,0,3501,0,0,3783,2,229
11.48.24.548659, 122.2263,0,27.70216,122.2263,0,1,0,0,0,0,17.95727,0,-1.222276,0,17.95727,0,0.1987536,0,0,0,0,0,5.189651,0,0,-8.130149,0,0.2346571,0,-8.130149,0,-0.4815625,0,0,0,0,0,-5,0,0,0.09305705,-0.0002029513,0,99.50044,-0.0001737552,0.5,0,0,0,0,-0.4995556,0,0,3501,0,0,3784,2,229
11.48.24.645665, 122.2263,0,27.73394,122.2263,0,1,0,0,0,0,17.95727,0,-1.222062,0,17.95727,0,0.1987697,0,0,0,0,0,5.189651,0,0,-8.130149,0,0.2343032,0,-8.130149,0,-0.4815885,0,0,0,0,0,-5,0,0,0.09296835,0.0005446456,0,99.50044,-0.0006657615,0.5,0,0,0,0,-0.4995556,0,0,3501,0,0,3785,2,229
11.48.24.743670, 122.2263,0,27.74959,122.2263,0,1,0,0,0,0,17.95727,0,-1.222485,0,17.95727,0,0.1987631,0,0,0,0,0,5.189651,0,0,-8.130149,0,0.234162,0,-8.130149,0,-0.4815559,0,0,0,0,0,-5,0,0,0.09301031,-5.339678E-05,0,99.50044,0.001786656,0.5,0,0,0,0,-0.4995556,0,0,3501,0,0,3786,2,229
11.48.24.846676, 122.2263,0,27.76509,122.2263,0,1,0,0,0,0,17.95727,0,-1.222936,0,17.95727,0,0.1987762,0,0,0,0,0,5.189651,0,0,-8.130149,0,0.2334766,0,-8.130149,0,-0.4815429,0,0,0,0,0,-5,0,0,0.09301917,-5.374373E-05,0,99.50044,-0.0001751628,0.5,0,0,0,0,-0.4995556,0,0,3501,0,0,3787,2,229
11.48.24.943682, 122.2263,0,27.78043,122.2263,0,1,0,0,0,0,17.95727,0,-1.222553,0,17.95727,0,0.1987902,0,0,0,0,0,5.189651,0,0,-8.130149,0,0.2344051,0,-8.130149,0,-0.4814799,0,0,0,0,0,-5,0,0,0.0930285,-5.001665E-05,0,99.50044,-0.0001763009,0.5,0,0,0,0,-0.4995556,0,0,3501,0,0,3788,2,229
11.48.25.045687, 122.2263,0,27.81065,122.2263,0,1,0,0,0,0,17.95727,0,-1.221579,0,17.95727,0,0.1987783,0,0,0,0,0,5.189651,0,0,-8.130149,0,0.2333187,0,-8.130149,0,-0.4815653,0,0,0,0,0,-5,0,0,0.09299511,-0.0004852896,0,99.50044,-0.0001640746,0.5,0,0,0,0,-0.4995556,0,0,3501,0,0,3789,2,229
11.48.25.144693, 122.2263,0,27.82553,122.2263,0,1,0,0,0,0,17.95727,0,-1.220912,0,17.95727,0,0.1987481,0,0,0,0,0,5.189651,0,0,-8.130149,0,0.2335973,0,-8.130149,0,-0.4814653,0,0,0,0,0,-5,0,0,0.09297973,9.335492E-05,0,99.50044,-0.001591944,0.5,0,0,0,0,-0.4995556,0,0,3501,0,0,3790,2,229
11.48.25.247699, 122.2263,0,27.84026,122.2263,0,1,0,0,0,0,17.95727,0,-1.220913,0,17.95727,0,0.1987274,0,0,0,0,0,5.189651,0,0,-8.130149,0,0.233171,0,-8.130149,0,-0.4814909,0,0,0,0,0,-5,0,0,0.09298889,-4.891203E-05,0,99.50044,0.0003062415,0.5,0,0,0,0,-0.4995556,0,0,3501,0,0,3791,2,229
11.48.25.346705, 122.2263,0,27.85485,122.2263,0,1,0,0,0,0,17.95727,0,-1.219837,0,17.95727,0,0.1987275,0,0,0,0,0,5.189651,0,0,-8.130149,0,0.2314023,0,-8.130149,0,-0.4814517,0,0,0,0,0,-5,0,0,0.09300601,-4.98935E-05,0,99.50044,-0.000160451,0.5,0,0,0,0,-0.4995556,0,0,3501,0,0,3792,2,229
11.48.25.446710, 122.2263,0,27.88359,122.2263,0,1,0,0,0,0,17.95727,0,-1.219939,0,17.95727,0,0.1986941,0,0,0,0,0,5.189651,0,0,-8.130149,0,0.2311424,0,-8.130149,0,-0.481289,0,0,0,0,0,-5,0,0,0.09299003,9.690392E-05,0,99.50044,-0.0001636706,0.5,0,0,0,0,-0.4995556,0,0,3501,0,0,3793,2,229
11.48.25.546716, 122.2263,0,27.89774,122.2263,0,1,0,0,0,0,17.95727,0,-1.218863,0,17.95727,0,0.1986973,0,0,0,0,0,5.189651,0,0,-8.130149,0,0.2311969,0,-8.130149,0,-0.4812651,0,0,0,0,0,-5,0,0,0.09297378,0.0001045133,0,99.50044,0.0003178836,0.5,0,0,0,0,-0.4995556,0,0,3501,0,0,3794,2,229
11.48.25.644722, 122.2263,0,27.91175,122.2263,0,1,0,0,0,0,17.95727,0,-1.218131,0,17.95727,0,0.198664,0,0,0,0,0,5.189651,0,0,-8.130149,0,0.2313991,0,-8.130149,0,-0.4812701,0,0,0,0,0,-5,0,0,0.09295675,0.0001032557,0,99.50044,0.0003428455,0.5,0,0,0,0,-0.4995556,0,0,3501,0,0,3795,2,229
11.48.25.746728, 122.2263,0,27.92562,122.2263,0,1,0,0,0,0,17.95727,0,-1.218322,0,17.95727,0,0.1986413,0,0,0,0,0,5.189651,0,0,-8.130149,0,0.2315513,0,-8.130149,0,-0.4812887,0,0,0,0,0,-5,0,0,0.09292496,0.0002470221,0,99.50044,0.00033872,0.5,0,0,0,0,-0.4995556,0,0,3501,0,0,3796,2,229
11.48.25.844733, 122.2263,0,27.95295,122.2263,0,1,0,0,0,0,17.95727,0,-1.217694,0,17.95727,0,0.1986472,0,0,0,0,0,5.189651,0,0,-8.130149,0,0.2312028,0,-8.130149,0,-0.4813027,0,0,0,0,0,-5,0,0,0.09293303,-4.315611E-05,0,99.50044,0.0008103313,0.5,0,0,0,0,-0.4995556,0,0,3501,0,0,3797,2,229
11.48.25.947739, 122.2263,0,27.96641,122.2263,0,1,0,0,0,0,17.95727,0,-1.217601,0,17.95727,0,0.1986277,0,0,0,0,0,5.189651,0,0,-8.130149,0,0.2303231,0,-8.130149,0,-0.4812706,0,0,0,0,0,-5,0,0,0.09294123,-4.973392E-05,0,99.50044,-0.0001415693,0.5,0,0,0,0,-0.4995556,0,0,3501,0,0,3798,2,229
11.48.26.044745, 122.2263,0,27.97974,122.2263,0,1,0,0,0,0,17.95727,0,-1.217124,0,17.95727,0,0.1986248,0,0,0,0,0,5.189651,0,0,-8.130149,0,0.2313817,0,-8.130149,0,-0.4811897,0,0,0,0,0,-5,0,0,0.09298262,-0.0004914295,0,99.50044,-0.0001631472,0.5,0,0,0,0,-0.4995556,0,0,3501,0,0,3799,2,229
11.48.26.146750, 122.2263,0,27.99293,122.2263,0,1,0,0,0,0,17.95727,0,-1.217102,0,17.95727,0,0.19861,0,0,0,0,0,5.189651,0,0,-8.130149,0,0.2317757,0,-8.130149,0,-0.4812871,0,0,0,0,0,-5,0,0,0.09296813,9.45483E-05,0,99.50044,-0.001612085,0.5,0,0,0,0,-0.4995556,0,0,3501,0,0,3800,2,229
11.48.26.246756, 122.2263,0,28.01892,122.2263,0,1,0,0,0,0,17.95727,0,-1.217569,0,17.95727,0,0.1986094,0,0,0,0,0,5.189651,0,0,-8.130149,0,0.2312744,0,-8.130149,0,-0.4813234,0,0,0,0,0,-5,0,0,0.09297629,-4.953997E-05,0,99.50044,0.0003101563,0.5,0,0,0,0,-0.4995556,0,0,3501,0,0,3801,2,229
11.48.26.348762, 122.2263,0,28.03172,122.2263,0,1,0,0,0,0,17.95727,0,-1.217929,0,17.95727,0,0.1986238,0,0,0,0,0,5.189651,0,0,-8.130149,0,0.2313915,0,-8.130149,0,-0.4812773,0,0,0,0,0,-5,0,0,0.0929437,0.0001011762,0,99.50044,-0.0001625109,0.5,0,0,0,0,-0.4995556,0,0,3501,0,0,3802,2,229
11.48.26.446768, 122.2263,0,28.04439,122.2263,0,1,0,0,0,0,17.95727,0,-1.217483,0,17.95727,0,0.198635,0,0,0,0,0,5.189651,0,0,-8.130149,0,0.2307566,0,-8.130149,0,-0.481288,0,0,0,0,0,-5,0,0,0.09295224,-4.511681E-05,0,99.50044,0.0003318985,0.5,0,0,0,0,-0.4995556,0,0,3501,0,0,3803,2,229
11.48.26.543773, 122.2263,0,28.05694,122.2263,0,1,0,0,0,0,17.95727,0,-1.217881,0,17.95727,0,0.1986212,0,0,0,0,0,5.189651,0,0,-8.130149,0,0.2306159,0,-8.130149,0,-0.4812296,0,0,0,0,0,-5,0,0,0.09293572,0.0001001948,0,99.50044,-0.0001480012,0.5,0,0,0,0,-0.4995556,0,0,3501,0,0,3804,2,229
11.48.26.646779, 122.2263,0,28.08165,122.2263,0,1,0,0,0,0,17.95727,0,-1.217649,0,17.95727,0,0.1986335,0,0,0,0,0,5.189651,0,0,-8.130149,0,0.2324897,0,-8.130149,0,-0.4812167,0,0,0,0,0,-5,0,0,0.09287016,0.0004043456,0,99.50044,0.000328679,0.5,0,0,0,0,-0.4995556,0,0,3501,0,0,3805,2,229
11.48.26.743785, 122.2263,0,28.09383,122.2263,0,1,0,0,0,0,17.95727,0,-1.217878,0,17.95727,0,0.1986263,0,0,0,0,0,5.189651,0,0,-8.130149,0,0.2344812,0,-8.130149,0,-0.481389,0,0,0,0,0,-5,0,0,0.09293635,9.642199E-05,0,99.50044,0.001326415,0.5,0,0,0,0,-0.4995556,0,0,3501,0,0,3806,2,229
11.48.26.847790, 122.2263,0,28.10588,122.2263,0,1,0,0,0,0,17.95727,0,-1.218526,0,17.95727,0,0.1986334,0,0,0,0,0,5.189651,0,0,-8.130149,0,0.2352881,0,-8.130149,0,-0.4815723,0,0,0,0,0,-5,0,0,0.09291955,0.0001019225,0,99.50044,0.0003163027,0.5,0,0,0,0,-0.4995556,0,0,3501,0,0,3807,2,229
11.48.26.945796, 122.2263,0,28.11781,122.2263,0,1,0,0,0,0,17.95727,0,-1.218366,0,17.95727,0,0.1986535,0,0,0,0,0,5.189651,0,0,-8.130149,0,0.2361291,0,-8.130149,0,-0.4816465,0,0,0,0,0,-5,0,0,0.09300186,-0.0004928014,0,99.50044,0.0003343465,0.5,0,0,0,0,-0.4995556,0,0,3501,0,0,3808,2,229
11.48.27.048802, 122.2263,0,28.14132,122.2263,0,1,0,0,0,0,17.95727,0,-1.219098,0,17.95727,0,0.1986485,0,0,0,0,0,5.189651,0,0,-8.130149,0,0.2370422,0,-8.130149,0,-0.4817239,0,0,0,0,0,-5,0,0,0.09298656,9.279296E-05,0,99.50044,-0.001616586,0.5,0,0,0,0,-0.4995556,0,0,3501,0,0,3809,2,229
11.48.27.146808, 122.2263,0,28.15289,122.2263,0,1,0,0,0,0,17.95727,0,-1.219305,0,17.95727,0,0.1986712,0,0,0,0,0,5.189651,0,0,-8.130149,0,0.2369,0,-8.130149,0,-0.4818079,0,0,0,0,0,-5,0,0,0.09290383,0.0002541496,0,99.50044,0.000304398,0.5,0,0,0,0,-0.4995556,0,0,3501,0,0,3810,2,229
11.48.27.243813, 122.2263,0,28.16435,122.2263,0,1,0,0,0,0,17.95727,0,-1.219305,0,17.95727,0,0.1986776,0,0,0,0,0,5.189651,0,0,-8.130149,0,0.2369,0,-8.130149,0,-0.4817948,0,0,0,0,0,-5,0,0,0.09290383,0.0002541496,0,99.50044,0.0008337123,0.5,0,0,0,0,-0.4995556,0,0,3501,0,0,3811,2,229
11.48.27.345819, 122.2263,0,28.1757,122.2263,0,1,0,0,0,0,17.95727,0,-1.219305,0,17.95727,0,0.1986776,0,0,0,0,0,5.189651,0,0,-8.130149,0,0.2369,0,-8.130149,0,-0.4817948,0,0,0,0,0,-5,0,0,0.09290383,0.0002541496,0,99.50044,0.0008337123,0.5,0,0,0,0,-0.4995556,0,0,3501,0,0,3812,2,229
11.48.27.443825, 122.2263,0,28.19806,122.2263,0,1,0,0,0,0,17.95727,0,-1.219305,0,17.95727,0,0.1986776,0,0,0,0,0,5.189651,0,0,-8.130149,0,0.2369,0,-8.130149,0,-0.4817948,0,0,0,0,0,-5,0,0,0.09290383,0.0002541496,0,99.50044,0.0008337123,0.5,0,0,0,0,-0.4995556,0,0,3501,0,0,3813,2,229
11.48.27.545830, 122.2263,0,28.20907,122.2263,0,1,0,0,0,0,17.95727,0,-1.219305,0,17.95727,0,0.1986776,0,0,0,0,0,5.189651,0,0,-8.130149,0,0.2369,0,-8.130149,0,-0.4817948,0,0,0,0,0,-5,0,0,0.09290383,0.0002541496,0,99.50044,0.0008337123,0.5,0,0,0,0,-0.4995556,0,0,3501,0,0,3814,2,229
11.48.27.644836, 122.2263,0,28.21997,122.2263,0,1,0,0,0,0,17.95727,0,-1.219305,0,17.95727,0,0.1986776,0,0,0,0,0,5.189651,0,0,-8.130149,0,0.2369,0,-8.130149,0,-0.4817948,0,0,0,0,0,-5,0,0,0.09290383,0.0002541496,0,99.50044,0.0008337123,0.5,0,0,0,0,-0.4995556,0,0,3501,0,0,3815,2,229
11.48.27.746842, 122.2263,0,28.23076,122.2263,0,1,0,0,0,0,17.95727,0,-1.219305,0,17.95727,0,0.1986776,0,0,0,0,0,5.189651,0,0,-8.130149,0,0.2369,0,-8.130149,0,-0.4817948,0,0,0,0,0,-5,0,0,0.09290383,0.0002541496,0,99.50044,0.0008337123,0.5,0,0,0,0,-0.4995556,0,0,3501,0,0,3816,2,229
11.48.27.845848, 122.2263,0,28.25202,122.2263,0,1,0,0,0,0,17.95727,0,-1.219305,0,17.95727,0,0.1986776,0,0,0,0,0,5.189651,0,0,-8.130149,0,0.2369,0,-8.130149,0,-0.4817948,0,0,0,0,0,-5,0,0,0.09290383,0.0002541496,0,99.50044,0.0008337123,0.5,0,0,0,0,-0.4995556,0,0,3501,0,0,3817,2,229
11.48.27.947853, 122.2263,0,28.26249,122.2263,0,1,0,0,0,0,17.95727,0,-1.219305,0,17.95727,0,0.1986776,0,0,0,0,0,5.189651,0,0,-8.130149,0,0.2369,0,-8.130149,0,-0.4817948,0,0,0,0,0,-5,0,0,0.09290383,0.0002541496,0,99.50044,0.0008337123,0.5,0,0,0,0,-0.4995556,0,0,3501,0,0,3818,2,229
11.48.28.043859, 122.2263,0,28.27285,122.2263,0,1,0,0,0,0,17.95727,0,-1.219305,0,17.95727,0,0.1986776,0,0,0,0,0,5.189651,0,0,-8.130149,0,0.2369,0,-8.130149,0,-0.4817948,0,0,0,0,0,-5,0,0,0.09290383,0.0002541496,0,99.50044,0.0008337123,0.5,0,0,0,0,-0.4995556,0,0,3501,0,0,3819,2,229
11.48.28.142865, 122.2263,0,28.28311,122.2263,0,1,0,0,0,0,17.95727,0,-1.219305,0,17.95727,0,0.1986776,0,0,0,0,0,5.189651,0,0,-8.130149,0,0.2369,0,-8.130149,0,-0.4817948,0,0,0,0,0,-5,0,0,0.09290383,0.0002541496,0,99.50044,0.0008337123,0.5,0,0,0,0,-0.4995556,0,0,3501,0,0,3820,2,229
11.48.28.246871, 122.2263,0,28.30333,122.2263,0,1,0,0,0,0,17.95727,0,-1.219305,0,17.95727,0,0.1986776,0,0,0,0,0,5.189651,0,0,-8.130149,0,0.2369,0,-8.130149,0,-0.4817948,0,0,0,0,0,-5,0,0,0.09290383,0.0002541496,0,99.50044,0.0008337123,0.5,0,0,0,0,-0.4995556,0,0,3501,0,0,3821,2,229
11.48.28.344876, 122.2263,0,28.31329,122.2263,0,1,0,0,0,0,17.95727,0,-1.219305,0,17.95727,0,0.1986776,0,0,0,0,0,5.189651,0,0,-8.130149,0,0.2369,0,-8.130149,0,-0.4817948,0,0,0,0,0,-5,0,0,0.09290383,0.0002541496,0,99.50044,0.0008337123,0.5,0,0,0,0,-0.4995556,0,0,3501,0,0,3822,2,229
11.48.28.446882, 122.2263,0,28.32314,122.2263,0,1,0,0,0,0,17.95727,0,-1.219305,0,17.95727,0,0.1986776,0,0,0,0,0,5.189651,0,0,-8.130149,0,0.2369,0,-8.130149,0,-0.4817948,0,0,0,0,0,-5,0,0,0.09290383,0.0002541496,0,99.50044,0.0008337123,0.5,0,0,0,0,-0.4995556,0,0,3501,0,0,3823,2,229
11.48.28.544888, 122.2263,0,28.3329,122.2263,0,1,0,0,0,0,17.95727,0,-1.219305,0,17.95727,0,0.1986776,0,0,0,0,0,5.189651,0,0,-8.130149,0,0.2369,0,-8.130149,0,-0.4817948,0,0,0,0,0,-5,0,0,0.09290383,0.0002541496,0,99.50044,0.0008337123,0.5,0,0,0,0,-0.4995556,0,0,3501,0,0,3824,2,229
11.48.28.646893, 122.2263,0,28.35213,122.2263,0,1,0,0,0,0,17.95727,0,-1.219305,0,17.95727,0,0.1986776,0,0,0,0,0,5.189651,0,0,-8.130149,0,0.2369,0,-8.130149,0,-0.4817948,0,0,0,0,0,-5,0,0,0.09290383,0.0002541496,0,99.50044,0.0008337123,0.5,0,0,0,0,-0.4995556,0,0,3501,0,0,3825,2,229
11.48.28.743899, 122.2263,0,28.3616,122.2263,0,1,0,0,0,0,17.95727,0,-1.219305,0,17.95727,0,0.1986776,0,0,0,0,0,5.189651,0,0,-8.130149,0,0.2369,0,-8.130149,0,-0.4817948,0,0,0,0,0,-5,0,0,0.09290383,0.0002541496,0,99.50044,0.0008337123,0.5,0,0,0,0,-0.4995556,0,0,3501,0,0,3826,2,229
11.48.28.848905, 122.2263,0,28.37097,122.2263,0,1,0,0,0,0,17.95727,0,-1.219305,0,17.95727,0,0.1986776,0,0,0,0,0,5.189651,0,0,-8.130149,0,0.2369,0,-8.130149,0,-0.4817948,0,0,0,0,0,-5,0,0,0.09290383,0.0002541496,0,99.50044,0.0008337123,0.5,0,0,0,0,-0.4995556,0,0,3501,0,0,3827,2,229
11.48.28.946911, 122.2263,0,28.38025,122.2263,0,1,0,0,0,0,17.95727,0,-1.219305,0,17.95727,0,0.1986776,0,0,0,0,0,5.189651,0,0,-8.130149,0,0.2369,0,-8.130149,0,-0.4817948,0,0,0,0,0,-5,0,0,0.09290383,0.0002541496,0,99.50044,0.0008337123,0.5,0,0,0,0,-0.4995556,0,0,3501,0,0,3828,2,229
11.48.29.043916, 122.2263,0,28.39854,122.2263,0,1,0,0,0,0,17.95727,0,-1.219305,0,17.95727,0,0.1986776,0,0,0,0,0,5.189651,0,0,-8.130149,0,0.2369,0,-8.130149,0,-0.4817948,0,0,0,0,0,-5,0,0,0.09290383,0.0002541496,0,99.50044,0.0008337123,0.5,0,0,0,0,-0.4995556,0,0,3501,0,0,3829,2,229
11.48.29.146922, 122.2263,0,28.40754,122.2263,0,1,0,0,0,0,17.95727,0,-1.219305,0,17.95727,0,0.1986776,0,0,0,0,0,5.189651,0,0,-8.130149,0,0.2369,0,-8.130149,0,-0.4817948,0,0,0,0,0,-5,0,0,0.09290383,0.0002541496,0,99.50044,0.0008337123,0.5,0,0,0,0,-0.4995556,0,0,3501,0,0,3830,2,229
11.48.29.245928, 122.2263,0,28.41646,122.2263,0,1,0,0,0,0,17.95727,0,-1.219305,0,17.95727,0,0.1986776,0,0,0,0,0,5.189651,0,0,-8.130149,0,0.2369,0,-8.130149,0,-0.4817948,0,0,0,0,0,-5,0,0,0.09290383,0.0002541496,0,99.50044,0.0008337123,0.5,0,0,0,0,-0.4995556,0,0,3501,0,0,3831,2,229
11.48.29.345933, 122.2263,0,28.42528,122.2263,0,1,0,0,0,0,17.95727,0,-1.219305,0,17.95727,0,0.1986776,0,0,0,0,0,5.189651,0,0,-8.130149,0,0.2369,0,-8.130149,0,-0.4817948,0,0,0,0,0,-5,0,0,0.09290383,0.0002541496,0,99.50044,0.0008337123,0.5,0,0,0,0,-0.4995556,0,0,3501,0,0,3832,2,229
11.48.29.443939, 122.2263,0,28.44267,122.2263,0,1,0,0,0,0,17.95727,0,-1.219305,0,17.95727,0,0.1986776,0,0,0,0,0,5.189651,0,0,-8.130149,0,0.2369,0,-8.130149,0,-0.4817948,0,0,0,0,0,-5,0,0,0.09290383,0.0002541496,0,99.50044,0.0008337123,0.5,0,0,0,0,-0.4995556,0,0,3501,0,0,3833,2,229
11.48.29.546945, 122.2263,0,28.45123,122.2263,0,1,0,0,0,0,17.95727,0,-1.219305,0,17.95727,0,0.1986776,0,0,0,0,0,5.189651,0,0,-8.130149,0,0.2369,0,-8.130149,0,-0.4817948,0,0,0,0,0,-5,0,0,0.09290383,0.0002541496,0,99.50044,0.0008337123,0.5,0,0,0,0,-0.4995556,0,0,3501,0,0,3834,2,229
11.48.29.644950, 122.2263,0,28.45971,122.2263,0,1,0,0,0,0,17.95727,0,-1.219305,0,17.95727,0,0.1986776,0,0,0,0,0,5.189651,0,0,-8.130149,0,0.2369,0,-8.130149,0,-0.4817948,0,0,0,0,0,-5,0,0,0.09290383,0.0002541496,0,99.50044,0.0008337123,0.5,0,0,0,0,-0.4995556,0,0,3501,0,0,3835,2,229
11.48.29.743956, 122.2263,0,28.4681,122.2263,0,1,0,0,0,0,17.95727,0,-1.219305,0,17.95727,0,0.1986776,0,0,0,0,0,5.189651,0,0,-8.130149,0,0.2369,0,-8.130149,0,-0.4817948,0,0,0,0,0,-5,0,0,0.09290383,0.0002541496,0,99.50044,0.0008337123,0.5,0,0,0,0,-0.4995556,0,0,3501,0,0,3836,2,229
11.48.29.845962, 122.2263,0,28.48464,122.2263,0,1,0,0,0,0,17.95727,0,-1.219305,0,17.95727,0,0.1986776,0,0,0,0,0,5.189651,0,0,-8.130149,0,0.2369,0,-8.130149,0,-0.4817948,0,0,0,0,0,-5,0,0,0.09290383,0.0002541496,0,99.50044,0.0008337123,0.5,0,0,0,0,-0.4995556,0,0,3501,0,0,3837,2,229
11.48.29.942968, 122.2263,0,28.49278,122.2263,0,1,0,0,0,0,17.95727,0,-1.219305,0,17.95727,0,0.1986776,0,0,0,0,0,5.189651,0,0,-8.130149,0,0.2369,0,-8.130149,0,-0.4817948,0,0,0,0,0,-5,0,0,0.09290383,0.0002541496,0,99.50044,0.0008337123,0.5,0,0,0,0,-0.4995556,0,0,3501,0,0,3838,2,229
11.48.30.044973, 122.2263,0,28.50084,122.2263,0,1,0,0,0,0,17.95727,0,-1.219305,0,17.95727,0,0.1986776,0,0,0,0,0,5.189651,0,0,-8.130149,0,0.2369,0,-8.130149,0,-0.4817948,0,0,0,0,0,-5,0,0,0.09290383,0.0002541496,0,99.50044,0.0008337123,0.5,0,0,0,0,-0.4995556,0,0,3501,0,0,3839,2,229
11.48.30.143979, 122.2263,0,28.50883,122.2263,0,1,0,0,0,0,17.95727,0,-1.219305,0,17.95727,0,0.1986776,0,0,0,0,0,5.189651,0,0,-8.130149,0,0.2369,0,-8.130149,0,-0.4817948,0,0,0,0,0,-5,0,0,0.09290383,0.0002541496,0,99.50044,0.0008337123,0.5,0,0,0,0,-0.4995556,0,0,3501,0,0,3840,2,229
11.48.30.247985, 122.2263,0,28.52455,122.2263,0,1,0,0,0,0,17.95727,0,-1.219305,0,17.95727,0,0.1986776,0,0,0,0,0,5.189651,0,0,-8.130149,0,0.2369,0,-8.130149,0,-0.4817948,0,0,0,0,0,-5,0,0,0.09290383,0.0002541496,0,99.50044,0.0008337123,0.5,0,0,0,0,-0.4995556,0,0,3501,0,0,3841,2,229
11.48.30.343990, 122.2263,0,28.5323,122.2263,0,1,0,0,0,0,17.95727,0,-1.219305,0,17.95727,0,0.1986776,0,0,0,0,0,5.189651,0,0,-8.130149,0,0.2369,0,-8.130149,0,-0.4817948,0,0,0,0,0,-5,0,0,0.09290383,0.0002541496,0,99.50044,0.0008337123,0.5,0,0,0,0,-0.4995556,0,0,3501,0,0,3842,2,229
11.48.30.447996, 122.2263,0,28.53997,122.2263,0,1,0,0,0,0,17.95727,0,-1.219305,0,17.95727,0,0.1986776,0,0,0,0,0,5.189651,0,0,-8.130149,0,0.2369,0,-8.130149,0,-0.4817948,0,0,0,0,0,-5,0,0,0.09290383,0.0002541496,0,99.50044,0.0008337123,0.5,0,0,0,0,-0.4995556,0,0,3501,0,0,3843,2,229
11.48.30.546002, 122.2263,0,28.54756,122.2263,0,1,0,0,0,0,17.95727,0,-1.219305,0,17.95727,0,0.1986776,0,0,0,0,0,5.189651,0,0,-8.130149,0,0.2369,0,-8.130149,0,-0.4817948,0,0,0,0,0,-5,0,0,0.09290383,0.0002541496,0,99.50044,0.0008337123,0.5,0,0,0,0,-0.4995556,0,0,3501,0,0,3844,2,229
11.48.30.663009, 122.2263,0,28.56251,122.2263,0,1,0,0,0,0,17.95727,0,-1.219305,0,17.95727,0,0.1986776,0,0,0,0,0,5.189651,0,0,-8.130149,0,0.2369,0,-8.130149,0,-0.4817948,0,0,0,0,0,-5,0,0,0.09290383,0.0002541496,0,99.50044,0.0008337123,0.5,0,0,0,0,-0.4995556,0,0,3501,0,0,3845,2,229
11.48.30.746013, 122.2263,0,28.56988,122.2263,0,1,0,0,0,0,17.95727,0,-1.219305,0,17.95727,0,0.1986776,0,0,0,0,0,5.189651,0,0,-8.130149,0,0.2369,0,-8.130149,0,-0.4817948,0,0,0,0,0,-5,0,0,0.09290383,0.0002541496,0,99.50044,0.0008337123,0.5,0,0,0,0,-0.4995556,0,0,3501,0,0,3846,2,229
11.48.30.845019, 122.2263,0,28.57717,122.2263,0,1,0,0,0,0,17.95727,0,-1.219305,0,17.95727,0,0.1986776,0,0,0,0,0,5.189651,0,0,-8.130149,0,0.2369,0,-8.130149,0,-0.4817948,0,0,0,0,0,-5,0,0,0.09290383,0.0002541496,0,99.50044,0.0008337123,0.5,0,0,0,0,-0.4995556,0,0,3501,0,0,3847,2,229
11.48.30.957026, 122.2263,0,28.58439,122.2263,0,1,0,0,0,0,17.95727,0,-1.219305,0,17.95727,0,0.1986776,0,0,0,0,0,5.189651,0,0,-8.130149,0,0.2369,0,-8.130149,0,-0.4817948,0,0,0,0,0,-5,0,0,0.09290383,0.0002541496,0,99.50044,0.0008337123,0.5,0,0,0,0,-0.4995556,0,0,3501,0,0,3848,2,229
11.48.31.044031, 122.2263,0,28.59861,122.2263,0,1,0,0,0,0,17.95727,0,-1.219305,0,17.95727,0,0.1986776,0,0,0,0,0,5.189651,0,0,-8.130149,0,0.2369,0,-8.130149,0,-0.4817948,0,0,0,0,0,-5,0,0,0.09290383,0.0002541496,0,99.50044,0.0008337123,0.5,0,0,0,0,-0.4995556,0,0,3501,0,0,3849,2,229
11.48.31.148036, 122.2263,0,28.60561,122.2263,0,1,0,0,0,0,17.95727,0,-1.219305,0,17.95727,0,0.1986776,0,0,0,0,0,5.189651,0,0,-8.130149,0,0.2369,0,-8.130149,0,-0.4817948,0,0,0,0,0,-5,0,0,0.09290383,0.0002541496,0,99.50044,0.0008337123,0.5,0,0,0,0,-0.4995556,0,0,3501,0,0,3850,2,229
11.48.31.245042, 122.2263,0,28.61255,122.2263,0,1,0,0,0,0,17.95727,0,-1.219305,0,17.95727,0,0.1986776,0,0,0,0,0,5.189651,0,0,-8.130149,0,0.2369,0,-8.130149,0,-0.4817948,0,0,0,0,0,-5,0,0,0.09290383,0.0002541496,0,99.50044,0.0008337123,0.5,0,0,0,0,-0.4995556,0,0,3501,0,0,3851,2,229
11.48.31.344048, 122.2263,0,28.61941,122.2263,0,1,0,0,0,0,17.95727,0,-1.219305,0,17.95727,0,0.1986776,0,0,0,0,0,5.189651,0,0,-8.130149,0,0.2369,0,-8.130149,0,-0.4817948,0,0,0,0,0,-5,0,0,0.09290383,0.0002541496,0,99.50044,0.0008337123,0.5,0,0,0,0,-0.4995556,0,0,3501,0,0,3852,2,229
11.48.31.446053, 122.2263,0,28.63294,122.2263,0,1,0,0,0,0,17.95727,0,-1.219305,0,17.95727,0,0.1986776,0,0,0,0,0,5.189651,0,0,-8.130149,0,0.2369,0,-8.130149,0,-0.4817948,0,0,0,0,0,-5,0,0,0.09290383,0.0002541496,0,99.50044,0.0008337123,0.5,0,0,0,0,-0.4995556,0,0,3501,0,0,3853,2,229
11.48.31.543059, 122.2263,0,28.6396,122.2263,0,1,0,0,0,0,17.95727,0,-1.219305,0,17.95727,0,0.1986776,0,0,0,0,0,5.189651,0,0,-8.130149,0,0.2369,0,-8.130149,0,-0.4817948,0,0,0,0,0,-5,0,0,0.09290383,0.0002541496,0,99.50044,0.0008337123,0.5,0,0,0,0,-0.4995556,0,0,3501,0,0,3854,2,229
11.48.31.645065, 122.2263,0,28.64619,122.2263,0,1,0,0,0,0,17.95727,0,-1.219305,0,17.95727,0,0.1986776,0,0,0,0,0,5.189651,0,0,-8.130149,0,0.2369,0,-8.130149,0,-0.4817948,0,0,0,0,0,-5,0,0,0.09290383,0.0002541496,0,99.50044,0.0008337123,0.5,0,0,0,0,-0.4995556,0,0,3501,0,0,3855,2,229
11.48.31.744071, 122.2263,0,28.65272,122.2263,0,1,0,0,0,0,17.95727,0,-1.219305,0,17.95727,0,0.1986776,0,0,0,0,0,5.189651,0,0,-8.130149,0,0.2369,0,-8.130149,0,-0.4817948,0,0,0,0,0,-5,0,0,0.09290383,0.0002541496,0,99.50044,0.0008337123,0.5,0,0,0,0,-0.4995556,0,0,3501,0,0,3856,2,229
11.48.31.847076, 153.5569,-31.99955,28.66558,122.2263,0,1,0,0,0,0,17.95727,0.02691082,1.444706,0,17.95727,0,0.1986776,0,0,0,0,0,5.189651,0,0,-8.130149,-0.1043274,-0.1202044,0,-8.130149,0,-0.4817948,0,0,0,0,0,-5,0,0,0.3254362,-1.975419,0,99.50044,0.0008337123,0.5,0,0,0,0,-0.4995556,0,0,3501,0,0,3857,2,229
11.48.31.943082, 151.0417,-49.97191,28.75024,153.5569,-31.99955,1,0,0,0,0,1.284673,0.04303334,1.772541,0,1.284673,0.02691082,-0.03172566,0,0,0,0,0,0.4212978,0,0,-0.8228618,-0.1454856,-0.9145212,0,-0.8228618,-0.1043274,-0.12495,0,0,0,0,0,-1.478356,0,0,0.6640794,-2.054927,0,99.14267,-6.480166,0.5,0,0,0,0,-0.857329,0,0,3501,0,0,3858,2,229
11.48.32.048088, 147.7015,-66.21282,28.82251,151.0417,-49.97191,1,0,0,0,0,1.284673,0.05624568,2.206591,0,1.284673,0.04303334,-0.04095943,0,0,0,0,0,0.4512696,0,0,-0.8228618,-0.1808738,-2.078485,0,-0.8228618,-0.1454856,-0.06261264,0,0,0,0,0,-1.595093,0,0,0.9935808,-2.00008,0,99.14267,-6.740981,0.5,0,0,0,0,-0.857329,0,0,3501,0,0,3859,2,229
11.48.32.146094, 143.613,-80.78853,28.88647,147.7015,-66.21282,1,0,0,0,0,1.212317,0.07468598,2.690443,0,1.284673,0.05624568,-0.05365354,0,0,0,0,0,0.4758313,0,0,-0.7678087,-0.2017184,-3.583708,0,-0.8228618,-0.1808738,0.03523781,0,0,0,0,0,-1.695465,0,0,1.314244,-1.947138,0,99.14267,-6.561063,0.5,0,0,0,0,-1.601798,0,0,3501,0,0,3860,2,229
11.48.32.244099, 138.8474,-93.95393,28.9949,143.613,-80.78853,1,0,0,0,0,1.295903,0.08220272,3.070957,0,1.295903,0.07468598,-0.06823851,0,0,0,0,0,0.5133573,0,0,-0.8460368,-0.2232828,-5.045677,0,-0.8460368,-0.2017184,0.1755574,0,0,0,0,0,-1.787889,0,0,1.626713,-1.896755,0,97.79662,-6.387393,0.5,0,0,0,0,-2.203374,0,0,3501,0,0,3861,2,229
11.48.32.347105, 127.5406,-116.8629,29.03689,138.8474,-93.95393,1,0,0,0,0,1.116458,0.1183507,3.375182,0,1.116458,0.08220272,-0.08046005,0,0,0,0,0,0.4754713,0,0,-2.170145,-0.2353704,-7.528093,0,-2.170145,-0.2232828,0.1190371,0,0,0,0,0,-3.751796,0,0,2.226444,-1.79553,0,97.63219,-6.222116,0.5,0,0,0,0,-2.367803,0,0,3501,0,0,3862,2,229
11.48.32.444111, 121.0984,-127.1179,29.05129,127.5406,-116.8629,1,0,0,0,0,0.7063093,0.1406285,3.262047,0,1.116458,0.1183507,-0.08780785,0,0,0,0,0,0.5426704,0,0,-2.115092,-0.2368106,-8.335203,0,-2.170145,-0.2353704,0.3442653,0,0,0,0,0,-3.786079,0,0,2.513539,-1.743433,0,97.63219,-5.890058,0.5,0,0,0,0,-2.743631,0,0,3501,0,0,3863,2,229
11.48.32.546116, 106.8681,-144.9748,29.0519,121.0984,-127.1179,1,0,0,0,0,1.044103,0.1986448,2.534521,0,0.7063093,0.1406285,-0.08669136,0,0,0,0,0,0.4655517,0,0,-2.115092,-0.2259258,-9.092756,0,-2.115092,-0.2368106,0.4254218,0,0,0,0,0,-3.711053,0,0,3.060883,-1.634271,0,97.25637,-5.719156,0.5,0,0,0,0,-3.112272,0,0,3501,0,0,3864,2,229
11.48.32.645122, 99.20761,-152.2954,28.98796,106.8681,-144.9748,1,0,0,0,0,0.9717467,0.2195246,1.958021,0,0.9717467,0.1986448,-0.05776833,0,0,0,0,0,0.6501155,0,0,-2.060039,-0.225642,-8.94859,0,-2.060039,-0.2259258,0.497957,0,0,0,0,0,-3.601069,0,0,3.320802,-1.577973,0,96.14326,-5.361064,0.5,0,0,0,0,-3.85674,0,0,3501,0,0,3865,2,229
11.48.32.748128, 82.95586,-165.0816,28.93877,99.20761,-152.2954,1,0,0,0,0,1.055333,0.2475242,0.5722964,0,1.055333,0.2195246,-0.03859295,0,0,0,0,0,0.7130873,0,0,-2.138267,-0.2238406,-7.402372,0,-2.138267,-0.225642,0.4817039,0,0,0,0,0,-3.712678,0,0,3.812624,-1.466028,0,95.54169,-5.176382,0.5,0,0,0,0,-4.458317,0,0,3501,0,0,3866,2,229
11.48.32.844133, 74.39819,-170.7927,28.85098,82.95586,-165.0816,1,0,0,0,0,1.055333,0.2444524,-0.1236678,0,1.055333,0.2475242,0.005978109,0,0,0,0,0,0.7651386,0,0,-2.138267,-0.2233522,-5.955786,0,-2.138267,-0.2238406,0.339922,0,0,0,0,0,-3.707569,0,0,4.045329,-1.413412,0,95.54169,-4.809158,0.5,0,0,0,0,-4.458317,0,0,3501,0,0,3867,2,229
11.48.32.947139, 56.48924,-180.966,28.74588,74.39819,-170.7927,1,0,0,0,0,1.055333,0.2031669,-1.206148,0,1.055333,0.2444524,0.02737597,0,0,0,0,0,0.7594281,0,0,-2.138267,-0.204864,-1.951151,0,-2.138267,-0.2233522,0.2069634,0,0,0,0,0,-3.706183,0,0,4.486325,-1.315162,0,95.54169,-4.636557,0.5,0,0,0,0,-4.458317,0,0,3501,0,0,3868,2,229
11.48.33.046145, 37.70576,-188.3381,28.45656,56.48924,-180.966,1,0,0,0,0,0.9829764,0.1173974,-1.484364,0,0.9829764,0.2031669,0.05855362,0,0,0,0,0,0.6617675,0,0,-2.083214,-0.1449663,2.843121,0,-2.083214,-0.204864,-0.1566387,0,0,0,0,0,-3.574634,0,0,4.897328,-1.22554,0,94.79721,-4.314256,0.5,0,0,0,0,-5.202785,0,0,3501,0,0,3869,2,229
11.48.33.142151, 28.10837,-190.8985,28.26883,37.70576,-188.3381,1,0,0,0,0,1.32077,0.06709296,-1.208689,0,1.32077,0.1173974,0.06461357,0,0,0,0,0,0.5999442,0,0,-2.083214,-0.09679785,5.078984,0,-2.083214,-0.1449663,-0.5748038,0,0,0,0,0,-3.404747,0,0,5.091682,-1.180231,0,94.42857,-4.020261,0.5,0,0,0,0,-5.571426,0,0,3501,0,0,3870,2,229
11.48.33.245156, 8.653202,-194.7156,28.06258,28.10837,-190.8985,1,0,0,0,0,1.32077,-0.03515865,0.1722351,0,1.32077,0.06709296,0.05316862,0,0,0,0,0,0.5064282,0,0,-2.083214,0.03791283,8.601964,0,-2.083214,-0.09679785,-0.7679341,0,0,0,0,0,-3.268126,0,0,5.458654,-1.090753,0,94.42857,-3.87163,0.5,0,0,0,0,-5.571426,0,0,3501,0,0,3871,2,229
11.48.33.344162, 349.0055,-197.065,27.81157,8.653202,-194.7156,1,0,0,0,0,1.658563,-0.1034435,2.377128,0,1.32077,-0.03515865,0.004467327,0,0,0,0,0,0.3163425,0,0,-2.083214,0.1723059,8.953042,0,-2.083214,0.03791283,-1,0,0,0,0,0,-2.886046,0,0,5.795506,-0.9974681,0,94.42857,-3.578107,0.5,0,0,0,0,-5.940066,0,0,3501,0,0,3872,2,229
11.48.33.447168, 339.1759,-196.7937,27.23025,-10.99454,-197.065,1,0,0,0,0,1.586207,-0.1300576,3.556514,0,1.586207,-0.1034435,-0.06479325,0,0,0,0,0,0.2661123,0,0,-2.028161,0.2342035,7.800365,0,-2.028161,0.1723059,-1,0,0,0,0,0,-2.425756,0,0,5.953039,-0.9537361,0,93.31547,-3.272094,0.5,0,0,0,0,-6.684535,0,0,3501,0,0,3873,2,229
11.48.33.546174, 319.511,-196.0261,26.92119,-20.82413,-196.7937,1,0,0,0,0,0.9942064,-0.1793587,5.554483,0,0.9942064,-0.1300576,-0.1088399,0,0,0,0,0,0.04554848,0,0,-2.106389,0.3349746,3.159966,0,-2.106389,0.2342035,-0.9349937,0,0,0,0,0,-2.36261,0,0,6.248875,-0.8772275,0,93.45117,-3.128636,0.5,0,0,0,0,-6.548831,0,0,3501,0,0,3874,2,229
