MagYaw,YawVelocityDegreesPerSecond,YawIntegral,YawProportional,YawDerivativeError,YawControl,YawIntegralGain,YawDerivativeGain,YawProportionalGain,YawAntiWindupGain,XNEDBodyFrame,XVelocityMetersPerSecond,ThetaPitchDegrees,XIntegral,XProportional,XDerivativeError,LongitudeControl,XIntegralGain,XDerivativeGain,XProportionalGain,XAntiWindupGain,LongitudeInnerLoopGain,XLongitudeOuterLoopSetpoint,PitchAngularVelocityRadsPerSecond,PitchAngularVelocityGain,YNEDBodyFrame,YVelocityMetersPerSecond,PhiRollDegrees,YIntegral,YProportional,YDerivativeError,LateralControl,YIntegralGain,YDerivativeGain,YProportionalGain,YAntiWindupGain,LateralInnerLoopGain,YLateralOuterLoopSetpoint,RollAngularVelocityRadsPerSecond,RollAngularVelocityGain,AltitudeFeetAgl,ZVelocityMetersPerSecond,ZIntegral,ZProportional,ZDerivativeError,MainRotorCollectiveControl,ZIntegralGain,ZDerivativeGain,ZProportionalGain,ZAntiWindupGain,ZNEDBodyFrame,LatitudeDegrees,LongitudeDegrees,Timeouts,UnrecognizedMsgTypes,ChecksumErrors,NumOfBlownFrames,MessageType,NumOfBytesInMsg
1/14/2014 8:02:23 PM 8.451046,8.383118,0,0,0,0,0,0,0,0,0,0.009404672,-1.339827,0,0,0,0,0,0,0,0,0,0,0,0,0,0.01004628,0.6468599,0,0,0,0,0,0,0,0,0,0,0,0,0.09300024,0.0005433683,0,0,0,0,0,0,0,0,0,0,0,3864,0,0,0,2,229
1/14/2014 8:02:23 PM 8.823895,8.290244,0.02112762,8.451046,8.383118,0.1911629,0,0,0,0,0,0.009026539,-1.34609,0,0,0.009404672,0.0420766,0,0,0,0,0,0.01748328,0,0,0,0.01112067,0.6478257,0,0,0.01004628,-0.05688964,0,0,0,0,0,0.02849426,0,0,0.09299763,-2.522288E-05,0.09999999,100,0.001782465,0.5,0,0,0,0,0,0,0,3864,0,0,1,2,229
1/14/2014 8:02:23 PM 9.147638,7.257749,0.04318735,8.823895,8.290244,0.2199551,0,0,0,0,0,0.006546488,-1.351952,0,0,0.009026539,0.04224898,0,0,0,0,0,0.01678034,0,0,0,0.01611196,0.6588243,0,0,0.01112067,-0.05669814,0,0,0,0,0,0.03154154,0,0,0.0930279,0.0001083617,0,100,-8.274113E-05,0.5,0,0,0,0,0,0,0,3864,0,0,2,2,229
1/14/2014 8:02:23 PM 9.864111,7.694284,0.06605645,9.147638,7.257749,0.2470877,0,0,0,0,0,0.07575352,-1.224575,0,0,0.006546488,0.04228777,0,0,0,0,0,0.01216992,0,0,0,0.05730026,0.317215,0,0,0.01611196,-0.05640759,0,0,0,0,0,0.04569836,0,0,0.6144909,-1.754612,0,100,0.0003554698,0.5,0,0,0,0,0,0,0,3864,0,0,3,2,229
1/14/2014 8:02:24 PM 10.51615,6.463655,0.115377,9.864111,7.694284,0.3103679,0,0,0,0,0.3378854,0.0907144,-0.7656291,0,0.3378854,0.07575352,0.04232742,0,0,0,0,0,0.2384747,0,0,0,0.07636091,-0.1702234,0,0,0.05730026,-0.01423187,0,0,0,0,0,0.1625207,0,0,1.191771,-1.788273,0,99.63145,-5.755829,0.5,0,0,0,0,-0.3685559,0,0,3864,0,0,4,2,229
1/14/2014 8:02:24 PM 11.04395,5.362477,0.1416674,10.51615,6.463655,0.3466563,0,0,0,0,0.2657143,0.0970485,-0.1592213,0,0.2657143,0.0907144,0.03134282,0,0,0,0,0,0.2454295,0,0,0.05503213,0.08789768,-0.6967255,0,0.05503213,0.07636091,0.0428616,0,0,0,0,0,0.2956636,0,0,1.747407,-1.744542,0,98.88696,-5.86625,0.5,0,0,0,0,-1.113044,0,0,3864,0,0,5,2,229
1/14/2014 8:02:24 PM 11.31149,2.278607,0.1692773,11.04395,5.362477,0.3821846,0,0,0,0,0.01156747,0.08920344,0.5776801,0,0.2657143,0.0970485,0.0129092,0,0,0,0,0,0.2572046,0,0,-0.02320892,0.1022234,-1.12517,0,0.05503213,0.08789768,0.09431019,0,0,0,0,0,0.3283854,0,0,2.286638,-1.675697,0,98.88696,-5.722797,0.5,0,0,0,0,-1.346041,0,0,3864,0,0,6,2,229
1/14/2014 8:02:24 PM 11.28411,-0.6666119,0.197556,11.31149,2.278607,0.4102785,0,0,0,0,0.2772818,0.07009157,1.42011,0,0.01156747,0.08920344,-0.01266374,0,0,0,0,0,0.1691722,0,0,0.03182328,0.1135658,-1.294204,0,-0.02320892,0.1022234,0.1271215,0,0,0,0,0,0.2565849,0,0,2.808401,-1.597898,0,98.65396,-5.496956,0.5,0,0,0,0,-2.459085,0,0,3864,0,0,7,2,229
1/14/2014 8:02:24 PM 10.97973,-3.385931,0.2539765,11.28411,-0.6666119,0.4612971,0,0,0,0,0.2051108,0.03755182,2.316476,0,0.2051108,0.07009157,-0.03749995,0,0,0,0,0,0.1895773,0,0,0.08685535,0.124706,-1.092954,0,0.08685535,0.1135658,0.1529077,0,0,0,0,0,0.446918,0,0,3.305106,-1.518407,0,96.79642,-5.241745,0.5,0,0,0,0,-3.203574,0,0,3864,0,0,8,2,229
1/14/2014 8:02:24 PM 10.45067,-5.627359,0.2814258,10.97973,-3.385931,0.4786036,0,0,0,0,0.2051108,-0.009523707,3.227262,0,0.2051108,0.03755182,-0.06780909,0,0,0,0,0,0.1290859,0,0,0.08685535,0.1380376,-0.5134719,0,0.08685535,0.124706,0.1445751,0,0,0,0,0,0.4785147,0,0,3.77668,-1.439847,0,96.79642,-4.980982,0.5,0,0,0,0,-3.203574,0,0,3864,0,0,9,2,229
1/14/2014 8:02:24 PM 9.640993,-8.792924,0.3075525,10.45067,-5.627359,0.491232,0,0,0,0,0.1906121,-0.07626288,4.114414,0,0.2051108,-0.009523707,-0.09875636,0,0,0,0,0,0.04157245,0,0,-0.2028998,0.1634144,0.4160865,0,0.08685535,0.1380376,0.09474151,0,0,0,0,0,0.5163271,0,0,4.222196,-1.36295,0,96.79642,-4.723274,0.5,0,0,0,0,-3.895189,0,0,3864,0,0,10,2,229
1/14/2014 8:02:24 PM 8.673042,-10.51319,0.331655,9.640993,-8.792924,0.4951165,0,0,0,0,0.1906121,-0.1553989,4.92505,0,0.1906121,-0.07626288,-0.1302341,0,0,0,0,0,-0.08668581,0,0,-0.2028998,0.1946698,1.537826,0,-0.2028998,0.1634144,-0.02246283,0,0,0,0,0,0.1719253,0,0,4.631445,-1.289591,0,96.10481,-4.47102,0.5,0,0,0,0,-3.895189,0,0,3864,0,0,11,2,229
1/14/2014 8:02:24 PM 7.657206,-11.11957,0.3750202,8.673042,-10.51319,0.517743,0,0,0,0,0.1184411,-0.2448587,5.632935,0,0.1184411,-0.1553989,-0.1599243,0,0,0,0,0,-0.254657,0,0,-0.1478677,0.2318694,2.642732,0,-0.1478677,0.1946698,-0.1175071,0,0,0,0,0,0.3396561,0,0,5.010666,-1.219166,0,95.36032,-4.230373,0.5,0,0,0,0,-4.639677,0,0,3864,0,0,12,2,229
1/14/2014 8:02:24 PM 6.670124,-10.6431,0.3941633,7.657206,-11.11957,0.5171144,0,0,0,0,0.04626989,-0.3404032,6.207482,0,0.04626989,-0.2448587,-0.1883174,0,0,0,0,0,-0.4418203,0,0,-0.09283566,0.2691897,3.41549,0,-0.09283566,0.2318694,-0.1949007,0,0,0,0,0,0.5242464,0,0,5.367789,-1.151466,0,94.61584,-3.999351,0.5,0,0,0,0,-5.384166,0,0,3864,0,0,13,2,229
1/14/2014 8:02:25 PM 5.739338,-9.924444,0.4108386,6.670124,-10.6431,0.5163494,0,0,0,0,0.04626989,-0.4454708,6.630819,0,0.04626989,-0.3404032,-0.2116345,0,0,0,0,0,-0.6194376,0,0,-0.09283566,0.3114178,3.793859,0,-0.09283566,0.2691897,-0.2562561,0,0,0,0,0,0.6300979,0,0,5.711033,-1.084818,0,94.61584,-3.77727,0.5,0,0,0,0,-5.384166,0,0,3864,0,0,14,2,229
1/14/2014 8:02:25 PM 4.869581,-8.754919,0.4251869,5.739338,-9.924444,0.5146999,0,0,0,0,0.04626989,-0.5515677,6.858504,0,0.04626989,-0.4454708,-0.2308129,0,0,0,0,0,-0.8147581,0,0,-0.09283566,0.3501642,3.596116,0,-0.09283566,0.3114178,-0.2800471,0,0,0,0,0,0.7498696,0,0,6.038195,-1.02314,0,94.61584,-3.558638,0.5,0,0,0,0,-5.384166,0,0,3864,0,0,15,2,229
1/14/2014 8:02:25 PM 4.171165,-6.596815,0.4495348,4.869581,-8.754919,0.5249268,0,0,0,0,-0.02590108,-0.6512305,6.839242,0,-0.02590108,-0.5515677,-0.2439854,0,0,0,0,0,-1.03285,0,0,-0.03780353,0.3768417,2.667971,0,-0.03780353,0.3501642,-0.2517442,0,0,0,0,0,0.9388471,0,0,6.34827,-0.9696034,0,93.87135,-3.356308,0.5,0,0,0,0,-6.128654,0,0,3864,0,0,16,2,229
1/14/2014 8:02:25 PM 3.73143,-3.702799,0.4599628,4.171165,-6.596815,0.5260419,0,0,0,0,0.05783725,-0.7377713,6.554775,0,0.05783725,-0.6512305,-0.2490281,0,0,0,0,0,-1.193923,0,0,-0.1160445,0.3846583,1.067849,0,-0.1160445,0.3768417,-0.162462,0,0,0,0,0,0.90208,0,0,6.641316,-0.9277217,0,93.26979,-3.180687,0.5,0,0,0,0,-6.730207,0,0,3864,0,0,17,2,229
1/14/2014 8:02:25 PM 3.586123,-0.7770098,0.4692913,3.73143,-3.702799,0.5320591,0,0,0,0,-0.2800481,-0.808497,5.99811,0,0.05783725,-0.7377713,-0.2451969,0,0,0,0,0,-1.354802,0,0,-0.1160445,0.370813,-1.06544,0,-0.1160445,0.3846583,-0.01321105,0,0,0,0,0,0.9242503,0,0,6.928366,-0.897647,0,93.26979,-3.043298,0.5,0,0,0,0,-6.361651,0,0,3864,0,0,18,2,229
1/14/2014 8:02:25 PM 3.74411,2.072673,0.4782566,3.586123,-0.7770098,0.5432042,0,0,0,0,-0.3522191,-0.8587624,5.194953,0,-0.2800481,-0.808497,-0.2350432,0,0,0,0,0,-1.58393,0,0,-0.06101251,0.3339228,-3.393265,0,-0.1160445,0.370813,0.1794388,0,0,0,0,0,0.884981,0,0,7.211906,-0.8786974,0,93.63835,-2.944641,0.5,0,0,0,0,-7.106139,0,0,3864,0,0,19,2,229
1/14/2014 8:02:25 PM 4.590319,6.453608,0.4969772,3.74411,2.072673,0.5695803,0,0,0,0,-0.3522191,-0.8906585,3.698926,0,-0.3522191,-0.8587624,-0.2136887,0,0,0,0,0,-1.698231,0,0,-0.06101251,0.2481964,-6.156101,0,-0.06101251,0.3339228,0.391248,0,0,0,0,0,0.8594303,0,0,7.62451,-0.8661874,0,92.89386,-2.882479,0.5,0,0,0,0,-7.106139,0,0,3864,0,0,20,2,229
1/14/2014 8:02:25 PM 4.590319,6.453608,0.508453,4.590319,6.453608,0.6039692,0,0,0,0,-0.4243903,-0.8906585,3.698926,0,-0.4243903,-0.8906585,-0.1697966,0,0,0,0,0,-1.778383,0,0,-0.005980015,0.2481964,-6.156101,0,-0.005980015,0.2481964,0.6303349,0,0,0,0,0,0.6953661,0,0,7.62451,-0.8661874,0,92.14938,-2.841441,0.5,0,0,0,0,-7.850627,0,0,3865,0,0,21,2,229
1/14/2014 8:02:25 PM 6.523222,10.36723,0.5199288,4.590319,6.453608,0.615445,0,0,0,0,-0.4243903,-0.8880113,1.617416,0,-0.4243903,-0.8906585,-0.1697966,0,0,0,0,0,-1.778383,0,0,-0.005980015,0.1736425,-6.031357,0,-0.005980015,0.2481964,0.6303349,0,0,0,0,0,0.6953661,0,0,8.139404,-0.8598922,0,92.14938,-2.841441,0.5,0,0,0,0,-7.850627,0,0,3865,0,0,22,2,229
1/14/2014 8:02:25 PM 7.661266,11.16916,0.5362369,6.523222,10.36723,0.6739617,0,0,0,0,-0.6785369,-0.8859085,0.6004786,0,-0.4243903,-0.8880113,-0.1051172,0,0,0,0,0,-1.773462,0,0,-0.08422112,0.1840581,-3.869579,0,-0.005980015,0.1736425,0.5994045,0,0,0,0,0,0.483909,0,0,8.396892,-0.8569037,0,92.14938,-2.820791,0.5,0,0,0,0,-8.083624,0,0,3865,0,0,23,2,229
1/14/2014 8:02:26 PM 8.734541,11.35665,0.5745432,7.661266,11.16916,0.734622,0,0,0,0,-0.7507081,-0.8978032,-0.3353258,0,-0.7507081,-0.8859085,-0.07574787,0,0,0,0,0,-1.863859,0,0,-0.02918911,0.2496238,-0.185148,0,-0.02918911,0.1840581,0.392895,0,0,0,0,0,0.4800992,0,0,8.648958,-0.8500113,0,91.17189,-2.810987,0.5,0,0,0,0,-8.828114,0,0,3865,0,0,24,2,229
1/14/2014 8:02:26 PM 9.615143,9.124844,0.5963796,8.734541,11.35665,0.7765945,0,0,0,0,-0.7507081,-0.9382207,-1.169359,0,-0.7507081,-0.8978032,-0.04806999,0,0,0,0,0,-1.885971,0,0,-0.02918911,0.3828415,4.742876,0,-0.02918911,0.2496238,0.07831144,0,0,0,0,0,0.6660632,0,0,8.902694,-0.8276979,0,91.17189,-2.788377,0.5,0,0,0,0,-8.828114,0,0,3865,0,0,25,2,229
1/14/2014 8:02:26 PM 10.03703,3.590635,0.6204174,9.615143,9.124844,0.8131877,0,0,0,0,-0.4128227,-1.005522,-1.812197,0,-0.7507081,-0.9382207,-0.02454418,0,0,0,0,0,-1.961107,0,0,-0.02918911,0.5861737,10.00589,0,-0.02918911,0.3828415,-0.340305,0,0,0,0,0,1.043908,0,0,9.146139,-0.7823859,0,91.17189,-2.71518,0.5,0,0,0,0,-9.196669,0,0,3865,0,0,26,2,229
1/14/2014 8:02:26 PM 8.410826,-20.48203,0.64551,10.03703,3.590635,0.8368731,0,0,0,0,-0.4128227,-1.147985,-2.032145,0,-0.4128227,-1.005522,-0.005467596,0,0,0,0,0,-1.988571,0,0,-0.02918911,1.075297,17.4173,0,-0.02918911,0.5861737,-0.7714449,0,0,0,0,0,1.62062,0,0,9.432246,-0.5301346,0,90.80333,-2.566539,0.5,0,0,0,0,-9.196669,0,0,3865,0,0,27,2,229
1/14/2014 8:02:26 PM 5.098618,-42.80262,0.6875642,8.410826,-20.48203,0.8088714,0,0,0,0,-0.8228793,-1.250013,-1.273395,0,-0.8228793,-1.147985,-0.00685921,0,0,0,0,0,-2.371916,0,0,0.02584291,1.435942,20.71226,0,0.02584291,1.075297,-1,0,0,0,0,0,3.087,0,0,9.527976,-0.2359866,0,90.4274,-1.739053,0.5,0,0,0,0,-9.572601,0,0,3865,0,0,28,2,229
1/14/2014 8:02:26 PM 2.657204,-54.63958,0.7003108,5.098618,-42.80262,0.7233327,0,0,0,0,-0.8228793,-1.297895,-0.5267488,0,-0.8228793,-1.250013,-0.03993391,0,0,0,0,0,-2.561586,0,0,0.02584291,1.606555,21.5343,0,0.02584291,1.435942,-1,0,0,0,0,0,4.109899,0,0,9.539039,-0.06122141,0,90.4274,-0.7741305,0.5,0,0,0,0,-9.572601,0,0,3865,0,0,29,2,229
1/14/2014 8:02:26 PM 359.6907,-65.71558,0.7069538,2.657204,-54.63958,0.6652027,0,0,0,0,-0.8228793,-1.348363,0.4633044,0,-0.8228793,-1.297895,-0.06583934,0,0,0,0,0,-2.650599,0,0,0.02584291,1.781831,21.65629,0,0.02584291,1.606555,-1,0,0,0,0,0,4.593808,0,0,9.523675,0.1126563,0,90.4274,-0.2008307,0.5,0,0,0,0,-9.572601,0,0,3865,0,0,30,2,229
1/14/2014 8:02:26 PM 352.709,-77.90472,0.7061806,-0.3092651,-65.71558,0.5912232,0,0,0,0,-0.7417493,-1.441123,2.8514,0,-0.8228793,-1.348363,-0.09943943,0,0,0,0,0,-2.744419,0,0,1.138446,2.102696,19.76327,0,0.02584291,1.781831,-1,0,0,0,0,0,5,0,0,9.421725,0.4018168,0,90.4274,0.3695578,0.5,0,0,0,0,-9.498222,0,0,3865,0,0,31,2,229
1/14/2014 8:02:26 PM 344.8494,-83.52596,0.6697255,-7.291016,-77.90472,0.4055452,0,0,0,0,-1.333782,-1.514591,5.34772,0,-1.333782,-1.441123,-0.1780892,0,0,0,0,0,-3.064511,0,0,1.060205,2.335479,15.41291,0,1.060205,2.102696,-1,0,0,0,0,0,5,0,0,9.199777,0.7775855,0,90.63734,1.31812,0.5,0,0,0,0,-9.362664,0,0,3865,0,0,32,2,229
1/14/2014 8:02:26 PM 341.0996,-78.21942,0.6318489,-15.15063,-83.52596,0.2131488,0,0,0,0,-1.41752,-1.548627,6.393575,0,-1.41752,-1.514591,-0.2657633,0,0,0,0,0,-3.225289,0,0,1.138446,2.402962,12.39659,0,1.138446,2.335479,-0.9579878,0,0,0,0,0,5,0,0,9.054173,0.9151301,0,91.23889,2.550792,0.5,0,0,0,0,-8.76111,0,0,3865,0,0,33,2,229
1/14/2014 8:02:27 PM 335.4146,-48.08277,0.5845979,-18.90039,-78.21942,0.1054576,0,0,0,0,-1.492301,-1.662485,7.726673,0,-1.41752,-1.548627,-0.3001462,0,0,0,0,0,-3.288561,0,0,2.384322,2.44432,4.923931,0,1.138446,2.402962,-0.6804858,0,0,0,0,0,5,0,0,8.789577,0.7792909,0,91.23889,3.001993,0.5,0,0,0,0,-8.829668,0,0,3865,0,0,34,2,229
1/14/2014 8:02:27 PM 334.4677,-19.06933,0.5231345,-24.58536,-48.08277,-0.01091395,0,0,0,0,-1.902357,-1.751156,7.920655,0,-1.492301,-1.662485,-0.3487037,0,0,0,0,0,-3.521834,0,0,2.439355,2.372465,0.6422112,0,2.384322,2.44432,0.006998381,0,0,0,0,0,5,0,0,8.71303,0.4827786,0,91.17033,2.556386,0.5,0,0,0,0,-9.205601,0,0,3865,0,0,35,2,229
1/14/2014 8:02:27 PM 337.2106,43.22799,0.3954731,-25.53229,-19.06933,-0.1078345,0,0,0,0,-1.830186,-1.979568,7.951344,0,-1.830186,-1.751156,-0.3635008,0,0,0,0,0,-3.784322,0,0,2.384322,2.025824,-8.268162,0,2.384322,2.372465,0.4009166,0,0,0,0,0,5,0,0,8.774999,-0.4379393,0,91.53889,1.583707,0.5,0,0,0,0,-8.461112,0,0,3865,0,0,36,2,229
1/14/2014 8:02:27 PM 341.1533,77.65386,0.3384995,-22.78943,43.22799,-0.01058228,0,0,0,0,-1.902357,-2.095573,8.118858,0,-1.902357,-1.979568,-0.3776154,0,0,0,0,0,-4.229797,0,0,2.439355,1.755008,-11.89095,0,2.439355,2.025824,1,0,0,0,0,0,5,0,0,8.933845,-0.9646135,0,90.7944,-1.436616,0.5,0,0,0,0,-9.205601,0,0,3865,0,0,37,2,229
1/14/2014 8:02:27 PM 353.5028,135.6253,0.2913826,-18.84674,77.65386,0.07235549,0,0,0,0,-2.494389,-2.290737,9.241333,0,-1.902357,-2.095573,-0.3894936,0,0,0,0,0,-4.445451,0,0,2.361114,1.123211,-15.51257,0,2.439355,1.755008,1,0,0,0,0,0,5,0,0,9.559128,-2.219564,0,90.7944,-3.164318,0.5,0,0,0,0,-9.070042,0,0,3865,0,0,38,2,229
1/14/2014 8:02:27 PM 1.446632,155.4537,0.2751397,-6.497162,135.6253,0.3805928,0,0,0,0,-2.494389,-2.358442,10.11339,0,-2.494389,-2.290737,-0.4408414,0,0,0,0,0,-4.979358,0,0,2.361114,0.8267976,-14.9537,0,2.361114,1.123211,1,0,0,0,0,0,5,0,0,10.01642,-2.793812,0,90.92996,-7.281057,0.5,0,0,0,0,-9.070042,0,0,3865,0,0,39,2,229
1/14/2014 8:02:27 PM 10.22063,171.1336,0.2823729,1.446632,155.4537,0.5675184,0,0,0,0,-2.56656,-2.416072,10.99046,0,-2.56656,-2.358442,-0.4717768,0,0,0,0,0,-5.126079,0,0,2.416146,0.5531731,-12.84965,0,2.416146,0.8267976,1,0,0,0,0,0,5,0,0,10.56667,-3.361844,0,90.18547,-9.164821,0.5,0,0,0,0,-9.814529,0,0,3865,0,0,40,2,229
1/14/2014 8:02:27 PM 10.22063,171.1336,0.3079245,10.22063,171.1336,0.7812006,0,0,0,0,-3.230763,-2.416072,10.99046,0,-3.230763,-2.416072,-0.5088845,0,0,0,0,0,-5.425169,0,0,2.392937,0.5531731,-12.84965,0,2.392937,0.5531731,1,0,0,0,0,0,5,0,0,10.56667,-3.361844,0,89.57654,-11.02819,0.5,0,0,0,0,-10.42346,0,0,3865,0,0,41,2,229
1/14/2014 8:02:27 PM 10.22063,171.1336,0.3334761,10.22063,171.1336,0.8067522,0,0,0,0,-3.230763,-2.416072,10.99046,0,-3.230763,-2.416072,-0.5088845,0,0,0,0,0,-5.425169,0,0,2.392937,0.5531731,-12.84965,0,2.392937,0.5531731,1,0,0,0,0,0,5,0,0,10.56667,-3.361844,0,89.57654,-11.02819,0.5,0,0,0,0,-10.42346,0,0,3865,0,0,42,2,229
1/14/2014 8:02:27 PM 27.00525,155.1084,0.3590277,10.22063,171.1336,0.8323038,0,0,0,0,-3.230763,-2.59146,11.51694,0,-3.230763,-2.416072,-0.5088845,0,0,0,0,0,-5.425169,0,0,2.392937,0.2614246,-5.745042,0,2.392937,0.5531731,1,0,0,0,0,0,5,0,0,11.89194,-4.253578,0,89.57654,-11.02819,0.5,0,0,0,0,-10.42346,0,0,3865,0,0,43,2,229
1/14/2014 8:02:28 PM 40.43214,120.2843,0.4922219,27.00525,155.1084,1,0,0,0,0,-3.375105,-2.800107,10.46993,0,-3.375105,-2.59146,-0.5353129,0,0,0,0,0,-5.792929,0,0,2.503001,0.3809862,2.950381,0,2.503001,0.2614246,0.9131157,0,0,0,0,0,4.338291,0,0,13.13478,-3.568629,0,88.08756,-13.95344,0.5,0,0,0,0,-11.91244,0,0,3865,0,0,44,2,229
1/14/2014 8:02:28 PM 47.60545,51.46636,0.5908133,40.43214,120.2843,1,0,0,0,0,-3.363538,-3.418329,9.565628,0,-3.363538,-2.800107,-0.5160691,0,0,0,0,0,-6.177462,0,0,2.479792,0.5294065,12.18423,0,2.479792,0.3809862,0.1558178,0,0,0,0,0,4.644053,0,0,14.22657,-3.451826,0,86.74152,-11.70653,0.5,0,0,0,0,-13.25848,0,0,3865,0,0,45,2,229
1/14/2014 8:02:28 PM 47.78188,3.848168,0.704451,47.60545,51.46636,1,0,0,0,0,-3.533946,-4.089888,9.452875,0,-3.363538,-3.418329,-0.5236633,0,0,0,0,0,-7.326737,0,0,2.32331,0.5703519,16.67609,0,2.479792,0.5294065,-0.6609496,0,0,0,0,0,5,0,0,14.93505,-4.349293,0,86.74152,-11.32337,0.5,0,0,0,0,-14.09303,0,0,3865,0,0,46,2,229
1/14/2014 8:02:28 PM 42.51708,-60.69732,0.8172124,47.78188,3.848168,1,0,0,0,0,-3.450207,-6.080819,9.547662,0,-3.533946,-4.089888,-0.5603958,0,0,0,0,0,-8.624412,0,0,2.245069,0.663415,24.20611,0,2.32331,0.5703519,-1,0,0,0,0,0,4.956285,0,0,17.12221,-7.611312,0,85.90697,-14.26742,0.5,0,0,0,0,-14.69458,0,0,3865,0,0,47,2,229
1/14/2014 8:02:28 PM 36.86887,-32.74755,1.016727,42.51708,-60.69732,1,0,0,0,0,-4.668809,-7.902893,8.285431,0,-4.668809,-6.080819,-0.6773194,0,0,0,0,0,-12.65353,0,0,2.386957,0.5724969,25.64251,0,2.386957,0.663415,-1,0,0,0,0,0,5,0,0,20.53621,-11.44477,0,82.83158,-24.96815,0.5,0,0,0,0,-17.16842,0,0,3865,0,0,48,2,229
1/14/2014 8:02:28 PM 35.86214,-5.702667,1.101888,36.86887,-32.74755,1,0,0,0,0,-4.463699,-8.534079,6.84628,0,-4.463699,-7.902893,-0.6598483,0,0,0,0,0,-13,0,0,2.473812,0.4369032,23.02996,0,2.473812,0.5724969,-1,0,0,0,0,0,5,0,0,22.69552,-13.2251,0,79.62801,-37.54343,0.5,0,0,0,0,-20.37199,0,0,3865,0,0,49,2,229
1/14/2014 8:02:28 PM 35.68843,14.10699,1.184259,35.86214,-5.702667,1,0,0,0,0,-4.778448,-9.092957,4.806493,0,-4.463699,-8.534079,-0.6152347,0,0,0,0,0,-13,0,0,2.427394,0.1931576,15.05712,0,2.473812,0.4369032,-1,0,0,0,0,0,4.794056,0,0,27.40818,-14.86218,0,79.62801,-43.38363,0.5,0,0,0,0,-22.69552,0,0,3865,0,0,50,2,229
1/14/2014 8:02:28 PM 39.50826,51.1259,1.265108,35.68843,14.10699,1,0,0,0,0,-6.01709,-9.186972,2.25973,0,-4.778448,-9.092957,-0.5520013,0,0,0,0,0,-13,0,0,3.157407,-0.03911151,5.801381,0,2.427394,0.1931576,-1,0,0,0,0,0,4.036018,0,0,32.70994,-16.61518,0,77.30448,-48.75389,0.5,0,0,0,0,-27.2227,0,0,3865,0,0,51,2,229
1/14/2014 8:02:28 PM 46.2999,73.08496,1.44148,39.50826,51.1259,1,0,0,0,0,-7.212556,-8.884891,0.2893921,0,-7.212556,-9.186972,-0.4730516,0,0,0,0,0,-13,0,0,3.252876,-0.2760333,-4.130665,0,3.252876,-0.03911151,-0.1265109,0,0,0,0,0,4.563451,0,0,38.43159,-17.6761,0,67.61138,-54.50443,0.5,0,0,0,0,-32.38862,0,0,3865,0,0,52,2,229
1/14/2014 8:02:28 PM 54.4573,81.8973,1.544668,46.2999,73.08496,1,0,0,0,0,-7.969293,-8.403669,-0.03019303,0,-7.969293,-8.884891,-0.4119712,0,0,0,0,0,-13,0,0,2.369016,-0.4527879,-14.53833,0,2.369016,-0.2760333,0.6211866,0,0,0,0,0,2.621362,0,0,44.27975,-17.84214,0,61.49104,-57.98469,0.5,0,0,0,0,-38.50896,0,0,3865,0,0,53,2,229
1/14/2014 8:02:29 PM 62.72103,83.58575,1.665597,54.4573,81.8973,1,0,0,0,0,-9.335167,-8.053846,1.517843,0,-7.969293,-8.403669,-0.402064,0,0,0,0,0,-13,0,0,2.308003,-0.5285493,-23.09013,0,2.369016,-0.4527879,1,0,0,0,0,0,2.120034,0,0,49.96933,-17.19672,0,61.49104,-58.52935,0.5,0,0,0,0,-44.50944,0,0,3865,0,0,54,2,229
1/14/2014 8:02:29 PM 66.67706,82.41325,1.804323,62.72103,83.58575,1,0,0,0,0,-10.34866,-8.057823,2.778369,0,-9.335167,-8.053846,-0.4500531,0,0,0,0,0,-13,0,0,2.536745,-0.5317033,-25.84908,0,2.308003,-0.5285493,1,0,0,0,0,0,1.817477,0,0,52.66801,-16.50537,0,55.49056,-56.41213,0.5,0,0,0,0,-50.18685,0,0,3865,0,0,55,2,229
1/14/2014 8:02:29 PM 74.22041,78.48075,2.093505,66.67706,82.41325,1,0,0,0,0,-10.76164,-8.128503,5.560009,0,-10.76164,-8.057823,-0.4891294,0,0,0,0,0,-13,0,0,2.278814,-0.5201547,-29.02372,0,2.278814,-0.5317033,1,0,0,0,0,0,1.766586,0,0,57.65592,-14.83893,0,47.39956,-54.14423,0.5,0,0,0,0,-52.60044,0,0,3865,0,0,56,2,229
1/14/2014 8:02:29 PM 81.43245,76.75596,2.254435,74.22041,78.48075,1,0,0,0,0,-10.95502,-8.297114,8.530864,0,-10.95502,-8.128503,-0.5753603,0,0,0,0,0,-13,0,0,2.397493,-0.480983,-29.11838,0,2.397493,-0.5201547,1,0,0,0,0,0,1.969883,0,0,62.07364,-13.12016,0,42.47401,-48.67762,0.5,0,0,0,0,-57.52599,0,0,3865,0,0,57,2,229
1/14/2014 8:02:29 PM 88.95708,81.6289,2.430458,81.43245,76.75596,1,0,0,0,0,-12.33247,-8.438844,11.63743,0,-10.95502,-8.297114,-0.6674568,0,0,0,0,0,-13,0,0,2.35969,-0.4338736,-26.44727,0,2.397493,-0.480983,1,0,0,0,0,0,2.080986,0,0,65.96052,-11.5399,0,42.47401,-43.03937,0.5,0,0,0,0,-62.18042,0,0,3865,0,0,58,2,229
1/14/2014 8:02:29 PM 98.08086,99.77914,2.622228,88.95708,81.6289,1,0,0,0,0,-12.79156,-8.534228,15.11909,0,-12.33247,-8.438844,-0.7637605,0,0,0,0,0,-13,0,0,2.423336,-0.3557974,-20.96481,0,2.35969,-0.4338736,1,0,0,0,0,0,2.160279,0,0,69.33807,-9.993049,0,37.81958,-37.85548,0.5,0,0,0,0,-65.99292,0,0,3865,0,0,59,2,229
1/14/2014 8:02:29 PM 103.2344,103.8585,3.040512,98.08086,99.77914,1,0,0,0,0,-14.09683,-8.561792,16.729,0,-14.09683,-8.534228,-0.8716918,0,0,0,0,0,-13,0,0,2.330502,-0.32356,-17.17436,0,2.330502,-0.3557974,1,0,0,0,0,0,2.339783,0,0,70.8576,-9.336472,0,30.09714,-32.7812,0.5,0,0,0,0,-69.90286,0,0,3865,0,0,60,2,229
1/14/2014 8:02:29 PM 113.6011,98.03356,3.258418,103.2344,103.8585,1,0,0,0,0,-14.42315,-8.622679,18.87395,0,-14.42315,-8.561792,-0.9215989,0,0,0,0,0,-13,0,0,2.307291,-0.3113399,-7.919141,0,2.307291,-0.32356,1,0,0,0,0,0,2.397864,0,0,73.61139,-8.197551,0,29.11966,-30.62736,0.5,0,0,0,0,-70.88034,0,0,3865,0,0,61,2,229
1/14/2014 8:02:29 PM 122.4619,77.35621,3.499042,113.6011,98.03356,1,0,0,0,0,-15.30387,-8.714417,19.21935,0,-14.42315,-8.622679,-0.9880926,0,0,0,0,0,-13,0,0,2.449179,-0.3789465,2.638248,0,2.307291,-0.3113399,0.9523532,0,0,0,0,0,2.432524,0,0,76.01645,-7.178676,0,29.11966,-26.89125,0.5,0,0,0,0,-73.72274,0,0,3865,0,0,62,2,229
1/14/2014 8:02:29 PM 125.8374,63.65318,3.757593,122.4619,77.35621,1,0,0,0,0,-15.9565,-8.767923,18.84404,0,-15.30387,-8.714417,-0.9987999,0,0,0,0,0,-13,0,0,2.402761,-0.4441577,8.08429,0,2.449179,-0.3789465,-0.01780968,0,0,0,0,0,2.444664,0,0,77.09643,-6.699701,0,26.27726,-23.54893,0.5,0,0,0,0,-75.67772,0,0,3865,0,0,63,2,229
1/14/2014 8:02:30 PM 130.1488,35.11681,4.280789,125.8374,63.65318,1,0,0,0,0,-16.10084,-8.885447,17.5669,0,-16.10084,-8.767923,-0.9871653,0,0,0,0,0,-13,0,0,2.512825,-0.6232561,18.99931,0,2.512825,-0.4441577,-0.5419983,0,0,0,0,0,2.351165,0,0,79.02126,-5.777217,0,22.83331,-21.9777,0.5,0,0,0,0,-77.16669,0,0,3865,0,0,64,2,229
1/14/2014 8:02:30 PM 131.1224,5.7523,4.549052,130.1488,35.11681,1,0,0,0,0,-17.1896,-8.972034,16.33253,0,-17.1896,-8.885447,-0.9475739,0,0,0,0,0,-13,0,0,2.254892,-0.8462112,26.98839,0,2.254892,-0.6232561,-1,0,0,0,0,0,1.472539,0,0,80.68076,-5.026843,0,21.15683,-18.95158,0.5,0,0,0,0,-78.84317,0,0,3865,0,0,65,2,229
1/14/2014 8:02:30 PM 130.4596,-7.738617,4.816744,131.1224,5.7523,1,0,0,0,0,-17.744,-9.013696,15.9332,0,-17.1896,-8.972034,-0.9093083,0,0,0,0,0,-13,0,0,2.419989,-0.9678355,29.24873,0,2.254892,-0.8462112,-1,0,0,0,0,0,0.8401716,0,0,81.41747,-4.693988,0,21.15683,-16.49006,0.5,0,0,0,0,-80.70807,0,0,3865,0,0,66,2,229
1/14/2014 8:02:30 PM 127.232,-30.62218,5.08041,130.4596,-7.738617,1,0,0,0,0,-18.4082,-9.114156,15.61158,0,-17.744,-9.013696,-0.8969292,0,0,0,0,0,-13,0,0,2.39678,-1.214247,30.41267,0,2.419989,-0.9678355,-1,0,0,0,0,0,0.7324522,0,0,82.74648,-4.030911,0,19.29193,-15.39816,0.5,0,0,0,0,-81.317,0,0,3865,0,0,67,2,229
1/14/2014 8:02:30 PM 122.1689,-44.45391,5.585469,127.232,-30.62218,1,0,0,0,0,-19.07241,-9.197313,15.51529,0,-19.07241,-9.114156,-0.8869588,0,0,0,0,0,-13,0,0,2.373573,-1.439673,27.35945,0,2.373573,-1.214247,-1,0,0,0,0,0,-0.03314471,0,0,83.90018,-3.483032,0,18.07407,-13.223,0.5,0,0,0,0,-81.92593,0,0,3865,0,0,68,2,229
1/14/2014 8:02:30 PM 119.2966,-47.2051,5.822044,122.1689,-44.45391,1,0,0,0,0,-20.96678,-9.225159,15.30643,0,-20.96678,-9.197313,-0.8839738,0,0,0,0,0,-13,0,0,2.515461,-1.54249,24.62208,0,2.515461,-1.439673,-1,0,0,0,0,0,-0.4686265,0,0,84.40888,-3.274837,0,16.33734,-11.42574,0.5,0,0,0,0,-83.66266,0,0,3865,0,0,69,2,229
1/14/2014 8:02:30 PM 113.5749,-45.59899,6.050239,119.2966,-47.2051,1,0,0,0,0,-20.98128,-9.242606,14.15655,0,-20.96678,-9.225159,-0.8774993,0,0,0,0,0,-13,0,0,2.225702,-1.733516,17.33654,0,2.515461,-1.54249,-1,0,0,0,0,0,-0.7602477,0,0,85.34688,-3.032776,0,16.33734,-10.74278,0.5,0,0,0,0,-84.35428,0,0,3865,0,0,70,2,229
1/14/2014 8:02:30 PM 108.7365,-36.9517,6.262423,113.5749,-45.59899,1,0,0,0,0,-21.64287,-9.185547,11.77225,0,-20.98128,-9.242606,-0.8418531,0,0,0,0,0,-13,0,0,1.01165,-1.890929,8.354963,0,2.225702,-1.733516,-1,0,0,0,0,0,-1.718437,0,0,86.30466,-3.077457,0,15.64572,-9.948718,0.5,0,0,0,0,-85.63914,0,0,3865,0,0,71,2,229
1/14/2014 8:02:30 PM 105.5769,-24.25923,6.659176,108.7365,-36.9517,1,0,0,0,0,-22.46299,-9.009495,8.206853,0,-22.46299,-9.185547,-0.7679396,0,0,0,0,0,-13,0,0,1.121716,-1.952723,-1.596959,0,1.121716,-1.890929,-1,0,0,0,0,0,-3.751335,0,0,87.36442,-3.429826,0,13.60899,-10.09529,0.5,0,0,0,0,-86.39101,0,0,3865,0,0,72,2,229
1/14/2014 8:02:30 PM 104.55,-10.30601,6.847056,105.5769,-24.25923,1,0,0,0,0,-23.53724,-8.664135,3.828071,0,-23.53724,-9.009495,-0.6574124,0,0,0,0,0,-13,0,0,1.153538,-1.823647,-12.04023,0,1.153538,-1.952723,-0.2101201,0,0,0,0,0,-3.880874,0,0,88.57426,-4.02821,0,12.62414,-11.2512,0.5,0,0,0,0,-87.37586,0,0,3865,0,0,73,2,229
1/14/2014 8:02:31 PM 105.738,2.343958,7.030862,104.55,-10.30601,1,0,0,0,0,-24.79087,-8.120247,-0.7855507,0,-23.53724,-8.664135,-0.5216702,0,0,0,0,0,-13,0,0,-0.1387558,-1.425421,-22.73928,0,1.153538,-1.823647,0.7843414,0,0,0,0,0,-3.514776,0,0,90.02115,-4.739259,0.0009667212,12.62414,-13.21414,0.5,0,0,0,0,-88.52517,0,0,3865,0,0,74,2,229
1/14/2014 8:02:31 PM 107.078,7.648235,7.215758,105.738,2.343958,1,0,0,0,0,-25.52725,-7.830822,-2.940189,0,-24.79087,-8.120247,-0.3786479,0,0,0,0,0,-13,0,0,-0.1069336,-1.161172,-27.56518,0,-0.1387558,-1.425421,1,0,0,0,0,0,-4.242313,0,0,90.8287,-4.992488,0.002927179,11.47483,-15.54667,0.5,0,0,0,0,-89.87859,0,0,3865,0,0,75,2,229
1/14/2014 8:02:31 PM 110.8575,16.14195,7.585498,107.078,7.648235,1,0,0,0,0,-25.51568,-7.290781,-6.613253,0,-25.51568,-7.830822,-0.3118541,0,0,0,0,0,-13,0,0,-0.1301422,-0.5693253,-35.04948,0,-0.1301422,-1.161172,1,0,0,0,0,0,-3.480446,0,0,92.54549,-5.309978,0.02155702,8.775375,-16.37736,0.3525262,0,0,0,0,-91.22462,0,0,3865,0,0,76,2,229
1/14/2014 8:02:31 PM 115.4484,22.2135,7.776881,110.8575,16.14195,1,0,0,0,0,-26.58994,-6.84871,-9.257154,0,-26.58994,-7.290781,-0.1979892,0,0,0,0,0,-13,0,0,-0.09831619,0.04136955,-37.77831,0,-0.09831619,-0.5693253,1,0,0,0,0,0,-1.756058,0,0,94.27701,-5.373933,0.02934754,7.790512,-17.41885,0.2903165,0,0,0,0,-92.20949,0,0,3865,0,0,77,2,229
1/14/2014 8:02:31 PM 120.054,25.21902,7.976988,115.4484,22.2135,1,0,0,0,0,-27.80854,-6.670534,-11.031,0,-26.58994,-6.84871,-0.1160282,0,0,0,0,0,-13,0,0,0.04357147,0.3645235,-36.66671,0,-0.09831619,0.04136955,1,0,0,0,0,0,-0.02394393,0,0,95.90278,-4.850093,0.03713805,7.790512,-17.62865,0.2957133,0,0,0,0,-94.68332,0,0,3865,0,0,78,2,229
1/14/2014 8:02:31 PM 124.1123,22.26369,8.185659,120.054,25.21902,1,0,0,0,0,-27.79697,-6.734459,-12.46437,0,-27.80854,-6.670534,-0.06103911,0,0,0,0,0,-13,0,0,0.02035904,0.2937318,-33.40195,0,0.04357147,0.3645235,1,0,0,0,0,0,1.09651,0,0,97.18938,-3.759778,0.04245473,5.316681,-15.91025,0.1746562,0,0,0,0,-96.02937,0,0,3865,0,0,79,2,229
1/14/2014 8:02:31 PM 127.0773,13.72873,8.61446,124.1123,22.26369,1,0,0,0,0,-28.63158,-6.781099,-13.97294,0,-28.63158,-6.734459,-0.01660468,0,0,0,0,0,-13,0,0,-0.1593285,0.2874912,-28.30602,0,-0.1593285,0.2937318,1,0,0,0,0,0,0.6041566,0,0,98.18048,-2.850623,0.04895253,2.527161,-12.33358,0.05735415,0,0,0,0,-97.47284,0,0,3865,0,0,80,2,229
1/14/2014 8:02:31 PM 128.5516,1.306674,8.832713,127.0773,13.72873,1,0,0,0,0,-29.45169,-6.884333,-15.73897,0,-29.45169,-6.781099,0.03016118,0,0,0,0,0,-13,0,0,-0.04926682,0.00435706,-21.76252,0,-0.04926682,0.2874912,1,0,0,0,0,0,0.7446148,0,0,98.752,-1.499113,0.05072783,1.775299,-9.351184,0.04879121,0,0,0,0,-98.2247,0,0,3865,0,0,81,2,229
1/14/2014 8:02:31 PM 128.2864,-12.71593,9.052064,128.5516,1.306674,1,0,0,0,0,-29.77802,-6.929835,-17.65891,0,-29.45169,-6.884333,0.084908,0,0,0,0,0,-13,0,0,-0.07247543,-0.369071,-14.12965,0,-0.04926682,0.00435706,1,0,0,0,0,0,-0.05843849,0,0,98.79256,0.109791,0.05250312,1.775299,-4.91769,0.1011527,0,0,0,0,-99.20219,0,0,3865,0,0,82,2,229
1/14/2014 8:02:31 PM 126.3456,-25.67273,9.268493,128.2864,-12.71593,1,0,0,0,0,-30.11591,-6.936027,-19.417,0,-29.77802,-6.929835,0.1444263,0,0,0,0,0,-13,0,0,-0.07247543,-0.5400199,-5.816509,0,-0.07247543,-0.369071,1,0,0,0,0,0,-1.150943,0,0,98.40677,1.352373,0.05330093,0.7978058,0.3601583,0.1044889,0,0,0,0,-98.83363,0,0,3865,0,0,83,2,229
1/14/2014 8:02:32 PM 121.2182,-38.81148,9.686357,126.3456,-25.67273,1,0,0,0,0,-31.20173,-7.020873,-21.0263,0,-31.20173,-6.936027,0.198927,0,0,0,0,0,-13,0,0,-0.0174408,-0.5730977,7.162061,0,-0.0174408,-0.5400199,0.3846247,0,0,0,0,0,-1.556721,0,0,97.35254,2.574004,0.05599483,1.527542,4.436326,0.1967536,0,0,0,0,-98.47246,0,0,3865,0,0,84,2,229
1/14/2014 8:02:32 PM 117.1225,-42.68716,9.879629,121.2182,-38.81148,1,0,0,0,0,-32.96333,-7.100189,-21.07504,0,-32.96333,-7.020873,0.2488153,0,0,0,0,0,-13,0,0,0.03759003,-0.5714232,15.8275,0,0.03759003,-0.5730977,-0.8034839,0,0,0,0,0,-1.57146,0,0,96.42079,3.277279,0.05862066,2.625824,8.443763,0.3099139,0,0,0,0,-97.37418,0,0,3865,0,0,85,2,229
1/14/2014 8:02:32 PM 111.4187,-41.8443,10.06189,117.1225,-42.68716,1,0,0,0,0,-32.89116,-7.475908,-19.55726,0,-32.96333,-7.100189,0.2503263,0,0,0,0,0,-13,0,0,-0.0174408,-0.5589125,26.73409,0,0.03759003,-0.5714232,-1,0,0,0,0,0,-1.566711,0,0,94.84106,3.75566,0.06124648,2.625824,10.75079,0.3388628,0,0,0,0,-96.62968,0,0,3865,0,0,86,2,229
1/14/2014 8:02:32 PM 108.5259,-37.37142,10.2289,111.4187,-41.8443,1,0,0,0,0,-33.49476,-7.993952,-17.67864,0,-32.89116,-7.475908,0.2032752,0,0,0,0,0,-13,0,0,-0.07247543,-0.574806,30.06065,0,-0.0174408,-0.5589125,-1,0,0,0,0,0,-1.610306,0,0,93.79259,3.550096,0.06461681,3.370323,12.32007,0.4040715,0,0,0,0,-95.14808,0,0,3865,0,0,87,2,229
1/14/2014 8:02:32 PM 106.5001,-30.92813,10.54605,108.5259,-37.37142,1,0,0,0,0,-34.17053,-8.452938,-15.33284,0,-34.17053,-7.993952,0.1450377,0,0,0,0,0,-13,0,0,-0.07247543,-0.5885435,29.1012,0,-0.07247543,-0.574806,-1,0,0,0,0,0,-1.734469,0,0,92.78108,3.416044,0.07505777,5.589035,11.64573,0.5,0,0,0,0,-94.41096,0,0,3865,0,0,88,2,229
1/14/2014 8:02:32 PM 105.339,-21.77211,10.69741,106.5001,-30.92813,1,0,0,0,0,-35.52207,-9.019002,-12.75427,0,-35.52207,-8.452938,0.0723181,0,0,0,0,0,-13,0,0,-0.07247543,-0.6124283,24.66422,0,-0.07247543,-0.5885435,-1,0,0,0,0,0,-1.773433,0,0,91.83879,2.998563,0.07834657,7.063255,11.20599,0.5,0,0,0,0,-92.93674,0,0,3865,0,0,89,2,229
1/14/2014 8:02:32 PM 105.1195,-9.720049,10.84463,105.339,-21.77211,1,0,0,0,0,-35.78778,-9.596973,-10.15918,0,-35.52207,-9.019002,-0.007617672,0,0,0,0,0,-13,0,0,-0.1275063,-0.6070082,17.69086,0,-0.07247543,-0.6124283,-1,0,0,0,0,0,-1.841178,0,0,91.0291,2.238426,0.07310887,7.063255,9.836485,0.5,0,0,0,0,-91.8237,0,0,3865,0,0,90,2,229
1/14/2014 8:02:32 PM 105.9048,4.597184,10.98989,105.1195,-9.720049,1,0,0,0,0,-37.2115,-10.05844,-7.608285,0,-35.78778,-9.596973,-0.08806543,0,0,0,0,0,-13,0,0,-0.07247543,-0.5215443,8.781863,0,-0.1275063,-0.6070082,-1,0,0,0,0,0,-1.904884,0,0,90.52274,1.153166,0.07107058,8.1763,7.342933,0.5,0,0,0,0,-91.09396,0,0,3865,0,0,91,2,229
1/14/2014 8:02:32 PM 107.6868,19.1468,11.27926,105.9048,4.597184,1,0,0,0,0,-37.88727,-10.25209,-5.217048,0,-37.88727,-10.05844,-0.1671432,0,0,0,0,0,-13,0,0,-0.07247543,-0.304226,-1.21251,0,-0.07247543,-0.5215443,-0.9536045,0,0,0,0,0,-1.583403,0,0,90.41265,-0.04698156,0.06239103,9.643143,3.782847,0.5,0,0,0,0,-90.35686,0,0,3865,0,0,92,2,229
1/14/2014 8:02:32 PM 110.3438,31.25653,11.42605,107.6868,19.1468,1,0,0,0,0,-39.04527,-10.13015,-2.964701,0,-39.04527,-10.25209,-0.2412715,0,0,0,0,0,-13,0,0,0.03759003,0.07696145,-11.62402,0,0.03759003,-0.304226,0.03713589,0,0,0,0,0,-0.8088594,0,0,90.69111,-1.313307,0.05419134,9.259834,-0.1541183,0.5,0,0,0,0,-90.74017,0,0,3865,0,0,93,2,229
1/14/2014 8:02:33 PM 111.9139,35.61156,11.57744,110.3438,31.25653,1,0,0,0,0,-39.63729,-9.948535,-1.857884,0,-39.04527,-10.13015,-0.3110943,0,0,0,0,0,-13,0,0,-0.04065323,0.3348507,-16.83606,0,0.03759003,0.07696145,1,0,0,0,0,0,0.2723026,0,0,90.97112,-1.924119,0.05356561,9.259834,-4.308172,0.5,0,0,0,0,-90.60461,0,0,3865,0,0,94,2,229
1/14/2014 8:02:33 PM 115.2653,39.95646,11.73055,111.9139,35.61156,1,0,0,0,0,-40.45741,-9.432059,0.3697108,0,-39.63729,-9.948535,-0.3454056,0,0,0,0,0,-13,0,0,0.06941223,0.9302383,-26.38228,0,-0.04065323,0.3348507,1,0,0,0,0,0,0.8913182,0,0,91.81271,-2.905321,0.05787778,9.395393,-6.311881,0.5,0,0,0,0,-91.35647,0,0,3865,0,0,95,2,229
1/14/2014 8:02:33 PM 115.2653,39.95646,12.04745,115.2653,39.95646,1,0,0,0,0,-41.53167,-9.432059,0.3697108,0,-41.53167,-9.432059,-0.414461,0,0,0,0,0,-13,0,0,0.1012344,0.9302383,-26.38228,0,0.1012344,0.9302383,1,0,0,0,0,0,2.783909,0,0,91.81271,-2.905321,0.07015185,7.658669,-9.530616,0.4133456,0,0,0,0,-92.34133,0,0,3866,0,0,96,2,229
1/14/2014 8:02:33 PM 115.2653,39.95646,12.20319,115.2653,39.95646,1,0,0,0,0,-41.53167,-9.432059,0.3697108,0,-41.53167,-9.432059,-0.414461,0,0,0,0,0,-13,0,0,0.1012344,0.9302383,-26.38228,0,0.1012344,0.9302383,1,0,0,0,0,0,2.783909,0,0,91.81271,-2.905321,0.07781052,7.658669,-9.530616,0.4210042,0,0,0,0,-92.34133,0,0,3867,0,0,98,2,229
1/14/2014 8:02:33 PM 122.2145,25.91342,12.35736,115.2653,39.95646,1,0,0,0,0,-41.53167,-8.315122,5.292351,0,-41.53167,-9.432059,-0.414461,0,0,0,0,0,-13,0,0,0.1012344,2.083515,-29.80119,0,0.1012344,0.9302383,1,0,0,0,0,0,2.783909,0,0,94.73818,-3.765996,0.08546919,7.658669,-9.530616,0.4286629,0,0,0,0,-92.34133,0,0,3867,0,0,99,2,229
1/14/2014 8:02:33 PM 122.9931,19.75845,12.52737,122.2145,25.91342,1,0,0,0,0,-43.44054,-8.194923,5.927036,0,-41.53167,-8.315122,-0.5670629,0,0,0,0,0,-13,0,0,-0.04663086,2.195911,-27.73104,0,0.1012344,2.083515,1,0,0,0,0,0,5,0,0,95.3181,-3.659309,0.09312785,7.658669,-12.35397,0.404107,0,0,0,0,-94.76967,0,0,3867,0,0,100,2,229
1/14/2014 8:02:33 PM 123.6521,5.741225,12.86404,122.9931,19.75845,1,0,0,0,0,-44.10474,-7.986392,6.70459,0,-44.10474,-8.194923,-0.5867381,0,0,0,0,0,-13,0,0,-0.06983948,2.367124,-22.28991,0,-0.06983948,2.195911,1,0,0,0,0,0,5,0,0,96.45084,-3.453588,0.1029796,4.621399,-12.004,0.2387227,0,0,0,0,-95.3786,0,0,3867,0,0,101,2,229
1/14/2014 8:02:33 PM 123.0314,-8.469465,13.03149,123.6521,5.741225,1,0,0,0,0,-44.58697,-7.86335,6.918439,0,-44.58697,-7.986392,-0.6108423,0,0,0,0,0,-13,0,0,0.04022217,2.438687,-15.72937,0,0.04022217,2.367124,1,0,0,0,0,0,5,0,0,97.51088,-3.147054,0.1064806,3.500977,-11.32915,0.1838076,0,0,0,0,-96.49902,0,0,3867,0,0,102,2,229
1/14/2014 8:02:33 PM 122.2458,-15.2916,13.19582,123.0314,-8.469465,1,0,0,0,0,-45.24221,-7.930455,6.853719,0,-44.58697,-7.86335,-0.6174716,0,0,0,0,0,-13,0,0,1.18465,2.366767,-12.2059,0,0.04022217,2.438687,1,0,0,0,0,0,5,0,0,97.91344,-2.525343,0.1099815,3.500977,-10.3236,0.1987819,0,0,0,0,-97.77806,0,0,3867,0,0,103,2,229
1/14/2014 8:02:33 PM 119.754,-28.1906,13.35689,122.2458,-15.2916,1,0,0,0,0,-45.90642,-8.01314,6.349725,0,-45.24221,-7.930455,-0.6154652,0,0,0,0,0,-13,0,0,1.161442,2.265665,-4.908136,0,1.18465,2.366767,1,0,0,0,0,0,5,0,0,98.43835,-1.425974,0.1122035,2.221939,-8.284134,0.1487981,0,0,0,0,-98.38699,0,0,3867,0,0,104,2,229
1/14/2014 8:02:34 PM 116.232,-37.27186,13.66301,119.754,-28.1906,1,0,0,0,0,-46.65436,-8.059584,5.431189,0,-46.65436,-8.01314,-0.5998415,0,0,0,0,0,-13,0,0,1.216473,2.197757,2.525599,0,1.216473,2.265665,0.9115486,0,0,0,0,0,5,0,0,98.66183,-0.5496271,0.1154221,1.605637,-4.677766,0.1567974,0,0,0,0,-98.39436,0,0,3867,0,0,105,2,229
1/14/2014 8:02:34 PM 112.074,-40.86664,13.80531,116.232,-37.27186,1,0,0,0,0,-47.73123,-8.097838,4.298823,0,-47.73123,-8.059584,-0.5713668,0,0,0,0,0,-13,0,0,2.43914,2.159006,10.03983,0,2.43914,2.197757,0.2276448,0,0,0,0,0,5,0,0,98.58614,0.4705227,0.1167188,1.2967,-1.802997,0.1726649,0,0,0,0,-98.7033,0,0,3867,0,0,106,2,229
1/14/2014 8:02:34 PM 107.7171,-39.00525,13.93659,112.074,-40.86664,1,0,0,0,0,-48.06911,-8.132215,3.023743,0,-47.73123,-8.097838,-0.5362635,0,0,0,0,0,-13,0,0,2.43914,2.12636,17.6119,0,2.43914,2.159006,-0.4636648,0,0,0,0,0,5,0,0,98.19778,1.350748,0.1180155,1.2967,1.543503,0.2121451,0,0,0,0,-98.33475,0,0,3867,0,0,107,2,229
1/14/2014 8:02:34 PM 105.5914,-36.30638,14.05649,107.7171,-39.00525,1,0,0,0,0,-49.25318,-8.167244,2.341253,0,-48.06911,-8.132215,-0.496736,0,0,0,0,0,-13,0,0,2.282658,2.097944,20.9879,0,2.43914,2.12636,-1,0,0,0,0,0,5,0,0,97.90327,1.677405,0.1196808,1.665253,4.430995,0.268505,0,0,0,0,-98.06363,0,0,3867,0,0,108,2,229
1/14/2014 8:02:34 PM 101.6432,-28.56453,14.28403,105.5914,-36.30638,1,0,0,0,0,-50.00112,-8.278016,0.8294351,0,-50.00112,-8.167244,-0.4755788,0,0,0,0,0,-13,0,0,2.337692,2.028063,26.37141,0,2.337692,2.097944,-1,0,0,0,0,0,5,0,0,97.16827,2.221766,0.1235461,1.928993,5.50256,0.3001602,0,0,0,0,-98.07101,0,0,3867,0,0,109,2,229
1/14/2014 8:02:34 PM 98.31104,-19.49509,14.3864,101.6432,-28.56453,1,0,0,0,0,-50.26683,-8.522809,-0.9216497,0,-50.26683,-8.278016,-0.4287125,0,0,0,0,0,-13,0,0,2.282658,1.906653,27.64552,0,2.282658,2.028063,-1,0,0,0,0,0,5,0,0,96.40076,2.365271,0.1265882,3.042038,7.288282,0.3892581,0,0,0,0,-96.95796,0,0,3867,0,0,110,2,229
1/14/2014 8:02:34 PM 95.82207,-10.17417,14.48001,98.31104,-19.49509,1,0,0,0,0,-51.01478,-8.784744,-3.055457,0,-50.26683,-8.522809,-0.3744288,0,0,0,0,0,-13,0,0,2.337692,1.82501,24.86884,0,2.282658,1.906653,-1,0,0,0,0,0,5,0,0,95.58601,2.45838,0.1296302,3.042038,7.759034,0.3976714,0,0,0,0,-96.96533,0,0,3867,0,0,111,2,229
1/14/2014 8:02:34 PM 94.37057,-0.8365335,14.56693,95.82207,-10.17417,1,0,0,0,0,-51.79139,-9.19011,-5.624938,0,-51.01478,-8.784744,-0.3082808,0,0,0,0,0,-13,0,0,3.31702,1.772042,19.12407,0,2.337692,1.82501,-1,0,0,0,0,0,5,0,0,94.83308,2.046647,0.1326649,3.034668,8.06447,0.4037562,0,0,0,0,-95.64235,0,0,3867,0,0,112,2,229
1/14/2014 8:02:34 PM 94.17655,8.632428,14.73168,94.37057,-0.8365335,1,0,0,0,0,-52.81955,-9.50478,-8.437819,0,-52.81955,-9.19011,-0.2286269,0,0,0,0,0,-13,0,0,3.027264,1.840905,11.49979,0,3.027264,1.772042,-1,0,0,0,0,0,5,0,0,94.24662,1.564045,0.1417942,4.771698,6.71382,0.4999768,0,0,0,0,-95.2283,0,0,3867,0,0,113,2,229
1/14/2014 8:02:34 PM 94.588,13.23151,14.81238,94.17655,8.632428,1,0,0,0,0,-54.58115,-9.619157,-9.842829,0,-54.58115,-9.50478,-0.1414276,0,0,0,0,0,-13,0,0,3.082298,1.930089,7.212911,0,3.082298,1.840905,-0.5979809,0,0,0,0,0,5,0,0,94.03454,1.267152,0.1476642,5.869995,5.130692,0.5,0,0,0,0,-94.13,0,0,3867,0,0,114,2,229
1/14/2014 8:02:35 PM 97.73714,25.14322,14.89319,94.588,13.23151,1,0,0,0,0,-54.58115,-9.733168,-13.43354,0,-54.58115,-9.619157,-0.09787231,0,0,0,0,0,-13,0,0,3.082298,2.539828,-7.066623,0,3.082298,1.930089,-0.2035878,0,0,0,0,0,5,0,0,93.79814,-0.1882479,0.1482748,5.869995,4.156766,0.5,0,0,0,0,-94.13,0,0,3867,0,0,115,2,229
1/14/2014 8:02:35 PM 100.9931,30.73202,14.98091,97.73714,25.14322,1,0,0,0,0,-55.66697,-9.541953,-14.65219,0,-54.58115,-9.733168,0.01343981,0,0,0,0,0,-13,0,0,3.137329,3.139179,-16.70139,0,3.082298,2.539828,1,0,0,0,0,0,5,0,0,94.0285,-1.048118,0.1499356,5.869995,-0.6175284,0.4892781,0,0,0,0,-93.76884,0,0,3867,0,0,116,2,229
1/14/2014 8:02:35 PM 104.5308,33.49909,15.16768,100.9931,30.73202,1,0,0,0,0,-56.68617,-9.230546,-14.71398,0,-56.68617,-9.541953,0.05121787,0,0,0,0,0,-13,0,0,4.015209,3.785161,-24.62999,0,4.015209,3.139179,1,0,0,0,0,0,5,0,0,94.4985,-1.633178,0.1621419,5.975113,-3.438246,0.4755029,0,0,0,0,-94.02489,0,0,3867,0,0,117,2,229
1/14/2014 8:02:35 PM 107.7115,32.75171,15.26816,104.5308,33.49909,1,0,0,0,0,-57.50628,-8.974657,-13.66576,0,-57.50628,-9.230546,0.05313334,0,0,0,0,0,-13,0,0,4.125275,4.301538,-28.01147,0,4.125275,3.785161,1,0,0,0,0,0,5,0,0,95.05247,-1.840377,0.1673652,5.223251,-5.357479,0.4144604,0,0,0,0,-94.77675,0,0,3867,0,0,118,2,229
1/14/2014 8:02:35 PM 109.9867,27.43166,15.3749,107.7115,32.75171,1,0,0,0,0,-58.50837,-8.744706,-11.75267,0,-57.50628,-8.974657,0.02063856,0,0,0,0,0,-13,0,0,4.102062,4.750688,-26.73409,0,4.125275,4.301538,1,0,0,0,0,0,5,0,0,95.6366,-1.902562,0.1725884,5.223251,-6.037172,0.4119283,0,0,0,0,-95.01713,0,0,3867,0,0,119,2,229
1/14/2014 8:02:35 PM 111.0538,17.22849,15.48567,109.9867,27.43166,1,0,0,0,0,-59.24735,-8.629108,-9.375939,0,-58.50837,-8.744706,-0.03866713,0,0,0,0,0,-13,0,0,5.324734,4.995075,-22.52128,0,4.102062,4.750688,1,0,0,0,0,0,5,0,0,96.19063,-1.617878,0.1775713,4.982872,-6.241165,0.4003989,0,0,0,0,-95.69461,0,0,3867,0,0,120,2,229
1/14/2014 8:02:35 PM 111.1034,10.8382,15.70854,111.0538,17.22849,1,0,0,0,0,-60.76035,-8.585649,-8.108105,0,-60.76035,-8.629108,-0.1123459,0,0,0,0,0,-13,0,0,6.335884,5.099168,-19.64973,0,6.335884,4.995075,1,0,0,0,0,0,5,0,0,96.44601,-1.498339,0.1861516,4.274948,-5.307288,0.3778601,0,0,0,0,-95.72505,0,0,3867,0,0,121,2,229
1/14/2014 8:02:35 PM 110.304,-2.524788,15.81841,111.1034,10.8382,1,0,0,0,0,