MagYaw,YawVelocityDegreesPerSecond,YawIntegral,YawProportional,YawDerivativeError,YawControl,YawIntegralGain,YawDerivativeGain,YawProportionalGain,YawAntiWindupGain,XNEDBodyFrame,XVelocityMetersPerSecond,ThetaPitchDegrees,XIntegral,XProportional,XDerivativeError,LongitudeControl,XIntegralGain,XDerivativeGain,XProportionalGain,XAntiWindupGain,LongitudeInnerLoopGain,XLongitudeOuterLoopSetpoint,YNEDBodyFrame,YVelocityMetersPerSecond,PhiRollDegrees,YIntegral,YProportional,YDerivativeError,LateralControl,YIntegralGain,YDerivativeGain,YProportionalGain,YAntiWindupGain,LateralInnerLoopGain,YLateralOuterLoopSetpoint,AltitudeFeetAgl,ZVelocityMetersPerSecond,ZIntegral,ZProportional,ZDerivativeError,MainRotorCollectiveControl,ZIntegralGain,ZDerivativeGain,ZProportionalGain,ZAntiWindupGain,ZNEDBodyFrame,LatitudeDegrees,LongitudeDegrees,Timeouts,UnrecognizedMsgTypes,ChecksumErrors,NumOfBlownFrames,MessageType,NumOfBytesInMsg
319.6677,45.1204,0,0,0,0,0,0,0,0,0,-0.02671633,0.510378,0,0,0,0,0,0,0,0,0,0,0,0.0267777,0.07209049,0,0,0,0,0,0,0,0,0,0,0.09246122,0.0001699144,0,0,0,0,0,0,0,0,0,0,0,130,0,0,0,2,213

323.1968,44.66307,-1.008308,-40.33231,45.1204,-1,0,0,0,0,0,-0.02762756,0.5131628,0,0,-0.02671633,-0.01736135,0,0,0,0,0,-0.04966566,0,0.02645842,0.1250234,0,0,0.0267777,0.0003550361,0,0,0,0,0,0.07594958,0.0925345,4.357936E-05,0.09999999,100,0.0005573871,1,0,0,0,0,0,0,0,130,0,0,1,2,213

329.7231,73.08105,0,-36.80319,44.66307,-1,0,0,0,0,-0.7626219,-0.04435659,0.4704122,0,0,-0.02762756,-0.0175002,0,0,0,0,0,-0.05135964,-0.2346839,-0.0958338,-0.07686386,0,0,0.02645842,-0.004598101,0,0,0,0,0,0.07504401,0.4252862,-2.477884,0,100,0.0001429577,1,0,0,0,0,-0.6988069,0,0,130,0,0,2,2,213

337.3748,105.4857,0,-30.27689,73.08105,-1,0,0,0,0,-0.4248287,-0.05342654,0.8112217,0,-0.7626219,-0.04435659,-0.02397133,0,0,0,0,0,-0.3028566,-0.2346839,-0.234061,-0.8256522,0,-0.2346839,-0.0958338,-0.04896151,0,0,0,0,0,-0.6090542,1.341431,-3.926579,0,99.30119,-8.128449,1,0,0,0,0,-1.067447,0,0,130,0,0,3,2,213

346.8736,127.531,0,-22.62518,105.4857,-1,0,0,0,0,-0.7513918,-0.05902925,1.541636,0,-0.7513918,-0.05342654,-0.03203283,0,0,0,0,0,-0.3164722,-0.2578588,-0.3278386,-1.533424,0,-0.2578588,-0.234061,-0.01614195,0,0,0,0,0,-1.03441,2.511442,-4.772381,0,97.95515,-12.88075,1,0,0,0,0,-2.044852,0,0,130,0,0,4,2,213

5.055853,157.7501,0,-13.1264,127.531,-1,0,0,0,0,-0.5842203,-0.07757958,3.487246,0,-0.5842203,-0.05902925,-0.05642654,0,0,0,0,0,-0.278575,-0.4143147,-0.4696256,-2.227326,0,-0.4143147,-0.3278386,0.000754931,0,0,0,0,0,-1.525219,4.643674,-5.47135,0,96.752,-15.65532,1,0,0,0,0,-3.248004,0,0,130,0,0,5,2,213

19.64754,177.4485,0.3309114,5.055853,157.7501,1,0,0,0,0,-0.6453459,-0.1007304,5.266224,0,-0.5842203,-0.07757958,-0.1178095,0,0,0,0,0,-0.3130601,-0.3824363,-0.567307,-2.177064,0,-0.4143147,-0.4696256,0.02759599,0,0,0,0,0,-1.927369,6.218177,-5.727141,0,96.752,-17.94822,1,0,0,0,0,-5.338517,0,0,130,0,0,6,2,213

36.54705,197.5163,0,19.64754,177.4485,1,0,0,0,0,-0.6341162,-0.1300316,7.252388,0,-0.6453459,-0.1007304,-0.1748396,0,0,0,0,0,-0.3737628,-0.405611,-0.6785951,-1.387809,0,-0.3824363,-0.567307,0.001697468,0,0,0,0,0,-2.158614,7.901095,-5.897777,0,94.66148,-18.78732,1,0,0,0,0,-6.684562,0,0,130,0,0,7,2,213

52.81057,164.8157,0,36.54705,197.5163,1,0,0,0,0,-0.4410343,-0.370325,9.072727,0,-0.4410343,-0.1300316,-0.2379987,0,0,0,0,0,-0.3691876,-0.2955048,-0.6915624,0.5152161,0,-0.2955048,-0.6785951,-0.1030173,0,0,0,0,0,-2.349339,9.724863,-6.038095,0,91.45786,-19.34707,1,0,0,0,0,-8.54214,0,0,130,0,0,8,2,213

65.19965,116.7298,0,52.81057,164.8157,1,0,0,0,0,-0.4298043,-0.6992481,10.60504,0,-0.4298043,-0.370325,-0.3064466,0,0,0,0,0,-0.8126477,-0.3186796,-0.7701887,3.028432,0,-0.3186796,-0.6915624,-0.2699866,0,0,0,0,0,-2.419421,11.62814,-6.163432,0,90.11182,-19.80737,1,0,0,0,0,-9.888185,0,0,130,0,0,9,2,213

73.5255,76.78331,0,65.19965,116.7298,1,0,0,0,0,-0.4909301,-1.011102,11.98608,0,-0.4298043,-0.6992481,-0.3729039,0,0,0,0,0,-1.424116,-0.2868011,-0.9291448,5.21277,0,-0.3186796,-0.7701887,-0.5217192,0,0,0,0,0,-2.642429,13.54658,-6.269948,0,90.11182,-20.21852,1,0,0,0,0,-11.9787,0,0,130,0,0,10,2,213

78.99149,47.58432,0,73.5255,76.78331,1,0,0,0,0,-0.6503215,-1.270463,13.34068,0,-0.4909301,-1.011102,-0.4342355,0,0,0,0,0,-2.021517,-0.4664316,-1.145677,6.263318,0,-0.2868011,-0.9291448,-0.7599418,0,0,0,0,0,-3.047467,15.53298,-6.365846,0,88.0213,-20.56794,1,0,0,0,0,-14.15926,0,0,130,0,0,11,2,213

82.37421,28.26815,0,78.99149,47.58432,1,0,0,0,0,-0.7114477,-1.439038,14.59378,0,-0.7114477,-1.270463,-0.4926028,0,0,0,0,0,-2.5674,-0.4345536,-1.390951,5.248913,0,-0.4345536,-1.145677,-0.9368419,0,0,0,0,0,-3.873937,17.56901,-6.465433,0,83.75023,-20.88252,1,0,0,0,0,-16.24977,0,0,130,0,0,12,2,213

84.45224,17.61186,0,82.37421,28.26815,1,0,0,0,0,-1.110366,-1.480918,15.59899,0,-1.110366,-1.439038,-0.5452854,0,0,0,0,0,-2.996068,-0.4026747,-1.637881,1.456042,0,-0.4026747,-1.390951,-0.8990894,0,0,0,0,0,-4.523798,19.66439,-6.581138,0,82.02836,-21.20921,1,0,0,0,0,-17.97164,0,0,130,0,0,13,2,213

86.02018,15.39513,0,84.45224,17.61186,1,0,0,0,0,-1.171492,-1.3729,16.19811,0,-1.110366,-1.480918,-0.5788603,0,0,0,0,0,-3.073921,-0.3707967,-1.860651,-4.905897,0,-0.4026747,-1.637881,-0.6145791,0,0,0,0,0,-5.224166,21.80813,-6.724703,0,82.02836,-21.58876,1,0,0,0,0,-20.06215,0,0,130,0,0,14,2,213

87.90177,20.2913,0,86.02018,15.39513,1,0,0,0,0,-0.894825,-1.068633,16.39859,0,-1.171492,-1.3729,-0.5917556,0,0,0,0,0,-2.890782,-0.3389187,-2.027571,-13.15754,0,-0.3707967,-1.860651,-0.08319588,0,0,0,0,0,-5.8102,23.9852,-6.90822,0,79.93784,-22.05972,1,0,0,0,0,-22.52131,0,0,130,0,0,15,2,213

90.8022,30.57501,0,87.90177,20.2913,1,0,0,0,0,-1.545546,-0.5703701,16.46577,0,-1.545546,-1.068633,-0.5779573,0,0,0,0,0,-2.433252,-1.576095,-2.116651,-22.2192,0,-1.576095,-2.027571,0.6366141,0,0,0,0,0,-8.015648,26.23904,-7.102928,0,74.84792,-22.66172,1,0,0,0,0,-25.15208,0,0,130,0,0,16,2,213

95.1053,45.24168,0,90.8022,30.57501,1,0,0,0,0,-1.196522,0.03709307,16.92431,0,-1.196522,-0.5703701,-0.5540284,0,0,0,0,0,-1.406113,-1.599269,-2.118196,-29.69477,0,-1.599269,-2.116651,1,0,0,0,0,0,-8.301606,28.50265,-7.268725,0,73.13324,-23.30044,1,0,0,0,0,-26.86676,0,0,130,0,0,17,2,213

101.0348,61.95066,0,95.1053,45.24168,1,0,0,0,0,-1.667796,0.7271796,18.26078,0,-1.196522,0.03709307,-0.5332355,0,0,0,0,0,-0.2768388,-1.512338,-2.029866,-34.62035,0,-1.599269,-2.118196,1,0,0,0,0,0,-8.305988,30.82063,-7.382089,0,73.13324,-23.84433,1,0,0,0,0,-29.33311,0,0,130,0,0,18,2,213

112.6179,85.98679,0,101.0348,61.95066,1,0,0,0,0,-1.391129,1.670564,22.20918,0,-1.667796,0.7271796,-0.5391192,0,0,0,0,0,0.8698338,-1.480459,-1.825489,-33.33396,0,-1.512338,-2.029866,1,0,0,0,0,0,-7.930537,34.29667,-7.397861,0,70.66689,-24.2162,1,0,0,0,0,-31.79226,0,0,130,0,0,19,2,213

121.5077,97.0758,0,112.6179,85.98679,1,0,0,0,0,-1.285082,2.169083,25.31231,0,-1.285082,1.670564,-0.6046749,0,0,0,0,0,2.734189,-1.605037,-1.724467,-27.96572,0,-1.605037,-1.825489,1,0,0,0,0,0,-7.484072,36.48457,-7.353187,0,64.91407,-24.26794,1,0,0,0,0,-35.08593,0,0,130,0,0,20,2,213

131.5231,103.5028,0,121.5077,97.0758,1,0,0,0,0,-1.173182,2.567508,28.13153,0,-1.173182,2.169083,-0.67019,0,0,0,0,0,3.693276,-2.60753,-1.71893,-19.49937,0,-2.60753,-1.724467,1,0,0,0,0,0,-8.638126,38.65576,-7.274404,0,62.98211,-24.1214,1,0,0,0,0,-37.01789,0,0,130,0,0,21,2,213

142.0848,103.9431,0,131.5231,103.5028,1,0,0,0,0,-0.4863644,2.877987,29.90485,0,-1.173182,2.567508,-0.7346249,0,0,0,0,0,4.433949,-2.630705,-1.851042,-8.637975,0,-2.60753,-1.71893,1,0,0,0,0,0,-8.62242,40.76892,-7.169199,0,62.98211,-23.86295,1,0,0,0,0,-39.10122,0,0,130,0,0,22,2,213

152.8862,98.02679,0,142.0848,103.9431,1,0,0,0,0,-0.3656387,3.151549,30.1956,0,-0.4863644,2.877987,-0.765552,0,0,0,0,0,5.209619,-2.465545,-2.162358,4.431351,0,-2.630705,-1.851042,-0.03610622,0,0,0,0,0,-9.030434,42.92036,-7.017336,0,60.89878,-23.51784,1,0,0,0,0,-41.70326,0,0,130,0,0,23,2,213

162.7023,86.0246,0,152.8862,98.02679,1,0,0,0,0,-0.4267635,3.422123,28.80122,0,-0.4267635,3.151549,-0.7577186,0,0,0,0,0,5.735395,-2.433666,-2.683743,18.77131,0,-2.433666,-2.162358,-1,0,0,0,0,0,-9.630276,45.08261,-6.796674,0,56.20622,-23.01967,1,0,0,0,0,-43.79378,0,0,130,0,0,24,2,213

170.07,68.81274,0,162.7023,86.0246,1,0,0,0,0,0.4995785,3.731286,26.22272,0,0.4995785,3.422123,-0.6911486,0,0,0,0,0,6.506104,-2.668351,-3.254111,30.12783,0,-2.668351,-2.683743,-1,0,0,0,0,0,-10,47.1472,-6.554224,0,53.66422,-22.29581,1,0,0,0,0,-46.33578,0,0,130,0,0,25,2,213

174.6725,50.45852,0,170.07,68.81274,1,0,0,0,0,0.4384537,4.055808,23.22487,0,0.4995785,3.731286,-0.5933984,0,0,0,0,0,7.080838,-2.636471,-3.846393,35.7853,0,-2.668351,-3.254111,-1,0,0,0,0,0,-10,49.08651,-6.299875,0,53.66422,-21.50048,1,0,0,0,0,-48.4263,0,0,130,0,0,26,2,213

177.1702,36.57715,0,174.6725,50.45852,1,0,0,0,0,0.5503559,4.374423,20.17094,0,0.4384537,4.055808,-0.4823106,0,0,0,0,0,7.666461,-3.638966,-4.467239,36.70155,0,-2.636471,-3.846393,-1,0,0,0,0,0,-10,50.92999,-6.018349,0,51.5737,-20.66611,1,0,0,0,0,-50.35826,0,0,130,0,0,27,2,213

179.2484,30.73346,0,177.1702,36.57715,1,0,0,0,0,0.7605228,4.82996,15.42299,0,0.7605228,4.374423,-0.3682749,0,0,0,0,0,8.351843,-4.429948,-5.256693,31.71899,0,-4.429948,-4.467239,-1,0,0,0,0,0,-10,53.5906,-5.763201,0,47.79982,-19.74259,1,0,0,0,0,-52.20018,0,0,130,0,0,28,2,213

181.1403,38.53996,0,179.2484,30.73346,1,0,0,0,0,2.122927,5.101047,11.83036,0,2.122927,4.82996,-0.1807476,0,0,0,0,0,9.592421,-4.453123,-5.64473,25.21902,0,-4.453123,-5.256693,-1,0,0,0,0,0,-10,55.36673,-5.785686,0,44.97921,-18.90561,1,0,0,0,0,-55.02079,0,0,130,0,0,29,2,213

184.8216,55.85122,-37.99138,-178.8597,38.53996,-1,0,0,0,0,2.448446,5.322518,7.753304,0,2.122927,5.101047,-0.05674117,0,0,0,0,0,10,-5.933687,-5.892795,16.49734,0,-4.453123,-5.64473,-1,0,0,0,0,0,-10,57.24789,-6.053083,0,44.97921,-18.97936,1,0,0,0,0,-56.75701,0,0,130,0,0,30,2,213

191.1646,80.24583,-6.2752,-175.1784,55.85122,-1,0,0,0,0,3.051676,5.447284,3.829402,0,2.448446,5.322518,0.06964757,0,0,0,0,0,10,-5.878633,-5.939142,6.016287,0,-5.933687,-5.892795,-1,0,0,0,0,0,-10,59.26698,-6.617037,0,43.24299,-19.85653,1,0,0,0,0,-58.23876,0,0,130,0,0,31,2,213

205.3075,176.6082,0,-168.8354,80.24583,-1,0,0,0,0,3.34543,5.204324,0.7242041,0,3.34543,5.447284,0.1912885,0,0,0,0,0,10,-6.747846,-5.501589,-6.294282,0,-6.747846,-5.939142,-1,0,0,0,0,0,-10,61.48214,-7.485194,0,39.31774,-21.70653,1,0,0,0,0,-60.68226,0,0,130,0,0,32,2,213

228.0077,271.7131,0,-154.6925,176.6082,-1,0,0,0,0,3.876307,4.522558,1.272566,0,3.876307,5.204324,0.2875497,0,0,0,0,0,10,-6.637739,-4.903583,-19.61589,0,-6.637739,-5.501589,-0.3409261,0,0,0,0,0,-10,63.91042,-8.452228,0,37.09152,-24.55443,1,0,0,0,0,-62.90848,0,0,130,0,0,33,2,213

276.2988,413.8807,0,-131.9923,271.7131,-1,0,0,0,0,4.170057,2.568779,14.13982,0,3.876307,4.522558,0.2559088,0,0,0,0,0,9.527687,-7.50695,-4.402361,-33.82439,0,-6.637739,-4.903583,0.8846616,0,0,0,0,0,-10,67.90598,-9.467395,0,37.09152,-27.72669,1,0,0,0,0,-65.35197,0,0,130,0,0,34,2,213

339.55,482.899,0,-83.70117,413.8807,-1,0,0,0,0,4.359688,1.355739,30.76136,0,4.170057,2.568779,-0.2529386,0,0,0,0,0,5.980507,-7.709757,-4.881371,-23.58302,0,-7.50695,-4.402361,1,0,0,0,0,0,-10,71.81999,-9.386536,0,34.64803,-31.05684,1,0,0,0,0,-69.24722,0,0,130,0,0,35,2,213

26.59896,491.318,-4.661593,-20.45001,482.899,1,0,0,0,0,4.664677,1.174291,29.50003,0,4.664677,1.355739,-0.8364139,0,0,0,0,0,3.86841,-8.602142,-4.966591,-4.015043,0,-8.602142,-4.881371,1,0,0,0,0,0,-10,74.23608,-9.099239,0,26.96324,-30.79159,1,0,0,0,0,-73.03676,0,0,130,0,0,36,2,213

69.66609,495.1809,-7.680802,26.59896,491.318,1,0,0,0,0,4.603546,1.071654,14.99967,0,4.603546,1.174291,-0.8055845,0,0,0,0,0,3.513432,-8.570263,-4.826709,12.02258,0,-8.570263,-4.966591,-0.550616,0,0,0,0,0,-10,76.62079,-8.745261,0,24.87273,-29.84915,1,0,0,0,0,-75.12727,0,0,130,0,0,37,2,213

121.3776,441.6464,-18.15178,69.66609,495.1809,1,0,0,0,0,4.362976,0.09424993,-15.50426,0,4.603546,1.071654,-0.3619884,0,0,0,0,0,3.322629,-9.862494,-4.715814,17.98667,0,-8.570263,-4.826709,-1,0,0,0,0,0,-10,80.11642,-8.556962,0,24.87273,-28.68796,1,0,0,0,0,-77.38222,0,0,130,0,0,38,2,213

169.9682,385.996,-34.30202,121.3776,441.6464,1,0,0,0,0,4.494934,-1.000324,-35.0773,0,4.362976,0.09424993,0.5251515,0,0,0,0,0,1.436111,-9.720509,-4.936637,1.625004,0,-9.862494,-4.715814,-1,0,0,0,0,0,-10,83.35395,-8.646086,0,22.61778,-28.07026,1,0,0,0,0,-81.33031,0,0,130,0,0,39,2,213

227.2364,346.9013,-84.11813,169.9682,385.996,1,0,0,0,0,4.46212,-2.06814,-32.80284,0,4.46212,-1.000324,1,0,0,0,0,0,-0.5700499,-10.61289,-5.367496,-32.7711,0,-10.61289,-4.936637,-1,0,0,0,0,0,-10,86.95622,-8.550517,0,15.24879,-28.36262,-1,0,0,0,0,-84.75121,0,0,130,0,0,40,2,213

258.3658,325.0694,-116.737,-132.7636,346.9013,-1,0,0,0,0,4.568172,-2.819723,-16.74195,0,4.568172,-2.06814,0.9386295,0,0,0,0,0,-2.52447,-10.73747,-5.603348,-50.50502,0,-10.73747,-5.367496,1,0,0,0,0,0,-10,89.59188,-8.433166,0.2493344,11.95512,-28.04912,-1,0,0,0,0,-88.04488,0,0,130,0,0,41,2,213

275.4856,305.7029,-88.94823,-101.6342,325.0694,-1,0,0,0,0,4.509449,0.2203581,-2.958107,0,4.568172,-2.819723,0.3974289,0,0,0,0,0,-3.921664,-11.89642,-5.007829,-55.066,0,-10.73747,-5.603348,1,0,0,0,0,0,-10,91.03307,-5.942659,1.064091,11.95512,-27.66416,-1,0,0,0,0,-90.81135,0,0,130,0,0,42,2,213

300.7338,400.4938,-68.89734,-84.5144,305.7029,-1,0,0,0,0,4.520679,2.420761,29.51922,0,4.509449,0.2203581,0.1448005,0,0,0,0,0,1.712876,-11.9196,-4.398623,-52.14352,0,-11.89642,-5.007829,1,0,0,0,0,0,-10,92.49697,-3.39937,1.750682,9.188652,-19.4943,-1,0,0,0,0,-92.15739,0,0,130,0,0,43,2,213

328.7738,429.715,-45.04689,-59.2662,400.4938,-1,0,0,0,0,4.393055,3.590635,50.7639,0,4.393055,2.420761,-0.7350891,0,0,0,0,0,5.769788,-12.71058,-3.819053,-36.03228,0,-12.71058,-4.398623,1,0,0,0,0,0,-10,93.0533,-2.141243,1.652747,6.369324,-11.15129,1,0,0,0,0,-93.63068,0,0,130,0,0,44,2,213

58.04125,420.6172,-37.13356,-31.22617,429.715,-1,0,0,0,0,4.73085,5.978751,48.37271,0,4.73085,3.590635,-1,0,0,0,0,0,8.042206,-12.71058,-1.851715,35.33152,0,-12.71058,-3.819053,1,0,0,0,0,0,-10,93.18679,0.7430967,1.655027,6.000687,-7.024135,1,0,0,0,0,-93.99931,0,0,130,0,0,45,2,213

91.72459,407.4347,-33.44493,58.04125,420.6172,1,0,0,0,0,5.989613,3.844831,16.18059,0,4.73085,5.978751,-1,0,0,0,0,0,10,-13.8,-3.496389,49.06578,0,-12.71058,-1.851715,-1,0,0,0,0,0,-10,93.14183,-0.290012,1.256248,6.000687,2.437654,1,0,0,0,0,-94.20222,0,0,130,0,0,46,2,213

109.7726,410.271,-45.42042,91.72459,407.4347,1,0,0,0,0,6.327408,1.328842,-10.47569,0,5.989613,3.844831,-0.2263636,0,0,0,0,0,8.87854,-13.8,-5.008731,47.22675,0,-13.8,-3.496389,-1,0,0,0,0,0,-10,93.52953,-2.016607,0,5.797775,-0.9513553,1,0,0,0,0,-94.57086,0,0,130,0,0,47,2,213

137.0688,315.0864,-79.82679,109.7726,410.271,1,0,0,0,0,6.255047,-1.489664,-42.74427,0,6.255047,1.328842,0.4580134,0,0,0,0,0,4.278026,-13.74495,-6.216077,34.12413,0,-13.74495,-5.008731,-1,0,0,0,0,0,-10,94.49507,-3.0209,0,4.684677,-6.615279,1,0,0,0,0,-95.31532,0,0,130,0,0,48,2,213

189.7007,257.9251,-95.4138,137.0688,315.0864,1,0,0,0,0,6.413399,-3.743505,-59.94153,0,6.413399,-1.489664,1,0,0,0,0,0,-0.9158125,-15.06906,-6.774362,-14.74975,0,-15.06906,-6.216077,-1,0,0,0,0,0,-10,95.85194,-3.332882,0,4.151596,-9.90976,-1,0,0,0,0,-95.8484,0,0,130,0,0,49,2,213

236.4298,239.1801,-120.5858,-170.2993,257.9251,-1,0,0,0,0,5.930889,-5.420677,-48.15301,0,6.413399,-3.743505,1,0,0,0,0,0,-5.105703,-14.95895,-6.894305,-62.88713,0,-15.06906,-6.774362,0.4369773,0,0,0,0,0,-10,97.04777,-3.039193,0.2456369,4.151596,-10.93319,-1,0,0,0,0,-96.9687,0,0,130,0,0,50,2,213

248.4375,231.1521,-84.54826,-123.5702,239.1801,-1,0,0,0,0,5.621414,-3.130168,-37.47646,0,5.930889,-5.420677,1,0,0,0,0,0,-8.36301,-15.88322,-6.908266,-74.51051,0,-14.95895,-6.894305,1,0,0,0,0,0,-10,97.40417,-1.6482,0.5823629,3.031303,-9.96977,-1,0,0,0,0,-97.93044,0,0,130,0,0,51,2,213

265.4169,297.8873,-40.24555,-111.5625,231.1521,-1,0,0,0,0,4.619267,1.55908,-6.884942,0,4.619267,-3.130168,1,0,0,0,0,0,-4.484014,-15.90639,-6.731077,-87.15926,0,-15.90639,-6.908266,1,0,0,0,0,0,-10,97.33154,1.200293,1.014064,1.829437,-5.406755,-1,0,0,0,0,-98.17056,0,0,130,0,0,52,2,213

272.7424,328.2377,-21.92151,-94.58313,297.8873,-1,0,0,0,0,4.382145,4.198138,15.20038,0,4.382145,1.55908,0.3425411,0,0,0,0,0,4.16477,-16.88571,-6.447303,-89.68323,0,-16.88571,-6.731077,1,0,0,0,0,0,-10,96.85708,2.250772,1.083405,1.612152,3.937442,1,0,0,0,0,-98.38785,0,0,130,0,0,53,2,213

288.6869,309.1669,-9.492397,-87.2576,328.2377,-1,0,0,0,0,5.557323,7.596363,48.34882,0,4.382145,4.198138,-0.1900175,0,0,0,0,0,9.070778,-17.8969,-5.4114,-85.32487,0,-16.88571,-6.447303,1,0,0,0,0,0,-10,95.81718,3.22533,0.320944,1.612152,7.383434,1,0,0,0,0,-97.98917,0,0,130,0,0,54,2,213

341.7899,263.9894,0,-71.31314,309.1669,-1,0,0,0,0,5.90097,5.132084,79.47725,0,5.557323,7.596363,-1,0,0,0,0,0,10,-18.77482,-6.709018,-38.89714,0,-17.8969,-5.4114,1,0,0,0,0,0,-10,94.15334,4.384233,0,2.010826,10.58037,1,0,0,0,0,-96.99611,0,0,130,0,0,55,2,213

97.47766,240.3743,-1.380206,-18.21005,263.9894,1,0,0,0,0,6.455833,1.891123,66.82143,0,6.455833,5.132084,-1,0,0,0,0,0,10,-18.93998,-8.695345,81.5813,0,-18.93998,-6.709018,1,0,0,0,0,0,-10,92.15664,5.401604,0,4.868652,14.38204,1,0,0,0,0,-95.13135,0,0,130,0,0,56,2,213

107.8937,253.2123,0.269801,97.47766,240.3743,1,0,0,0,0,7.126041,-0.5933219,44.20954,0,7.126041,1.891123,-1,0,0,0,0,0,5.575023,-19.79472,-10.02936,95.90722,0,-19.79472,-8.695345,-1,0,0,0,0,0,-10,90.3765,6.016348,0,6.839111,17.71942,1,0,0,0,0,-93.16089,0,0,130,0,0,57,2,213

109.5959,213.9345,0,107.8937,253.2123,1,0,0,0,0,7.34552,-1.786309,29.03893,0,7.126041,-0.5933219,-1,0,0,0,0,0,0.9564408,-21.15071,-10.37266,101.7663,0,-19.79472,-10.02936,-1,0,0,0,0,0,-10,88.91614,6.835583,0,6.839111,19.73603,1,0,0,0,0,-91.60344,0,0,130,0,0,58,2,213

110.2798,173.1544,0,109.5959,213.9345,1,0,0,0,0,7.33429,-2.768266,8.407018,0,7.34552,-1.786309,-0.9373414,0,0,0,0,0,-1.197892,-21.12753,-10.71512,106.4164,0,-21.15071,-10.37266,-1,0,0,0,0,0,-10,86.1412,8.134865,0,8.396561,22.42345,1,0,0,0,0,-90.25739,0,0,130,0,0,59,2,213

110.1309,170.4048,0,110.2798,173.1544,1,0,0,0,0,6.243179,-2.9823,-5.05607,0,6.243179,-2.768266,-0.354442,0,0,0,0,0,-3.341927,-21.92722,-10.77952,106.3533,0,-21.92722,-10.71512,-1,0,0,0,0,0,-10,83.91216,9.010624,0,12.81181,26.68561,1,0,0,0,0,-87.18819,0,0,130,0,0,60,2,213

109.1497,194.6766,0,110.1309,170.4048,1,0,0,0,0,6.889889,-3.055947,-26.67163,0,6.889889,-2.9823,0.04659774,0,0,0,0,0,-3.552917,-24.23935,-10.80892,102.5988,0,-24.23935,-10.77952,-1,0,0,0,0,0,-10,80.20667,10.11096,0,14.76073,29.55845,1,0,0,0,0,-85.23927,0,0,130,0,0,61,2,213

108.0434,239.6345,0,109.1497,194.6766,1,0,0,0,0,6.208927,-3.319816,-51.81328,0,6.889889,-3.055947,0.712436,0,0,0,0,0,-3.689828,-25.09409,-10.95695,95.0032,0,-24.23935,-10.80892,-1,0,0,0,0,0,-10,76.24815,10.96343,0,14.76073,33.16801,1,0,0,0,0,-81.79424,0,0,130,0,0,62,2,213

109.431,269.5088,0,108.0434,239.6345,1,0,0,0,0,6.010471,-3.823586,-69.21698,0,6.208927,-3.319816,1,0,0,0,0,0,-4.377157,-26.05894,-11.15382,87.37835,0,-25.09409,-10.95695,-1,0,0,0,0,0,-10,73.76811,11.42411,0,18.20576,35.96444,1,0,0,0,0,-77.22891,0,0,130,0,0,63,2,213

264.7881,305.5919,0,109.431,269.5088,1,0,0,0,0,6.071598,-5.526545,-73.067,0,6.071598,-3.823586,1,0,0,0,0,0,-5.353355,-26.09081,-11.63135,-85.84808,0,-26.09081,-11.15382,-1,0,0,0,0,0,-10,68.78854,12.31757,0,24.8616,37.47564,1,0,0,0,0,-75.1384,0,0,130,0,0,64,2,213

264.3314,271.5219,-26.97358,-95.21188,305.5919,-1,0,0,0,0,4.270172,-6.971339,-39.30621,0,4.270172,-5.526545,1,0,0,0,0,0,-9.039767,-28.32472,-11.9689,-98.6773,0,-28.32472,-11.63135,1,0,0,0,0,0,-10,63.8257,13.21675,0,29.99258,40.40655,1,0,0,0,0,-70.00742,0,0,130,0,0,65,2,213

258.2743,231.9693,-14.26148,-95.66864,271.5219,-1,0,0,0,0,4.424187,-7.553224,-16.98499,0,4.270172,-6.971339,0.9084925,0,0,0,0,0,-10,-28.99982,-12.09828,-106.0508,0,-28.32472,-11.9689,1,0,0,0,0,0,-10,59.56092,13.91928,0,29.99258,43.35622,1,0,0,0,0,-65.11911,0,0,130,0,0,66,2,213

250.9448,248.9829,-2.321271,-101.7257,231.9693,-1,0,0,0,0,3.717318,-8.045695,-0.3239256,0,4.424187,-7.553224,0.2165347,0,0,0,0,0,-10,-30.12112,-12.1038,-110.2062,0,-28.99982,-12.09828,1,0,0,0,0,0,-10,56.07706,14.45611,0,34.88089,45.6608,1,0,0,0,0,-61.01966,0,0,130,0,0,67,2,213

239.707,240.3873,0,-109.0552,248.9829,-1,0,0,0,0,3.094034,-8.37856,15.98963,0,3.094034,-8.045695,-0.2999583,0,0,0,0,0,-10,-31.32066,-11.97939,-114.2097,0,-31.32066,-12.1038,1,0,0,0,0,0,-10,52.1949,14.93277,0,42.47822,47.42181,