MagYaw,YawVelocityDegreesPerSecond,YawIntegral,YawProportional,YawDerivativeError,YawControl,YawIntegralGain,YawDerivativeGain,YawProportionalGain,YawAntiWindupGain,XNEDBodyFrame,XVelocityMetersPerSecond,ThetaPitchDegrees,XIntegral,XProportional,XDerivativeError,LongitudeControl,XIntegralGain,XDerivativeGain,XProportionalGain,XAntiWindupGain,LongitudeInnerLoopGain,XLongitudeOuterLoopSetpoint,PitchAngularVelocityRadsPerSecond,PitchAngularVelocityGain,YNEDBodyFrame,YVelocityMetersPerSecond,PhiRollDegrees,YIntegral,YProportional,YDerivativeError,LateralControl,YIntegralGain,YDerivativeGain,YProportionalGain,YAntiWindupGain,LateralInnerLoopGain,YLateralOuterLoopSetpoint,RollAngularVelocityRadsPerSecond,RollAngularVelocityGain,AltitudeFeetAgl,ZVelocityMetersPerSecond,ZIntegral,ZProportional,ZDerivativeError,MainRotorCollectiveControl,ZIntegralGain,ZDerivativeGain,ZProportionalGain,ZAntiWindupGain,ZNEDBodyFrame,LatitudeDegrees,LongitudeDegrees,Timeouts,UnrecognizedMsgTypes,ChecksumErrors,NumOfBlownFrames,MessageType,NumOfBytesInMsg
1/14/2014 8:02:50 PM 102.9563,17.08923,23.73422,102.9563,17.08923,1,0,0,0,0,-73.96493,-8.911928,-7.569113,0,-73.96493,-8.911928,-0.1683575,0,0,0,0,0,-13,0,0,12.68658,4.472499,-23.14474,0,12.68658,4.472499,1,0,0,0,0,0,5,0,0,99.00398,-1.823073,0.4298313,0.9874268,-5.98041,0.4198629,0,0,0,0,-99.01257,0,0,4023,0,0,293,2,229
1/14/2014 8:02:50 PM 102.9563,17.08923,23.74496,102.9563,17.08923,1,0,0,0,0,-73.96493,-8.911928,-7.569113,0,-73.96493,-8.911928,-0.1683575,0,0,0,0,0,-13,0,0,12.68658,4.472499,-23.14474,0,12.68658,4.472499,1,0,0,0,0,0,5,0,0,99.00398,-1.823073,0.4308188,0.9874268,-5.98041,0.4208503,0,0,0,0,-99.01257,0,0,4024,0,0,294,2,229
1/14/2014 8:02:50 PM 102.9563,17.08923,23.75561,102.9563,17.08923,1,0,0,0,0,-73.96493,-8.911928,-7.569113,0,-73.96493,-8.911928,-0.1683575,0,0,0,0,0,-13,0,0,12.68658,4.472499,-23.14474,0,12.68658,4.472499,1,0,0,0,0,0,5,0,0,99.00398,-1.823073,0.4318062,0.9874268,-5.98041,0.4218378,0,0,0,0,-99.01257,0,0,4025,0,0,295,2,229
1/14/2014 8:02:50 PM 162.3213,25.06391,23.76614,102.9563,17.08923,1,0,0,0,0,-73.96493,-0.01695686,-1.479505,0,-73.96493,-8.911928,-0.1683575,0,0,0,0,0,-13,0,0,12.68658,0.002363362,-0.1425326,0,12.68658,4.472499,1,0,0,0,0,0,5,0,0,0.09290116,-0.000532975,0.4327936,0.9874268,-5.98041,0.4228252,0,0,0,0,-99.01257,0,0,4025,0,0,296,2,229
1/14/2014 8:02:51 PM 161.4491,-16.99506,24.07114,162.3213,25.06391,1,0,0,0,0,1594.228,-0.06393618,-1.574624,0,1594.228,-0.01695686,-0.3571354,0,0,0,0,0,13,0,0,-164.4318,-0.2330667,1.770896,0,-164.4318,0.002363362,0.473113,0,0,0,0,0,-5,0,0,0.4056468,-1.143785,0.5335544,99.77332,-0.001748371,0.5,0,0,0,0,-0.2266846,0,0,4025,0,0,297,2,229
1/14/2014 8:02:51 PM 156.3374,-48.1518,24.21365,161.4491,-16.99506,1,0,0,0,0,1594.228,-0.1379415,-1.442241,0,1594.228,-0.06393618,0.4518133,0,0,0,0,0,13,0,0,-164.4318,-0.5989234,9.00667,0,-164.4318,-0.2330667,-0.6229225,0,0,0,0,0,-5,0,0,0.9325507,-1.204544,0.0412119,99.77332,-3.752073,0.5,0,0,0,0,-0.2266846,0,0,4025,0,0,298,2,229
1/14/2014 8:02:51 PM 151.2667,-62.10222,24.34282,156.3374,-48.1518,1,0,0,0,0,1594.214,-0.233836,-1.091034,0,1594.228,-0.1379415,0.4477094,0,0,0,0,0,13,0,0,-164.7216,-0.9144993,14.7889,0,-164.4318,-0.5989234,-1,0,0,0,0,0,-5,0,0,1.315153,-1.395443,0,99.77332,-3.951387,0.5,0,0,0,0,-0.9182739,0,0,4025,0,0,299,2,229
1/14/2014 8:02:51 PM 142.5791,-75.83632,24.45948,151.2667,-62.10222,1,0,0,0,0,1593.804,-0.2833083,1.163337,0,1594.214,-0.233836,0.4368221,0,0,0,0,0,13,0,0,-164.6666,-1.317772,19.07829,0,-164.7216,-0.9144993,-1,0,0,0,0,0,-5,0,0,1.902896,-1.429965,0,99.08173,-4.577613,0.5,0,0,0,0,-1.294189,0,0,4025,0,0,300,2,229
1/14/2014 8:02:51 PM 136.3913,-81.49798,24.65025,142.5791,-75.83632,1,0,0,0,0,1594.142,-0.3208762,3.886191,0,1594.142,-0.2833083,0.3669366,0,0,0,0,0,13,0,0,-164.6666,-1.582267,18.47881,0,-164.6666,-1.317772,-1,0,0,0,0,0,-5,0,0,2.281041,-1.366382,0,98.33722,-4.690857,0.5,0,0,0,0,-1.662781,0,0,4025,0,0,301,2,229
1/14/2014 8:02:51 PM 126.79,-86.0812,24.72965,136.3913,-81.49798,1,0,0,0,0,1594.069,-0.3422761,8.906754,0,1594.069,-0.3208762,0.2825281,0,0,0,0,0,13,0,0,-164.6115,-1.94482,13.37506,0,-164.6115,-1.582267,-1,0,0,0,0,0,-5,0,0,2.805505,-1.262923,0,97.59277,-4.482281,0.5,0,0,0,0,-2.407227,0,0,4025,0,0,302,2,229
1/14/2014 8:02:51 PM 117.316,-86.803,24.78549,126.79,-86.0812,1,0,0,0,0,1594.326,-0.2690256,13.78875,0,1594.069,-0.3422761,0.1268906,0,0,0,0,0,13,0,0,-165.7241,-2.227979,5.044322,0,-164.6115,-1.94482,-1,0,0,0,0,0,-5,0,0,3.264801,-1.215186,0,97.59277,-4.142894,0.5,0,0,0,0,-2.85022,0,0,4025,0,0,303,2,229
1/14/2014 8:02:51 PM 107.8624,-85.64037,24.81894,117.316,-86.803,1,0,0,0,0,1594.326,-0.06947611,17.78538,0,1594.326,-0.2690256,-0.02445136,0,0,0,0,0,13,0,0,-165.7241,-2.442009,-5.201783,0,-165.7241,-2.227979,-0.9240777,0,0,0,0,0,-5,0,0,3.682196,-1.205247,0,97.14978,-3.986296,0.5,0,0,0,0,-2.85022,0,0,4025,0,0,304,2,229
1/14/2014 8:02:51 PM 104.6534,-85.13839,24.84303,107.8624,-85.64037,1,0,0,0,0,1594.326,0.02649216,18.84726,0,1594.326,-0.06947611,-0.1483469,0,0,0,0,0,13,0,0,-165.7241,-2.499772,-8.947766,0,-165.7241,-2.442009,0.01856401,0,0,0,0,0,-5,0,0,3.816338,-1.205398,0,97.14978,-3.953692,0.5,0,0,0,0,-2.85022,0,0,4025,0,0,305,2,229
1/14/2014 8:02:51 PM 87.747,-84.39728,24.84773,104.6534,-85.13839,1,0,0,0,0,1594.254,0.7436155,21.37707,0,1594.254,0.02649216,-0.181265,0,0,0,0,0,13,0,0,-165.6691,-2.73623,-29.83857,0,-165.6691,-2.499772,0.3631945,0,0,0,0,0,-5,0,0,4.452832,-1.081845,0,96.40533,-3.954187,0.5,0,0,0,0,-3.594666,0,0,4025,0,0,306,2,229
1/14/2014 8:02:52 PM 84.29175,-84.78036,24.81071,87.747,-84.39728,1,0,0,0,0,1593.945,0.899085,21.18229,0,1594.254,0.7436155,-0.2596893,0,0,0,0,0,13,0,0,-166.5934,-2.786808,-33.97235,0,-165.6691,-2.73623,1,0,0,0,0,0,-5,0,0,4.565619,-1.027483,0,96.40533,-3.548884,0.5,0,0,0,0,-4.556458,0,0,4025,0,0,307,2,229
1/14/2014 8:02:52 PM 70.44332,-91.03798,24.76853,84.29175,-84.78036,1,0,0,0,0,1593.945,1.573986,17.84216,0,1593.945,0.899085,-0.2536511,0,0,0,0,0,13,0,0,-166.5934,-3.004308,-46.43875,0,-166.5934,-2.786808,1,0,0,0,0,0,-5,0,0,4.928364,-0.6552258,0,95.44354,-3.370556,0.5,0,0,0,0,-4.556458,0,0,4025,0,0,308,2,229
1/14/2014 8:02:52 PM 60.40731,-102.3289,24.62047,70.44332,-91.03798,1,0,0,0,0,1594.283,2.023483,12.83206,0,1594.283,1.573986,-0.150107,0,0,0,0,0,13,0,0,-166.5934,-3.191075,-49.6682,0,-166.5934,-3.004308,1,0,0,0,0,0,-5,0,0,5.06586,-0.2976136,0,95.07495,-2.149403,0.5,0,0,0,0,-4.925049,0,0,4025,0,0,309,2,229
1/14/2014 8:02:52 PM 50.18332,-121.1496,24.52378,60.40731,-102.3289,1,0,0,0,0,1594.3,2.410885,5.838892,0,1594.3,2.023483,0.005206026,0,0,0,0,0,13,0,0,-167.4944,-3.384383,-47.77252,0,-167.4944,-3.191075,1,0,0,0,0,0,-5,0,0,5.077092,0.05878928,0,95.09064,-0.9762915,0.5,0,0,0,0,-4.909363,0,0,4025,0,0,310,2,229
1/14/2014 8:02:52 PM 42.65049,-138.0251,24.40455,50.18332,-121.1496,1,0,0,0,0,1594.976,2.640987,0.08522855,0,1594.3,2.410885,0.2219943,0,0,0,0,0,13,0,0,-167.4944,-3.508578,-43.98693,0,-167.4944,-3.384383,1,0,0,0,0,0,-5,0,0,5.024981,0.244337,0,95.09064,0.1928523,0.5,0,0,0,0,-5.646484,0,0,4025,0,0,311,2,229
1/14/2014 8:02:52 PM 28.31169,-168.9589,24.26987,42.65049,-138.0251,1,0,0,0,0,1594.976,3.010143,-10.23029,0,1594.976,2.640987,0.4003579,0,0,0,0,0,13,0,0,-167.4944,-3.659398,-33.86759,0,-167.4944,-3.508578,1,0,0,0,0,0,-5,0,0,4.89153,0.3598425,0,94.35352,0.8015231,0.5,0,0,0,0,-5.646484,0,0,4025,0,0,312,2,229
1/14/2014 8:02:52 PM 8.744644,-199.7779,23.93971,28.31169,-168.9589,1,0,0,0,0,1595.206,3.423546,-19.86352,0,1595.206,3.010143,0.7201388,0,0,0,0,0,13,0,0,-168.8736,-3.69374,-17.93214,0,-168.8736,-3.659398,1,0,0,0,0,0,-5,0,0,4.782046,0.1935405,0,94.565,1.180427,0.5,0,0,0,0,-5.434998,0,0,4025,0,0,313,2,229
1/14/2014 8:02:52 PM 344.7941,-221.5983,23.72975,8.744644,-199.7779,1,0,0,0,0,1595.46,3.884364,-24.30256,0,1595.46,3.423546,1,0,0,0,0,0,13,0,0,-168.7954,-3.499833,2.337029,0,-168.7954,-3.69374,1,0,0,0,0,0,-5,0,0,4.786115,-0.1664345,0,94.79797,0.6348903,0.5,0,0,0,0,-5.202026,0,0,4025,0,0,314,2,229
1/14/2014 8:02:52 PM 319.5869,-231.2063,23.46614,-15.2059,-221.5983,1,0,0,0,0,1596.546,4.403841,-20.70285,0,1595.46,3.884364,1,0,0,0,0,0,13,0,0,-168.8504,-3.038997,23.77723,0,-168.7954,-3.499833,-0.6750