DateTime,MagYaw,YawVelocityDegreesPerSecond,YawIntegral,YawProportional,YawDerivativeError,YawControl,YawIntegralGain,YawDerivativeGain,YawProportionalGain,YawAntiWindupGain,XNEDBodyFrame,XVelocityMetersPerSecond,ThetaPitchDegrees,XIntegral,XProportional,XDerivativeError,LongitudeControl,XIntegralGain,XDerivativeGain,XProportionalGain,XAntiWindupGain,LongitudeInnerLoopGain,XLongitudeOuterLoopSetpoint,PitchAngularVelocityRadsPerSecond,PitchAngularVelocityGain,YNEDBodyFrame,YVelocityMetersPerSecond,PhiRollDegrees,YIntegral,YProportional,YDerivativeError,LateralControl,YIntegralGain,YDerivativeGain,YProportionalGain,YAntiWindupGain,LateralInnerLoopGain,YLateralOuterLoopSetpoint,RollAngularVelocityRadsPerSecond,RollAngularVelocityGain,AltitudeFeetAgl,ZVelocityMetersPerSecond,ZIntegral,ZProportional,ZDerivativeError,MainRotorCollectiveControl,ZIntegralGain,ZDerivativeGain,ZProportionalGain,ZAntiWindupGain,ZNEDBodyFrame,LatitudeDegrees,LongitudeDegrees,Timeouts,UnrecognizedMsgTypes,ChecksumErrors,NumOfBlownFrames,MessageType,NumOfBytesInMsg
09.31.42.154451, 22.75298,9.743347,0,0,0,0,0,0,0,0,0,-0.01889164,-1.504856,0,0,0,0,0,0,0,0,0,0,0,0,0,0.04859822,0.7575997,0,0,0,0,0,0,0,0,0,0,0,0,0.09303949,-0.000539298,0,0,0,0,0,0,0,0,0,0,0,91,0,0,0,2,229
09.31.42.198453, 22.75298,9.743347,0.05688245,22.75298,9.743347,0.49335,0,0,0,0,0,-0.01889164,-1.504856,0,0,-0.01889164,0.04556184,0,0,0,0,0,-0.03511956,0,0,0,0.04859822,0.7575997,0,0,0.04859822,-0.05701797,0,0,0,0,0,0.1378391,0,0,0.09303949,-0.000539298,0.09999999,100,-0.001769113,0.5,0,0,0,0,0,0,0,92,0,0,1,2,229
09.31.42.287458, 23.52304,2.826232,0.1137649,22.75298,9.743347,0.5502325,0,0,0,0,0,-0.04076242,-1.51632,0,0,-0.01889164,0.04556184,0,0,0,0,0,-0.03511956,0,0,0,0.07189845,0.7887483,0,0,0.04859822,-0.05701797,0,0,0,0,0,0.1378391,0,0,0.09305882,0.0007082519,0,100,-0.001769113,0.5,0,0,0,0,0,0,0,92,0,0,2,2,229
09.31.42.385464, 23.44003,-1.649989,0.1725725,23.52304,2.826232,0.6117648,0,0,0,0,0,-0.01145972,-1.519436,0,0,-0.04076242,0.04465683,0,0,0,0,0,-0.07577734,0,0,0,0.1277767,0.7536646,0,0,0.07189845,-0.05380369,0,0,0,0,0,0.2039255,0,0,0.3322708,-1.449314,0,100,0.002323349,0.5,0,0,0,0,0,0,0,92,0,0,3,2,229
09.31.42.487470, 22.62667,-10.18107,0.2897726,23.44003,-1.649989,0.7199905,0,0,0,0,0.3378854,-0.02927651,-1.096169,0,0.3378854,-0.01145972,0.04644209,0,0,0,0,0,0.07634526,0,0,0,0.1992598,0.5520387,0,0,0.1277767,-0.03599513,0,0,0,0,0,0.3624132,0,0,0.8611618,-1.663128,0,99.63145,-4.754329,0.5,0,0,0,0,-0.3685559,0,0,92,0,0,4,2,229
09.31.42.586475, 21.85806,-15.33027,0.3463393,22.62667,-10.18107,0.7473516,0,0,0,0,0.2657143,-0.04443845,-0.7927322,0,0.2657143,-0.02927651,0.0346746,0,0,0,0,0,0.02236641,0,0,0.05503213,0.2348447,0.4384637,0,0.05503213,0.1992598,0.008482689,0,0,0,0,0,0.6442418,0,0,1.144906,-1.718855,0,98.88696,-5.455725,0.5,0,0,0,0,-1.113044,0,0,92,0,0,5,2,229
09.31.42.687481, 19.56757,-26.20315,0.4009844,21.85806,-15.33027,0.7792398,0,0,0,0,0.2657143,-0.08453522,-0.03792609,0,0.2657143,-0.04443845,0.02439429,0,0,0,0,0,-0.005819641,0,0,0.05503213,0.3023134,0.2244125,0,0.05503213,0.2348447,0.02821708,0,0,0,0,0,0.7451711,0,0,1.719683,-1.739604,0,98.88696,-5.638531,0.5,0,0,0,0,-1.113044,0,0,92,0,0,6,2,229
09.31.42.786487, 16.10121,-37.22218,0.4499034,19.56757,-26.20315,0.7677761,0,0,0,0,0.01156747,-0.1360309,0.8790572,0,0.2657143,-0.08453522,-0.001315437,0,0,0,0,0,-0.08035953,0,0,-0.02320892,0.366287,0.1022702,0,0.05503213,0.3023134,0.06551506,0,0,0,0,0,0.9365327,0,0,2.2869,-1.707063,0,98.88696,-5.706597,0.5,0,0,0,0,-1.346041,0,0,92,0,0,7,2,229
09.31.42.884493, 11.57354,-47.33406,0.5304094,16.10121,-37.22218,0.765937,0,0,0,0,0.2772818,-0.1965991,1.902405,0,0.2772818,-0.1360309,-0.03498646,0,0,0,0,0,-0.172747,0,0,0.03182328,0.4274313,0.1504889,0,0.03182328,0.366287,0.08310161,0,0,0,0,0,1.08463,0,0,2.838661,-1.656004,0,97.54092,-5.599851,0.5,0,0,0,0,-2.459085,0,0,92,0,0,8,2,229
09.31.42.986498, 9.021992,-50.76227,0.5593432,11.57354,-47.33406,0.6944304,0,0,0,0,0.2051108,-0.2275479,2.436097,0,0.2051108,-0.1965991,-0.06846676,0,0,0,0,0,-0.3062007,0,0,0.08685535,0.4544671,0.2292463,0,0.08685535,0.4274313,0.1091714,0,0,0,0,0,1.337134,0,0,3.107596,-1.627758,0,96.79642,-5.432355,0.5,0,0,0,0,-3.203574,0,0,92,0,0,9,2,229
09.31.43.085504, 3.519241,-55.87798,0.5818982,9.021992,-50.76227,0.6641567,0,0,0,0,0.2051108,-0.2946307,3.51557,0,0.2051108,-0.2275479,-0.08679479,0,0,0,0,0,-0.3637345,0,0,0.08685535,0.5053776,0.4630654,0,0.08685535,0.4544671,0.1089804,0,0,0,0,0,1.413816,0,0,3.631487,-1.569945,0,96.79642,-5.339696,0.5,0,0,0,0,-3.203574,0,0,92,0,0,10,2,229
09.31.43.187510, 358.1831,-51.82067,0.5906963,3.519241,-55.87798,0.5628092,0,0,0,0,-0.1472733,-0.3625244,4.520641,0,0.2051108,-0.2946307,-0.1241243,0,0,0,0,0,-0.4884414,0,0,-0.2028998,0.5450732,0.8052686,0,0.08685535,0.5053776,0.1007536,0,0,0,0,0,1.558214,0,0,4.136122,-1.513132,0,96.79642,-5.150047,0.5,0,0,0,0,-3.526633,0,0,92,0,0,11,2,229
09.31.43.285515, 355.7942,-47.52827,0.5816119,-1.816895,-51.82067,0.4619058,0,0,0,0,-0.5573297,-0.3998095,4.98124,0,-0.5573297,-0.3625244,-0.1623512,0,0,0,0,0,-0.8350011,0,0,-0.1478677,0.5651665,1.011037,0,-0.1478677,0.5450732,0.04132228,0,0,0,0,0,1.333505,0,0,4.382009,-1.487983,0,96.09743,-4.963678,0.5,0,0,0,0,-3.902565,0,0,92,0,0,12,2,229
09.31.43.387521, 351.9417,-34.01487,0.5710974,-4.205811,-47.52827,0.4144013,0,0,0,0,-0.6295009,-0.4802627,5.792232,0,-0.6295009,-0.3998095,-0.1830988,0,0,0,0,0,-0.9251717,0,0,-0.09283566,0.6042612,1.485533,0,-0.09283566,0.5651665,0.04218561,0,0,0,0,0,1.469577,0,0,4.863605,-1.447826,0,95.35294,-4.88118,0.5,0,0,0,0,-4.647054,0,0,92,0,0,13,2,229
09.31.43.485527, 350.8361,-22.06057,0.5509517,-8.058289,-34.01487,0.345561,0,0,0,0,-0.2916155,-0.5184399,6.101032,0,-0.6295009,-0.4802627,-0.2128759,0,0,0,0,0,-1.074734,0,0,-0.09283566,0.6092442,1.684309,0,-0.09283566,0.6042612,0.008733368,0,0,0,0,0,1.580461,0,0,5.100555,-1.434915,0,95.35294,-4.749447,0.5,0,0,0,0,-5.01561,0,0,92,0,0,14,2,229
09.31.43.588533, 350.423,2.183802,0.5280419,-9.16391,-22.06057,0.322102,0,0,0,0,-0.2916155,-0.6032374,6.477095,0,-0.2916155,-0.5184399,-0.2216217,0,0,0,0,0,-1.048057,0,0,-0.09283566,0.6329349,2.030157,0,-0.09283566,0.6092442,-0.008253769,0,0,0,0,0,1.594594,0,0,5.570508,-1.420136,0,94.98439,-4.707094,0.5,0,0,0,0,-5.01561,0,0,92,0,0,15,2,229
09.31.43.686538, 351.269,16.70233,0.4801571,-9.576965,2.183802,0.3068913,0,0,0,0,-0.3637865,-0.6449623,6.516973,0,-0.3637865,-0.6032374,-0.2381665,0,0,0,0,0,-1.226552,0,0,-0.03780353,0.6390846,2.184024,0,-0.03780353,0.6329349,-0.03388996,0,0,0,0,0,1.740869,0,0,5.80514,-1.420325,0,94.2399,-4.658616,0.5,0,0,0,0,-5.760098,0,0,92,0,0,16,2,229
09.31.43.784544, 355.0556,44.59962,0.4583296,-8.730988,16.70233,0.3248253,0,0,0,0,-0.6179335,-0.7319409,6.27447,0,-0.6179335,-0.6449623,-0.2447308,0,0,0,0,0,-1.377568,0,0,-0.1160445,0.6635449,2.492831,0,-0.1160445,0.6390846,-0.04950928,0,0,0,0,0,1.64588,0,0,6.277021,-1.43431,0,94.0069,-4.659235,0.5,0,0,0,0,-5.993095,0,0,92,0,0,17,2,229
09.31.43.886550, 358.0084,58.69603,0.4459687,-4.944366,44.59962,0.4287833,0,0,0,0,-0.2800481,-0.7740955,5.976621,0,-0.6179335,-0.7319409,-0.2422256,0,0,0,0,0,-1.539261,0,0,-0.1160445,0.6767181,2.630801,0,-0.1160445,0.6635449,-0.07153684,0,0,0,0,0,1.715256,0,0,6.516277,-1.449642,0,94.0069,-4.705112,0.5,0,0,0,0,-6.361651,0,0,92,0,0,18,2,229
09.31.43.984555, 5.721947,82.18578,0.4409897,-1.991608,58.69603,0.5017784,0,0,0,0,-0.2800481,-0.8574621,5.022402,0,-0.2800481,-0.7740955,-0.2323946,0,0,0,0,0,-1.519977,0,0,-0.1160445,0.7144093,2.858712,0,-0.1160445,0.6767181,-0.0807927,0,0,0,0,0,1.75262,0,0,7.005309,-1.494857,0,93.63835,-4.755404,0.5,0,0,0,0,-6.361651,0,0,92,0,0,19,2,229
09.31.44.087561, 15.1433,96.45918,0.4695994,5.721947,82.18578,0.7119143,0,0,0,0,-0.7622757,-0.9414272,3.638429,0,-0.7622757,-0.8574621,-0.2076181,0,0,0,0,0,-1.81432,0,0,-0.005980015,0.7731879,2.963824,0,-0.005980015,0.7144093,-0.09192536,0,0,0,0,0,2.017686,0,0,7.512841,-1.552938,0,92.51793,-4.903728,0.5,0,0,0,0,-7.482072,0,0,92,0,0,20,2,229
09.31.44.189567, 25.04623,100.136,0.5074577,15.1433,96.45918,0.9475224,0,0,0,0,-0.4243903,-1.032397,1.969795,0,-0.4243903,-0.9414272,-0.1708469,0,0,0,0,0,-1.872762,0,0,-0.005980015,0.8585095,2.871352,0,-0.005980015,0.7731879,-0.07170709,0,0,0,0,0,2.184399,0,0,8.041553,-1.618429,0,92.14938,-5.094258,0.5,0,0,0,0,-7.850627,0,0,92,0,0,21,2,229
09.31.44.299573, 29.72757,93.85047,0.5700732,25.04623,100.136,1,0,0,0,0,-0.6785369,-1.09543,1.094648,0,-0.4243903,-1.032397,-0.1243618,0,0,0,0,0,-2.041875,0,0,-0.08422112,0.9218836,2.769756,0,-0.005980015,0.8585095,-0.04093583,0,0,0,0,0,2.426397,0,0,8.314005,-1.651569,0,92.14938,-5.309093,0.5,0,0,0,0,-8.083624,0,0,92,0,0,22,2,229
09.31.44.402579, 37.90625,75.19176,0.6424005,29.72757,93.85047,1,0,0,0,0,-0.7507081,-1.235938,-0.6256299,0,-0.6785369,-1.09543,-0.1031416,0,0,0,0,0,-2.232502,0,0,-0.02918911,1.058828,2.546534,0,-0.08422112,0.9218836,-0.02539602,0,0,0,0,0,2.493712,0,0,8.876203,-1.718722,0,91.91637,-5.417808,0.5,0,0,0,0,-8.828114,0,0,92,0,0,23,2,229
09.31.44.500585, 43.63216,51.34904,0.8228681,37.90625,75.19176,1,0,0,0,0,-0.3316932,-1.390732,-2.154863,0,-0.3316932,-1.235938,-0.05855692,0,0,0,0,0,-2.393467,0,0,1.083414,1.205469,2.526675,0,1.083414,1.058828,0.03815017,0,0,0,0,0,4.56002,0,0,9.4601,-1.782917,0,90.87771,-5.638097,0.5,0,0,0,0,-9.122291,0,0,92,0,0,24,2,229
09.31.44.598591, 47.17684,30.79928,0.9254681,43.63216,51.34904,1,0,0,0,0,-0.7417493,-1.533623,-3.418365,0,-0.7417493,-1.390732,-0.01999106,0,0,0,0,0,-2.799736,0,0,1.138446,1.350067,2.765856,0,1.138446,1.205469,0.2275459,0,0,0,0,0,5,0,0,10.06347,-1.839676,0,90.50178,-5.848682,0.5,0,0,0,0,-9.498222,0,0,92,0,0,25,2,229
09.31.44.701596, 48.9437,13.85205,1.035243,47.17684,30.79928,1,0,0,0,0,-0.9958963,-1.673619,-4.335237,0,-0.7417493,-1.533623,0.01094285,0,0,0,0,0,-3.06537,0,0,1.060205,1.496237,3.435415,0,1.138446,1.350067,0.2055413,0,0,0,0,0,5,0,0,10.682,-1.880838,0,90.50178,-6.034874,0.5,0,0,0,0,-9.73122,0,0,92,0,0,26,2,229
09.31.44.799602, 49.24638,6.311398,1.148023,48.9437,13.85205,1,0,0,0,0,-0.658011,-1.754761,-4.638181,0,-0.9958963,-1.673619,0.0290211,0,0,0,0,0,-3.399073,0,0,1.060205,1.573821,4.157513,0,1.060205,1.496237,0.1439419,0,0,0,0,0,5,0,0,10.99397,-1.886998,0,90.26878,-6.169902,0.5,0,0,0,0,-10.09978,0,0,92,0,0,27,2,229
09.31.44.903608, 48.83058,-7.204801,1.371699,49.24638,6.311398,1,0,0,0,0,-1.478124,-1.920902,-4.87497,0,-1.478124,-1.754761,0.03676338,0,0,0,0,0,-3.689278,0,0,1.170269,1.733344,6.326232,0,1.170269,1.573821,0.07750884,0,0,0,0,0,5,0,0,11.61919,-1.889548,0,89.14836,-6.190109,0.5,0,0,0,0,-10.85164,0,0,92,0,0,28,2,229
09.31.44.999614, 47.20695,-19.28248,1.480858,48.83058,-7.204801,1,0,0,0,0,-1.625075,-2.109142,-4.563475,0,-1.625075,-1.920902,0.02586534,0,0,0,0,0,-4.040604,0,0,2.471178,1.900021,8.995399,0,2.471178,1.733344,-0.1220134,0,0,0,0,0,5,0,0,12.23852,-1.86613,0,88.33531,-6.198472,0.5,0,0,0,0,-11.66469,0,0,92,0,0,29,2,229
09.31.45.102619, 45.99431,-24.88619,1.585167,47.20695,-19.28248,1,0,0,0,0,-1.541337,-2.209731,-4.185246,0,-1.625075,-2.109142,0.005360941,0,0,0,0,0,-4.390541,0,0,2.392937,1.98463,10.26668,0,2.471178,1.900021,-0.3675767,0,0,0,0,0,5,0,0,12.54419,-1.848847,0,88.33531,-6.121654,0.5,0,0,0,0,-12.26624,0,0,92,0,0,30,2,229
09.31.45.215626, 42.86337,-35.18163,1.685902,45.99431,-24.88619,1,0,0,0,0,-1.951393,-2.419662,-2.997441,0,-1.541337,-2.209731,-0.01141075,0,0,0,0,0,-4.553335,0,0,2.447969,2.155982,12.31113,0,2.392937,1.98463,-0.4845349,0,0,0,0,0,5,0,0,13.14486,-1.811025,0,87.73376,-6.064956,0.5,0,0,0,0,-12.64217,0,0,92,0,0,31,2,229
09.31.45.302631, 40.9749,-39.88023,1.870164,42.86337,-35.18163,1,0,0,0,0,-1.613507,-2.513378,-2.220731,0,-1.613507,-2.419662,-0.06400454,0,0,0,0,0,-4.964455,0,0,2.447969,2.236522,12.53207,0,2.447969,2.155982,-0.6726238,0,0,0,0,0,5,0,0,13.44357,-1.809006,0,86.98927,-5.940886,0.5,0,0,0,0,-13.01073,0,0,92,0,0,32,2,229
09.31.45.401637, 36.6366,-47.70147,1.956567,40.9749,-39.88023,1,0,0,0,0,-2.615596,-2.693649,-0.4356946,0,-2.615596,-2.513378,-0.09943389,0,0,0,0,0,-5.428276,0,0,2.42476,2.386004,11.3057,0,2.42476,2.236522,-0.6929507,0,0,0,0,0,5,0,0,14.04199,-1.821135,0,86.7489,-5.934263,0.5,0,0,0,0,-13.2511,0,0,92,0,0,33,2,229
09.31.45.501642, 31.62341,-53.83178,2.031687,36.6366,-47.70147,1,0,0,0,0,-2.27771,-2.827502,1.456741,0,-2.615596,-2.693649,-0.1651589,0,0,0,0,0,-5.763401,0,0,2.42476,2.49487,7.73376,0,2.42476,2.386004,-0.5801247,0,0,0,0,0,5,0,0,14.66147,-1.911613,0,86.7489,-5.974051,0.5,0,0,0,0,-13.61966,0,0,92,0,0,34,2,229
09.31.45.601648, 28.87905,-56.32857,2.094455,31.62341,-53.83178,1,0,0,0,0,-2.959021,-2.867848,2.318074,0,-2.27771,-2.827502,-0.2285111,0,0,0,0,0,-5.914586,0,0,3.30264,2.524765,4.975059,0,2.42476,2.49487,-0.2515059,0,0,0,0,0,5,0,0,14.98968,-1.994071,0,86.38034,-6.270854,0.5,0,0,0,0,-14.24427,0,0,92,0,0,35,2,229
09.31.45.699654, 22.96882,-60.30341,2.207054,28.87905,-56.32857,1,0,0,0,0,-2.97352,-2.893209,3.658972,0,-2.97352,-2.867848,-0.2636414,0,0,0,0,0,-6.190677,0,0,3.012885,2.515234,-1.882775,0,3.012885,2.524765,0.002294613,0,0,0,0,0,5,0,0,15.69886,-2.216149,0,85.06412,-6.541352,0.5,0,0,0,0,-14.93589,0,0,92,0,0,36,2,229
09.31.45.801659, 19.839,-61.87136,2.248008,22.96882,-60.30341,1,0,0,0,0,-3.045691,-2.886606,4.020174,0,-3.045691,-2.893209,-0.3074472,0,0,0,0,0,-6.25868,0,0,3.067917,2.486981,-5.25013,0,3.067917,2.515234,0.6332153,0,0,0,0,0,5,0,0,16.08142,-2.329762,0,84.31963,-7.269854,0.5,0,0,0,0,-15.68037,0,0,92,0,0,37,2,229
09.31.45.899665, 13.32201,-65.03224,2.281885,19.839,-61.87136,1,0,0,0,0,-3.455748,-2.824874,4.064816,0,-3.045691,-2.886606,-0.3182639,0,0,0,0,0,-6.246406,0,0,3.122949,2.352025,-11.0493,0,3.067917,2.486981,0.9430119,0,0,0,0,0,5,0,0,16.90894,-2.579579,0,84.31963,-7.642552,0.5,0,0,0,0,-16.0563,0,0,92,0,0,38,2,229
09.31.46.001671, 9.964041,-66.73396,2.299736,13.32201,-65.03224,1,0,0,0,0,-3.527919,-2.801988,3.732791,0,-3.455748,-2.824874,-0.319764,0,0,0,0,0,-6.250152,0,0,3.177981,2.297618,-12.43363,0,3.122949,2.352025,1,0,0,0,0,0,5,0,0,17.34406,-2.65295,0,83.9437,-8.462051,0.5,0,0,0,0,-16.80079,0,0,92,0,0,39,2,229
09.31.46.100676, 3.003706,-71.29365,2.321345,9.964041,-66.73396,1,0,0,0,0,-3.44418,-2.746329,2.550561,0,-3.44418,-2.801988,-0.3087989,0,0,0,0,0,-6.204263,0,0,3.09974,2.178552,-11.87136,0,3.09974,2.297618,1,0,0,0,0,0,5,0,0,18.24026,-2.752252,0,82.59766,-8.702737,0.5,0,0,0,0,-17.40235,0,0,92,0,0,40,2,229
09.31.46.198682, 359.3385,-74.50124,2.31491,3.003706,-71.29365,1,0,0,0,0,-3.854236,-2.723549,1.779269,0,-3.854236,-2.746329,-0.2718657,0,0,0,0,0,-6.2193,0,0,3.154772,2.140859,-10.12791,0,3.154772,2.178552,1,0,0,0,0,0,5,0,0,18.69334,-2.765591,0,82.22172,-9.028488,0.5,0,0,0,0,-17.77828,0,0,92,0,0,41,2,229
09.31.46.300688, 351.3579,-83.47044,2.300738,-0.6614685,-74.50124,1,0,0,0,0,-4.281401,-2.68632,0.08781762,0,-3.854236,-2.723549,-0.2466429,0,0,0,0,0,-6.176953,0,0,4.110894,2.142252,-4.538973,0,3.154772,2.140859,1,0,0,0,0,0,5,0,0,19.59103,-2.725512,0,82.22172,-9.072244,0.5,0,0,0,0,-18.1699,0,0,92,0,0,42,2,229
09.31.46.399694, 346.9238,-89.17661,2.267486,-8.64209,-83.47044,1,0,0,0,0,-4.269833,-2.668937,-0.7105165,0,-4.281401,-2.68632,-0.1958894,0,0,0,0,0,-6.231194,0,0,4.087685,2.189742,-0.9071892,0,4.110894,2.142252,0.8775855,0,0,0,0,0,5,0,0,20.02878,-2.671356,0,81.83011,-8.940769,0.5,0,0,0,0,-19.51594,0,0,92,0,0,43,2,229
09.31.46.506700, 336.9196,-102.7597,2.18406,-13.07617,-89.17661,1,0,0,0,0,-4.342004,-2.60901,-1.878839,0,-4.342004,-2.668937,-0.1700356,0,0,0,0,0,-6.216393,0,0,4.142716,2.386028,7.649701,0,4.142716,2.189742,0.5434614,0,0,0,0,0,5,0,0,20.86968,-2.525373,0,79.73958,-8.763118,0.5,0,0,0,0,-20.26043,0,0,92,0,0,44,2,229
09.31.46.599705, 331.2887,-110.4473,2.118416,-23.08041,-102.7597,1,0,0,0,0,-4.596151,-2.559929,-2.058456,0,-4.596151,-2.60901,-0.1332875,0,0,0,0,0,-6.178436,0,0,4.064476,2.535017,12.4434,0,4.064476,2.386028,-0.2437725,0,0,0,0,0,5,0,0,21.26905,-2.432447,0,79.50658,-8.284233,0.5,0,0,0,0,-20.49342,0,0,92,0,0,45,2,229
09.31.46.701711, 325.2246,-118.6272,2.041425,-28.71133,-110.4473,1,0,0,0,0,-4.668323,-2.486581,-1.850253,0,-4.596151,-2.559929,-0.1248909,0,0,0,0,0,-6.087196,0,0,4.119508,2.717282,17.48438,0,4.064476,2.535017,-0.684793,0,0,0,0,0,5,0,0,21.65205,-2.330708,0,79.50658,-7.9794,0.5,0,0,0,0,-21.23791,0,0,92,0,0,46,2,229
09.31.46.800717, 311.8602,-136.2931,1.951212,-34.77539,-118.6272,1,0,0,0,0,-4.668323,-2.271535,0.1013033,0,-4.668323,-2.486581,-0.1277648,0,0,0,0,0,-5.9717,0,0,4.119508,3.111278,26.13077,0,4.119508,2.717282,-1,0,0,0,0,0,5,0,0,22.37695,-2.164655,0,78.76208,-7.645655,0.5,0,0,0,0,-21.23791,0,0,92,0,0,47,2,229
09.31.46.902722, 304.5755,-146.2429,1.709396,-48.13977,-136.2931,0.5936342,0,0,0,0,-4.887444,-2.13049,1.904555,0,-4.887444,-2.271535,-0.1758702,0,0,0,0,0,-5.635255,0,0,5.475449,3.308439,28.35718,0,5.475449,3.111278,-1,0,0,0,0,0,5,0,0,22.72386,-2.09733,0,77.20456,-7.100935,0.5,0,0,0,0,-22.79544,0,0,92,0,0,48,2,229
09.31.47.000728, 296.8578,-156.9574,1.570835,-55.4245,-146.2429,0.3039762,0,0,0,0,-4.887444,-1.96132,4.17964,0,-4.887444,-2.13049,-0.2256058,0,0,0,0,0,-5.373052,0,0,5.475449,3.510448,29.229,0,5.475449,3.308439,-1,0,0,0,0,0,5,0,0,23.05853,-2.016222,0,77.20456,-6.880081,0.5,0,0,0,0,-22.79544,0,0,92,0,0,49,2,229
09.31.47.098734, 296.8578,-156.9574,1.41298,-63.14215,-156.9574,-0.01424357,0,0,0,0,-5.14159,-1.96132,4.17964,0,-4.887444,-1.96132,-0.2863843,0,0,0,0,0,-5.058565,0,0,5.397208,3.510448,29.229,0,5.475449,3.510448,-1,0,0,0,0,0,5,0,0,23.05853,-2.016222,0,77.20456,-6.614015,0.5,0,0,0,0,-23.02844,0,0,92,0,0,50,2,229
09.31.47.201739, 296.8578,-156.9574,1.255124,-63.14215,-156.9574,-0.172099,0,0,0,0,-5.14159,-1.96132,4.17964,0,-5.14159,-1.96132,-0.2886612,0,0,0,0,0,-5.132013,0,0,5.397208,3.510448,29.229,0,5.397208,3.510448,-1,0,0,0,0,0,5,0,0,23.05853,-2.016222,0,76.97156,-6.614015,0.5,0,0,0,0,-23.02844,0,0,92,0,0,51,2,229
09.31.47.299745, 288.6603,-168.1373,0.9394134,-63.14215,-156.9574,-0.4878097,0,0,0,0,-5.14159,-1.776048,6.829626,0,-5.14159,-1.96132,-0.2886612,0,0,0,0,0,-5.132013,0,0,5.397208,3.700404,28.68425,0,5.397208,3.510448,-1,0,0,0,0,0,5,0,0,23.38267,-1.945708,0,76.97156,-6.614015,0.5,0,0,0,0,-23.02844,0,0,92,0,0,52,2,229
09.31.47.401751, 275.6458,-114.7401,0.7610642,-71.33969,-168.1373,-0.8361612,0,0,0,0,-5.551647,-1.609374,9.912061,0,-5.551647,-1.776048,-0.3638075,0,0,0,0,0,-4.906099,0,0,5.45224,3.881237,23.93606,0,5.45224,3.700404,-1,0,0,0,0,0,5,0,0,24.04085,-1.976779,0,76.59563,-6.382699,0.5,0,0,0,0,-23.40437,0,0,92,0,0,53,2,229
09.31.47.500757, 267.1728,-63.98188,0.5501788,-84.35416,-114.7401,-1,0,0,0,0,-5.640925,-1.537374,10.28702,0,-5.551647,-1.609374,-0.4497577,0,0,0,0,0,-4.596251,0,0,6.40836,4.017026,16.35513,0,5.45224,3.881237,-1,0,0,0,0,0,5,0,0,24.70447,-1.984184,0,76.59563,-6.484625,0.5,0,0,0,0,-24.16455,0,0,92,0,0,54,2,229
09.31.47.602762, 265.4503,-27.56203,0.3200974,-92.82724,-63.98188,-1,0,0,0,0,-6.232958,-1.59467,9.437762,0,-5.640925,-1.537374,-0.458032,0,0,0,0,0,-4.488206,0,0,6.33012,4.048005,12.01166,0,6.40836,4.017026,-1,0,0,0,0,0,5,0,0,25.03993,-1.998552,0,75.83546,-6.508916,0.5,0,0,0,0,-24.02899,0,0,92,0,0,55,2,229
09.31.47.700768, 266.9689,36.14067,-0.1406072,-94.54968,-27.56203,-1,0,0,0,0,-6.30513,-1.787348,6.526298,0,-6.30513,-1.59467,-0.440311,0,0,0,0,0,-4.786674,0,0,6.385152,4.056385,2.786101,0,6.385152,4.048005,-0.6450731,0,0,0,0,0,5,0,0,25.70971,-1.9975,0,75.22652,-6.556051,0.5,0,0,0,0,-24.77348,0,0,92,0,0,56,2,229
09.31.47.802774, 274.6889,89.75451,-0.3638564,-93.03113,36.14067,-1,0,0,0,0,-5.984352,-2.08205,3.133747,0,-5.984352,-1.787348,-0.3589321,0,0,0,0,0,-5.052158,0,0,7.286241,3.956702,-7.077806,0,7.286241,4.056385,0.2036787,0,0,0,0,0,5,0,0,26.37682,-1.990281,0,74.84229,-6.5526,0.5,0,0,0,0,-25.15771,0,0,92,0,0,57,2,229
09.31.47.900779, 280.5342,112.2929,-0.5669126,-85.31107,89.75451,-1,0,0,0,0,-6.466578,-2.252847,1.728717,0,-5.984352,-2.08205,-0.2707464,0,0,0,0,0,-5.600008,0,0,7.396305,3.855843,-12.08576,0,7.286241,3.956702,1,0,0,0,0,0,5,0,0,26.71058,-1.997984,0,74.84229,-6.528919,0.5,0,0,0,0,-26.27814,0,0,92,0,0,58,2,229
09.31.48.000785, 295.5537,150.3303,-0.7556423,-79.46582,112.2929,-1,0,0,0,0,-6.466578,-2.605089,0.3378968,0,-6.466578,-2.252847,-0.2413536,0,0,0,0,0,-6.056883,0,0,7.396305,3.536751,-21.11319,0,7.396305,3.855843,1,0,0,0,0,0,5,0,0,27.38764,-2.050988,0,73.72186,-6.554187,0.5,0,0,0,0,-26.27814,0,0,92,0,0,59,2,229
09.31.48.101791, 304.3324,164.8845,-1.059037,-64.44632,150.3303,-1,0,0,0,0,-7.318298,-2.739834,0.5853299,0,-7.318298,-2.605089,-0.2185375,0,0,0,0,0,-6.957849,0,0,8.117703,3.351846,-23.63429,0,8.117703,3.536751,1,0,0,0,0,0,5,0,0,27.73381,-2.088436,0,72.2627,-6.728061,0.5,0,0,0,0,-27.7373,0,0,92,0,0,60,2,229
09.31.48.199797, 323.715,191.499,-1.188211,-55.66763,164.8845,-1,0,0,0,0,-7.318298,-2.958404,2.750507,0,-7.318298,-2.739834,-0.2416038,0,0,0,0,0,-7.20834,0,0,8.117703,2.897685,-24.46094,0,8.117703,3.351846,1,0,0,0,0,0,5,0,0,28.4461,-2.175748,0,72.2627,-6.850906,0.5,0,0,0,0,-27.7373,0,0,92,0,0,61,2,229
09.31.48.301802, 334.2064,203.9314,-1.2695,-36.28497,191.499,-1,0,0,0,0,-7.644615,-3.027474,4.436629,0,-7.318298,-2.958404,-0.3213202,0,0,0,0,0,-7.614662,0,0,8.094494,2.656039,-23.03384,0,8.117703,2.897685,1,0,0,0,0,0,5,0,0,28.80938,-2.206189,0,72.2627,-7.137323,0.5,0,0,0,0,-28.71478,0,0,92,0,0,62,2,229
09.31.48.399808, 345.2603,216.7422,-1.32777,-25.79361,203.9314,-1,0,0,0,0,-7.644615,-3.064914,6.313379,0,-7.644615,-3.027474,-0.3804939,0,0,0,0,0,-7.837368,0,0,8.094494,2.426963,-20.53536,0,8.094494,2.656039,1,0,0,0,0,0,5,0,0,29.17346,-2.215303,0,71.28522,-7.237184,0.5,0,0,0,0,-28.71478,0,0,92,0,0,63,2,229
09.31.48.501814, 9.311464,242.7907,-1.394098,-14.73972,216.7422,-1,0,0,0,0,-7.644615,-3.065542,9.765182,0,-7.644615,-3.064914,-0.4408308,0,0,0,0,0,-7.906969,0,0,8.094494,2.056658,-12.67401,0,8.094494,2.426963,1,0,0,0,0,0,5,0,0,29.89079,-2.168775,0,71.28522,-7.267079,0.5,0,0,0,0,-28.71478,0,0,92,0,0,64,2,229
09.31.48.604820, 22.39294,255.634,-1.367759,9.311464,242.7907,-0.7921537,0,0,0,0,-7.63305,-3.049031,10.8175,0,-7.63305,-3.065542,-0.5477692,0,0,0,0,0,-7.904795,0,0,8.071285,1.931304,-7.526819,0,8.071285,2.056658,1,0,0,0,0,0,5,0,0,30.23533,-2.103395,0,69.93917,-7.114448,0.5,0,0,0,0,-30.06083,0,0,92,0,0,65,2,229
09.31.48.702825, 50.41491,279.3469,-1.311776,22.39294,255.634,-0.4731929,0,0,0,0,-7.63305,-3.048025,10.39084,0,-7.63305,-3.049031,-0.5794398,0,0,0,0,0,-7.8741,0,0,8.071285,1.78792,4.210508,0,8.071285,1.931304,1,0,0,0,0,0,5,0,0,30.87227,-1.886937,0,69.93917,-6.899975,0.5,0,0,0,0,-30.06083,0,0,92,0,0,66,2,229
09.31.48.801831, 79.5755,291.8975,-1.185739,50.41491,279.3469,0.2098583,0,0,0,0,-8.034145,-3.172891,5.722018,0,-7.63305,-3.048025,-0.5661553,0,0,0,0,0,-7.872231,0,0,9.293953,1.735323,15.70502,0,8.071285,1.78792,0.07263327,0,0,0,0,0,5,0,0,31.4128,-1.576141,0,69.93917,-6.189907,0.5,0,0,0,0,-31.10687,0,0,92,0,0,67,2,229
09.31.48.898837, 93.34547,282.0586,-0.7878616,79.5755,291.8975,1,0,0,0,0,-8.444202,-3.33821,2.087809,0,-8.444202,-3.172891,-0.432211,0,0,0,0,0,-8.338779,0,0,9.348984,1.700873,20.54263,0,9.348984,1.735323,-0.9848614,0,0,0,0,0,5,0,0,31.63753,-1.387563,0,68.5172,-5.170374,0.5,0,0,0,0,-31.4828,0,0,92,0,0,68,2,229
09.31.49.001842, 118.2877,245.8944,-0.5561702,93.34547,282.0586,1,0,0,0,0,-8.444202,-3.766838,-6.21946,0,-8.444202,-3.33821,-0.3327514,0,0,0,0,0,-8.646106,0,0,9.348984,1.500133,27.19929,0,9.348984,1.700873,-1,0,0,0,0,0,5,0,0,31.99105,-1.012742,0,68.5172,-4.551761,0.5,0,0,0,0,-31.4828,0,0,92,0,0,69,2,229
09.31.49.099848, 128.3913,209.5108,-0.26682,118.2877,245.8944,1,0,0,0,0,-9.108406,-4.014689,-9.793245,0,-8.444202,-3.766838,-0.09992747,0,0,0,0,0,-9.442926,0,0,9.325775,1.312782,28.0341,0,9.348984,1.500133,-1,0,0,0,0,0,5,0,0,32.12601,-0.8618785,0,68.5172,-3.322198,0.5,0,0,0,0,-32.09173,0,0,92,0,0,70,2,229
09.31.49.201854, 143.8039,138.4842,0.04088968,128.3913,209.5108,1,0,0,0,0,-9.446292,-4.4611,-14.74082,0,-9.108406,-4.014689,-0.009374122,0,0,0,0,0,-10.09564,0,0,9.325775,0.8417333,25.5143,0,9.325775,1.312782,-1,0,0,0,0,0,5,0,0,32.31544,-0.5578681,0,67.90826,-2.827306,0.5,0,0,0,0,-31.72318,0,0,92,0,0,71,2,229
09.31.49.300860, 149.3257,107.4728,0.71961,143.8039,138.4842,1,0,0,0,0,-9.77261,-4.649431,-16.0877,0,-9.77261,-4.4611,0.1152473,0,0,0,0,0,-11.11747,0,0,9.302567,0.5886144,22.99605,0,9.302567,0.8417333,-1,0,0,0,0,0,5,0,0,32.37861,-0.4499801,0,67.29934,-1.83003,0.5,0,0,0,0,-32.70066,0,0,92,0,0,72,2,229
09.31.49.402865, 156.4854,54.53027,1.066864,149.3257,107.4728,1,0,0,0,0,-9.77261,-4.980903,-17.0028,0,-9.77261,-4.649431,0.1432238,0,0,0,0,0,-11.46758,0,0,9.302567,0.1212526,17.05908,0,9.302567,0.5886144,-1,0,0,0,0,0,5,0,0,32.45991,-0.2907431,0,67.29934,-1.476115,0.5,0,0,0,0,-32.70066,0,0,92,0,0,73,2,229
09.31.49.500871, 159.1668,13.23071,1.42804,156.4854,54.53027,1,0,0,0,0,-10.52055,-5.271359,-16.27622,0,-9.77261,-4.980903,0.1524897,0,0,0,0,0,-12.08378,0,0,9.357598,-0.248596,10.87763,0,9.302567,0.1212526,-1,0,0,0,0,0,5,0,0,32.50391,-0.2099523,0,67.29934,-0.9537538,0.5,0,0,0,0,-32.70804,0,0,92,0,0,74,2,229
09.31.49.598877, 159.1526,-3.093917,1.791866,159.1668,13.23071,1,0,0,0,0,-10.85844,-5.40775,-15.50879,0,-10.52055,-5.271359,0.1065262,0,0,0,0,0,-12.8399,0,0,9.357598,-0.3851401,7.794716,0,9.357598,-0.248596,-0.5407416,0,0,0,0,0,5,0,0,32.52189,-0.2032613,0,67.29196,-0.6887277,0.5,0,0,0,0,-32.33948,0,0,92,0,0,75,2,229
09.31.49.701882, 157.0635,-27.64115,2.509223,159.1526,-3.093917,1,0,0,0,0,-10.85844,-5.670268,-13.5422,0,-10.85844,-5.40775,0.0777724,0,0,0,0,0,-13,0,0,9.357598,-0.5456706,1.54405,0,9.357598,-0.3851401,-0.2571139,0,0,0,0,0,5,0,0,32.5664,-0.25092,0,67.66052,-0.6667783,0.5,0,0,0,0,-32.33948,0,0,92,0,0,76,2,229
09.31.49.798888, 155.2223,-36.32846,2.857443,157.0635,-27.64115,1,0,0,0,0,-12.19841,-5.793952,-12.44858,0,-12.19841,-5.670268,0.01680806,0,0,0,0,0,-13,0,0,9.334391,-0.5644019,-1.696238,0,9.334391,-0.5456706,0.3179474,0,0,0,0,0,5,0,0,32.60108,-0.3081607,0,67.7887,-0.8231179,0.5,0,0,0,0,-32.2113,0,0,92,0,0,77,2,229
09.31.49.901894, 150.4333,-47.99727,3.198373,155.2223,-36.32846,1,0,0,0,0,-12.19841,-6.017262,-10.26373,0,-12.19841,-5.793952,-0.01709388,0,0,0,0,0,-13,0,0,9.334391,-0.5126541,-7.597909,0,9.334391,-0.5644019,0.6160539,0,0,0,0,0,5,0,0,32.70784,-0.4627579,0,67.7887,-1.01089,0.5,0,0,0,0,-32.2113,0,0,92,0,0,78,2,229
09.31.49.999900, 147.6314,-51.83089,3.524405,150.4333,-47.99727,1,0,0,0,0,-12.60847,-6.115075,-9.225809,0,-12.19841,-6.017262,-0.08482443,0,0,0,0,0,-13,0,0,9.389422,-0.466995,-9.523861,0,9.334391,-0.5126541,1,0,0,0,0,0,5,0,0,32.78341,-0.5507277,0,67.7887,-1.518031,0.5,0,0,0,0,-32.58723,0,0,92,0,0,79,2,229
09.31.50.106906, 141.5464,-56.47211,4.155509,147.6314,-51.83089,1,0,0,0,0,-12.60847,-6.270842,-7.200227,0,-12.60847,-6.115075,-0.1169999,0,0,0,0,0,-13,0,0,9.389422,-0.3243946,-10.75471,0,9.389422,-0.466995,1,0,0,0,0,0,5,0,0,32.98835,-0.7639319,0,67.41277,-1.806607,0.5,0,0,0,0,-32.58723,0,0,92,0,0,80,2,229
09.31.50.199911, 138.4112,-57.19769,4.451413,141.5464,-56.47211,1,0,0,0,0,-14.11885,-6.331096,-6.198586,0,-14.11885,-6.270842,-0.179793,0,0,0,0,0,-13,0,0,9.209732,-0.2541781,-9.950557,0,9.209732,-0.3243946,1,0,0,0,0,0,5,0,0,33.11552,-0.8583132,0,66.70641,-2.506002,0.5,0,0,0,0,-33.2936,0,0,92,0,0,81,2,229
09.31.50.302917, 135.2915,-57.33649,4.73772,138.4112,-57.19769,1,0,0,0,0,-14.45674,-6.380193,-5.176076,0,-14.11885,-6.331096,-0.2108438,0,0,0,0,0,-13,0,0,9.209732,-0.1874395,-8.364035,0,9.209732,-0.2541781,1,0,0,0,0,0,5,0,0,33.25855,-0.9550783,0,66.70641,-2.815611,0.5,0,0,0,0,-32.92504,0,0,92,0,0,82,2,229
09.31.50.401923, 129.2591,-56.25511,5.013957,135.2915,-57.33649,1,0,0,0,0,-14.11885,-6.457423,-3.042818,0,-14.45674,-6.380193,-0.2425416,0,0,0,0,0,-13,0,0,9.209732,-0.09479332,-3.584956,0,9.209732,-0.1874395,1,0,0,0,0,0,5,0,0,33.58181,-1.101583,0,67.07496,-3.133039,0.5,0,0,0,0,-33.2936,0,0,92,0,0,83,2,229
09.31.50.498928, 126.4094,-55.07697,5.530407,129.2591,-56.25511,1,0,0,0,0,-15.27685,-6.494128,-1.952534,0,-15.27685,-6.457423,-0.3086726,0,0,0,0,0,-13,0,0,9.319797,-0.07876321,-0.6847545,0,9.319797,-0.09479332,0.789816,0,0,0,0,0,5,0,0,33.75452,-1.142494,0,66.32309,-3.613632,0.5,0,0,0,0,-33.67691,0,0,92,0,0,84,2,229
09.31.50.600934, 123.7011,-53.47354,5.778186,126.4094,-55.07697,1,0,0,0,0,-15.53099,-6.533314,-0.8521484,0,-15.53099,-6.494128,-0.3424714,0,0,0,0,0,-13,0,0,9.241554,-0.08692753,2.428747,0,9.241554,-0.07876321,0.5229974,0,0,0,0,0,5,0,0,33.92929,-1.160375,0,66.0901,-3.747838,0.5,0,0,0,0,-33.9099,0,0,92,0,0,85,2,229
09.31.50.702940, 118.7808,-48.88939,6.017223,123.7011,-53.47354,1,0,0,0,0,-15.86888,-6.633025,1.293039,0,-15.53099,-6.533314,-0.3765834,0,0,0,0,0,-13,0,0,9.241554,-0.1683621,9.075959,0,9.241554,-0.08692753,0.2365552,0,0,0,0,0,5,0,0,34.26118,-1.091745,0,66.0901,-3.806495,0.5,0,0,0,0,-33.54135,0,0,92,0,0,86,2,229
09.31.50.801945, 116.5889,-45.97491,6.242043,118.7808,-48.88939,1,0,0,0,0,-16.35111,-6.691322,2.278165,0,-15.86888,-6.633025,-0.4430842,0,0,0,0,0,-13,0,0,9.351618,-0.228518,12.30699,0,9.241554,-0.1683621,-0.3749883,0,0,0,0,0,5,0,0,34.42162,-1.029709,0,66.45865,-3.581361,0.5,0,0,0,0,-34.66177,0,0,92,0,0,87,2,229
09.31.50.899951, 114.5801,-42.70685,6.676069,116.5889,-45.97491,1,0,0,0,0,-16.35111,-6.758296,3.187454,0,-16.35111,-6.691322,-0.4736231,0,0,0,0,0,-13,0,0,9.351618,-0.3033958,15.38432,0,9.351618,-0.228518,-0.6722431,0,0,0,0,0,5,0,0,34.56263,-0.9258537,0,65.33823,-3.377858,0.5,0,0,0,0,-34.66177,0,0,92,0,0,88,2,229
09.31.51.001957, 111.0994,-35.2826,6.884988,114.5801,-42.70685,1,0,0,0,0,-16.94314,-6.899686,4.675706,0,-16.94314,-6.758296,-0.5018111,0,0,0,0,0,-13,0,0,9.273378,-0.4627034,19.9803,0,9.273378,-0.3033958,-0.9553578,0,0,0,0,0,5,0,0,34.78291,-0.7625204,0,65.47379,-3.037171,0.5,0,0,0,0,-34.52621,0,0,92,0,0,89,2,229
09.31.51.100962, 109.6024,-31.22204,7.083432,111.0994,-35.2826,1,0,0,0,0,-17.3532,-6.969914,5.178137,0,-16.94314,-6.899686,-0.5479469,0,0,0,0,0,-13,0,0,9.32841,-0.5421083,20.81438,0,9.273378,-0.4627034,-1,0,0,0,0,0,5,0,0,34.87084,-0.7040618,0,65.47379,-2.501372,0.5,0,0,0,0,-34.90214,0,0,92,0,0,90,2,229
09.31.51.201968, 107.0776,-22.5384,7.276669,109.6024,-31.22204,1,0,0,0,0,-17.76325,-7.113424,5.580344,0,-17.3532,-6.969914,-0.5635222,0,0,0,0,0,-13,0,0,9.383442,-0.7027199,19.54952,0,9.32841,-0.5421083,-1,0,0,0,0,0,5,0,0,35.0201,-0.5925224,0,65.09785,-2.309604,0.5,0,0,0,0,-35.27808,0,0,92,0,0,91,2,229
09.31.51.300974, 106.0711,-17.84299,7.645542,107.0776,-22.5384,1,0,0,0,0,-18.69317,-7.181304,5.433853,0,-18.69317,-7.113424,-0.5759907,0,0,0,0,0,-13,0,0,9.305201,-0.776606,17.62208,0,9.305201,-0.7027199,-1,0,0,0,0,0,5,0,0,35.09551,-0.5704035,0,65.22604,-1.94371,0.5,0,0,0,0,-34.77396,0,0,92,0,0,92,2,229
09.31.51.398980, 105.2653,-12.92688,7.824861,106.0711,-17.84299,1,0,0,0,0,-19.03106,-7.243382,5.041472,0,-19.03106,-7.181304,-0.5714495,0,0,0,0,0,-13,0,0,9.305201,-0.8446918,15.01043,0,9.305201,-0.776606,-1,0,0,0,0,0,5,0,0,35.17912,-0.5903914,0,65.5946,-1.871152,0.5,0,0,0,0,-34.4054,0,0,92,0,0,93,2,229
09.31.51.501985, 104.372,-2.778635,8.00048,105.2653,-12.92688,1,0,0,0,0,-19.44111,-7.331118,3.537205,0,-19.03106,-7.243382,-0.5592856,0,0,0,0,0,-13,0,0,9.360232,-0.9406943,8.206166,0,9.305201,-0.8446918,-0.9209599,0,0,0,0,0,5,0,0,35.3863,-0.7730526,0,65.5946,-1.93672,0.5,0,0,0,0,-34.78134,0,0,92,0,0,94,2,229
09.31.51.599991, 104.34,2.217534,8.172176,104.372,-2.778635,1,0,0,0,0,-19.85117,-7.345148,2.467999,0,-19.44111,-7.331118,-0.5126534,0,0,0,0,0,-13,0,0,9.415266,-0.9558108,4.229251,0,9.360232,-0.9406943,-0.2949673,0,0,0,0,0,5,0,0,35.51837,-0.9377679,0,65.21866,-2.535922,0.5,0,0,0,0,-35.15727,0,0,92,0,0,95,2,229
09.31.51.704997, 105.1957,11.39317,8.510192,104.34,2.217534,1,0,0,0,0,-20.59911,-7.286505,-0.1255455,0,-20.59911,-7.345148,-0.479508,0,0,0,0,0,-13,0,0,9.470298,-0.8843026,-4.463059,0,9.470298,-0.9558108,0.07090887,0,0,0,0,0,5,0,0,35.87702,-1.391577,0,64.83536,-3.076254,0.5,0,0,0,0,-35.16465,0,0,92,0,0,96,2,229
09.31.51.800002, 106.0979,15.46838,8.678769,105.1957,11.39317,1,0,0,0,0,-21.44268,-7.227833,-1.534431,0,-21.44268,-7.286505,-0.3991081,0,0,0,0,0,-13,0,0,8.122971,-0.8048564,-8.61794,0,8.122971,-0.8843026,0.8706015,0,0,0,0,0,5,0,0,36.11109,-1.596103,0,64.06198,-4.564928,0.5,0,0,0,0,-35.93801,0,0,92,0,0,97,2,229
09.31.51.902008, 107.2951,19.09604,8.847606,106.0979,15.46838,1,0,0,0,0,-21.85274,-7.147179,-2.940143,0,-21.44268,-7.227833,-0.3554327,0,0,0,0,0,-13,0,0,8.178003,-0.6876798,-12.36943,0,8.122971,-0.8048564,1,0,0,0,0,0,5,0,0,36.38978,-1.829061,0,64.06198,-5.235857,0.5,0,0,0,0,-36.31395,0,0,92,0,0,98,2,229
09.31.52.004014, 110.4301,25.20061,9.017513,107.2951,19.09604,1,0,0,0,0,-22.10688,-6.998022,-5.521581,0,-21.85274,-7.147179,-0.3118556,0,0,0,0,0,-13,0,0,8.099763,-0.4214936,-17.56216,0,8.178003,-0.6876798,1,0,0,0,0,0,5,0,0,37.04259,-2.11055,0,63.68605,-6.000052,0.5,0,0,0,0,-36.54695,0,0,92,0,0,99,2,229
09.31.52.099020, 112.2545,27.67286,9.366604,110.4301,25.20061,1,0,0,0,0,-22.17906,-6.932755,-6.609647,0,-22.17906,-6.998022,-0.231831,0,0,0,0,0,-13,0,0,8.154795,-0.2763468,-18.51377,0,8.154795,-0.4214936,1,0,0,0,0,0,5,0,0,37.39505,-2.202508,0,62.70856,-6.92345,0.5,0,0,0,0,-37.29144,0,0,92,0,0,100,2,229
09.31.52.201025, 116.102,31.0253,9.542757,112.2545,27.67286,1,0,0,0,0,-23.18114,-6.840133,-8.358573,0,-23.18114,-6.932755,-0.1981009,0,0,0,0,0,-13,0,0,8.131585,0.01602798,-17.53545,0,8.131585,-0.2763468,1,0,0,0,0,0,5,0,0,38.11009,-2.279365,0,62.46819,-7.225109,0.5,0,0,0,0,-37.53181,0,0,92,0,0,101,2,229
09.31.52.304031, 118.0226,31.81506,9.72639,116.102,31.0253,1,0,0,0,0,-23.5912,-6.819821,-9.036861,0,-23.18114,-6.840133,-0.1438842,0,0,0,0,0,-13,0,0,8.186617,0.142799,-15.97551,0,8.131585,0.01602798,1,0,0,0,0,0,5,0,0,38.45793,-2.254739,0,62.46819,-7.477228,0.5,0,0,0,0,-37.90774,0,0,92,0,0,102,2,229
09.31.52.401037, 121.6295,30.83863,9.912221,118.0226,31.81506,1,0,0,0,0,-23.66337,-6.846837,-10.11255,0,-23.5912,-6.819821,-0.1228573,0,0,0,0,0,-13,0,0,8.241649,0.328928,-11.32073,0,8.186617,0.142799,1,0,0,0,0,0,5,0,0,39.11135,-2.080489,0,62.09226,-7.396444,0.5,0,0,0,0,-38.65223,0,0,92,0,0,103,2,229
09.31.52.500043, 123.2297,29.01267,10.29489,121.6295,30.83863,1,0,0,0,0,-25.07552,-6.889453,-10.53051,0,-25.07552,-6.846837,-0.08951081,0,0,0,0,0,-13,0,0,8.273473,0.3851319,-8.374943,0,8.273473,0.328928,1,0,0,0,0,0,5,0,0,39.41464,-1.953418,0,60.73146,-6.824838,0.5,0,0,0,0,-39.26854,0,0,92,0,0,104,2,229
09.31.52.602048, 125.8501,22.88584,10.48704,123.2297,29.01267,1,0,0,0,0,-25.32966,-7.025842,-11.16916,0,-25.32966,-6.889453,-0.07655419,0,0,0,0,0,-13,0,0,8.195232,0.4204831,-1.477902,0,8.195232,0.3851319,1,0,0,0,0,0,5,0,0,39.95776,-1.62459,0,60.49847,-6.407993,0.5,0,0,0,0,-39.50153,0,0,92,0,0,105,2,229
09.31.52.700054, 126.8213,18.82508,10.68355,125.8501,22.88584,1,0,0,0,0,-26.24801,-7.113978,-11.37169,0,-25.32966,-7.025842,-0.05675613,0,0,0,0,0,-13,0,0,8.093782,0.4009629,2.405892,0,8.195232,0.4204831,0.595967,0,0,0,0,0,5,0,0,40.1865,-1.437507,0,60.49847,-5.329304,0.5,0,0,0,0,-40.34346,0,0,92,0,0,106,2,229
09.31.52.803060, 128.0392,9.480043,10.88014,126.8213,18.82508,1,0,0,0,0,-26.24801,-7.322231,-11.48122,0,-26.24801,-7.113978,-0.05047753,0,0,0,0,0,-13,0,0,8.093782,0.2920583,10.88534,0,8.093782,0.4009629,0.238658,0,0,0,0,0,5,0,0,40.52438,-1.012933,0,59.65654,-4.715598,0.5,0,0,0,0,-40.34346,0,0,92,0,0,107,2,229
09.31.52.905066, 128.3752,-0.1137919,11.27321,128.0392,9.480043,1,0,0,0,0,-27.2501,-7.561908,-11.0726,0,-27.2501,-7.322231,-0.04708205,0,0,0,0,0,-13,0,0,8.070573,0.1125633,19.51956,0,8.070573,0.2920583,-0.5414511,0,0,0,0,0,5,0,0,40.69573,-0.5720407,0,59.41617,-3.322824,0.5,0,0,0,0,-40.58383,0,0,92,0,0,108,2,229
09.31.52.999071, 128.2771,-4.565896,11.46761,128.3752,-0.1137919,1,0,0,0,0,-27.99804,-7.69218,-10.64904,0,-27.99804,-7.561908,-0.05974945,0,0,0,0,0,-13,0,0,8.125605,0.005405475,23.44806,0,8.125605,0.1125633,-1,0,0,0,0,0,5,0,0,40.73003,-0.3654009,0,59.40879,-1.876522,0.5,0,0,0,0,-40.59121,0,0,92,0,0,109,2,229
09.31.53.102077, 128.0398,-8.663715,11.65991,128.2771,-4.565896,1,0,0,0,0,-27.99804,-7.829251,-10.08417,0,-27.99804,-7.69218,-0.0728799,0,0,0,0,0,-13,0,0,8.125605,-0.1217161,27.03214,0,8.125605,0.005405475,-1,0,0,0,0,0,5,0,0,40.73397,-0.1416741,0,59.40879,-1.198661,0.5,0,0,0,0,-40.59121,0,0,92,0,0,110,2,229
09.31.53.203083, 127.2827,-14.92904,11.8498,128.0398,-8.663715,1,0,0,0,0,-28.74599,-8.131737,-8.589544,0,-27.99804,-7.829251,-0.09039075,0,0,0,0,0,-13,0,0,8.180637,-0.3758694,30.69526,0,8.125605,-0.1217161,-1,0,0,0,0,0,5,0,0,40.68738,0.132214,0,59.40879,-0.4647476,0.5,0,0,0,0,-40.59858,0,0,92,0,0,111,2,229
09.31.53.302088, 126.8024,-16.69068,12.22058,127.2827,-14.92904,1,0,0,0,0,-29.33802,-8.286899,-7.737753,0,-29.33802,-8.131737,-0.1367241,0,0,0,0,0,-13,0,0,8.102396,-0.5129247,30.75786,0,8.102396,-0.3758694,-1,0,0,0,0,0,5,0,0,40.6282,0.2575285,0,59.53698,0.4337149,0.5,0,0,0,0,-40.46302,0,0,92,0,0,112,2,229
09.31.53.402094, 125.8476,-16.1356,12.40212,126.8024,-16.69068,1,0,0,0,0,-29.74808,-8.606188,-6.030573,0,-29.74808,-8.286899,-0.1631297,0,0,0,0,0,-13,0,0,8.157429,-0.7898368,28.0712,0,8.157429,-0.5129247,-1,0,0,0,0,0,5,0,0,40.44379,0.4036685,0,59.16105,0.8447964,0.5,0,0,0,0,-40.83895,0,0,92,0,0,113,2,229
09.31.53.505100, 125.456,-13.9148,12.57958,125.8476,-16.1356,1,0,0,0,0,-30.42385,-8.765995,-5.264946,0,-29.74808,-8.606188,-0.2160522,0,0,0,0,0,-13,0,0,8.157429,-0.9211031,25.5778,0,8.157429,-0.7898368,-1,0,0,0,0,0,5,0,0,40.34057,0.4117114,0,59.16105,1.324194,0.5,0,0,0,0,-40.10184,0,0,92,0,0,114,2,229
09.31.53.602106, 125.0757,-6.106481,12.75444,125.456,-13.9148,1,0,0,0,0,-30.8339,-9.073857,-4.044801,0,-30.42385,-8.765995,-0.2397867,0,0,0,0,0,-13,0,0,8.212461,-1.155312,18.80429,0,8.157429,-0.9211031,-1,0,0,0,0,0,5,0,0,40.1941,0.2379711,0,59.89816,1.350578,0.5,0,0,0,0,-40.47778,0,0,92,0,0,115,2,229
09.31.53.703111, 125.1736,-0.8818734,13.09707,125.0757,-6.106481,1,0,0,0,0,-32.1017,-9.208976,-3.610374,0,-32.1017,-9.073857,-0.2776112,0,0,0,0,0,-13,0,0,8.134218,-1.239251,14.70701,0,8.134218,-1.155312,-1,0,0,0,0,0,5,0,0,40.16813,0.0651831,0,60.39489,0.7806405,0.5,0,0,0,0,-39.60511,0,0,92,0,0,116,2,229
09.31.53.801117, 125.5117,4.839712,13.26603,125.1736,-0.8818734,1,0,0,0,0,-32.51176,-9.324997,-3.272014,0,-32.51176,-9.208976,-0.2910784,0,0,0,0,0,-13,0,0,8.189251,-1.293501,10.26954,0,8.189251,-1.239251,-0.8930452,0,0,0,0,0,5,0,0,40.17727,-0.1750038,0,60.01896,0.2138267,0.5,0,0,0,0,-39.98104,0,0,92,0,0,117,2,229
09.31.53.899123, 126.9574,16.43306,13.43404,125.5117,4.839712,1,0,0,0,0,-32.92182,-9.472239,-2.769932,0,-32.51176,-9.324997,-0.3015676,0,0,0,0,0,-13,0,0,8.244284,-1.276277,0.6801205,0,8.189251,-1.293501,-0.4847981,0,0,0,0,0,5,0,0,40.32137,-0.8160271,0,60.01896,-0.5740825,0.5,0,0,0,0,-40.35698,0,0,92,0,0,118,2,229
09.31.54.002128, 128.0474,21.65446,13.60383,126.9574,16.43306,1,0,0,0,0,-33.17596,-9.494226,-2.554316,0,-32.92182,-9.472239,-0.3171321,0,0,0,0,0,-13,0,0,8.166042,-1.188739,-4.347748,0,8.244284,-1.276277,0.3974289,0,0,0,0,0,5,0,0,40.48224,-1.197023,0,59.64302,-2.676895,0.5,0,0,0,0,-40.58997,0,0,92,0,0,119,2,229
09.31.54.100134, 130.7932,29.46099,13.94255,128.0474,21.65446,1,0,0,0,0,-33.9239,-9.429542,-2.030678,0,-33.9239,-9.494226,-0.3238162,0,0,0,0,0,-13,0,0,8.221075,-0.85207,-14.30578,0,8.221075,-1.188739,0.8599928,0,0,0,0,0,5,0,0,41.02885,-1.966243,0,59.40265,-3.926715,0.5,0,0,0,0,-40.59735,0,0,92,0,0,120,2,229
09.31.54.202140, 132.3457,31.79815,14.1161,130.7932,29.46099,1,0,0,0,0,-35.77217,-9.381703,-1.660484,0,-35.77217,-9.429542,-0.340049,0,0,0,0,0,-13,0,0,8.041384,-0.6757522,-17.94586,0,8.041384,-0.85207,1,0,0,0,0,0,5,0,0,41.38373,-2.229392,0,59.06484,-6.450063,0.5,0,0,0,0,-40.93516,0,0,92,0,0,121,2,229
09.31.54.300145, 133.928,32.90957,14.29115,132.3457,31.79815,1,0,0,0,0,-35.84435,-9.336218,-1.188014,0,-35.77217,-9.381703,-0.351525,0,0,0,0,0,-13,0,0,8.096416,-0.5097254,-19.92199,0,8.041384,-0.6757522,1,0,0,0,0,0,5,0,0,41.76916,-2.455968,0,59.06484,-7.313298,0.5,0,0,0,0,-41.67965,0,0,92,0,0,122,2,229
09.31.54.402151, 136.9116,31.2802,14.46809,133.928,32.90957,1,0,0,0,0,-36.50855,-9.230219,0.002826066,0,-35.84435,-9.336218,-0.3661716,0,0,0,0,0,-13,0,0,8.073206,-0.1732394,-19.72908,0,8.096416,-0.5097254,1,0,0,0,0,0,5,0,0,42.61174,-2.82695,0,58.32035,-8.056558,0.5,0,0,0,0,-42.28858,0,0,92,0,0,123,2,229
09.31.54.501157, 138.2069,28.71655,14.83037,136.9116,31.2802,1,0,0,0,0,-36.9186,-9.182528,0.6541497,0,-36.9186,-9.230219,-0.4030876,0,0,0,0,0,-13,0,0,8.128239,-0.03119208,-18.15633,0,8.128239,-0.1732394,1,0,0,0,0,0,5,0,0,43.06785,-2.940561,0,57.33549,-9.273528,0.5,0,0,0,0,-42.66451,0,0,92,0,0,124,2,229
09.31.54.599163, 139.3213,25.18622,15.01177,138.2069,28.71655,1,0,0,0,0,-37.32866,-9.144284,1.30592,0,-37.32866,-9.182528,-0.4232786,0,0,0,0,0,-13,0,0,8.183271,0.07951979,-15.90156,0,8.183271,-0.03119208,1,0,0,0,0,0,5,0,0,43.54581,-3.008808,0,56.95956,-9.646217,0.5,0,0,0,0,-43.04044,0,0,92,0,0,125,2,229
09.31.54.701168, 140.2357,21.07443,15.19395,139.3213,25.18622,1,0,0,0,0,-37.99287,-9.114835,1.949453,0,-37.32866,-9.144284,-0.4434835,0,0,0,0,0,-13,0,0,8.160063,0.1573867,-13.11352,0,8.183271,0.07951979,1,0,0,0,0,0,5,0,0,44.03827,-3.046367,0,56.95956,-9.870095,0.5,0,0,0,0,-43.64937,0,0,92,0,0,126,2,229
09.31.54.801174, 141.396,11.12257,15.37645,140.2357,21.07443,1,0,0,0,0,-38.40292,-9.086905,3.150319,0,-37.99287,-9.114835,-0.4634331,0,0,0,0,0,-13,0,0,8.215096,0.2051271,-6.345735,0,8.160063,0.1573867,1,0,0,0,0,0,5,0,0,45.01414,-3.036634,0,56.35063,-9.993301,0.5,0,0,0,0,-44.0253,0,0,92,0,0,127,2,229
09.31.54.902180, 141.6093,5.487247,15.74151,141.396,11.12257,1,0,0,0,0,-39.13929,-9.085791,3.702645,0,-39.13929,-9.086905,-0.5006599,0,0,0,0,0,-13,0,0,8.246918,0.1768768,-2.518282,0,8.246918,0.2051271,1,0,0,0,0,0,5,0,0,45.48172,-3.005383,0,54.62128,-9.961374,0.5,0,0,0,0,-45.37872,0,0,92,0,0,128,2,229
09.31.55.000186, 141.5663,-0.3171039,15.92181,141.6093,5.487247,1,0,0,0,0,-40.14138,-9.091679,4.241117,0,-40.14138,-9.085791,-0.517782,0,0,0,0,0,-13,0,0,8.223709,0.1152507,1.526589,0,8.223709,0.1768768,0.6916819,0,0,0,0,0,5,0,0,45.93885,-2.963112,0,54.38091,-9.858859,0.5,0,0,0,0,-45.61909,0,0,92,0,0,129,2,229
09.31.55.102191, 140.7414,-11.47068,16.10026,141.5663,-0.3171039,1,0,0,0,0,-40.21355,-9.130835,5.320497,0,-40.14138,-9.091679,-0.5344746,0,0,0,0,0,-13,0,0,8.27874,-0.09968317,10.0983,0,8.223709,0.1152507,0.3195539,0,0,0,0,0,5,0,0,46.8399,-2.819168,0,54.38091,-9.720193,0.5,0,0,0,0,-46.36358,0,0,92,0,0,130,2,229
09.31.55.200197, 139.9943,-16.42345,16.27497,140.7414,-11.47068,1,0,0,0,0,-41.38605,-9.162432,5.875514,0,-40.21355,-9.130835,-0.5679354,0,0,0,0,0,-13,0,0,8.099051,-0.2428684,14.43647,0,8.27874,-0.09968317,-0.4690432,0,0,0,0,0,5,0,0,47.27918,-2.721268,0,53.63642,-9.247998,0.5,0,0,0,0,-47.43851,0,0,92,0,0,131,2,229
09.31.55.302203, 139.0545,-20.78461,16.61633,139.9943,-16.42345,1,0,0,0,0,-41.79611,-9.203312,6.453238,0,-41.79611,-9.162432,-0.5851409,0,0,0,0,0,-13,0,0,8.154083,-0.4094517,18.7473,0,8.154083,-0.2428684,-0.8681551,0,0,0,0,0,5,0,0,47.69537,-2.59519,0,52.18556,-8.926847,0.5,0,0,0,0,-47.81444,0,0,92,0,0,132,2,229
09.31.55.401208, 136.6348,-28.13519,16.78222,139.0545,-20.78461,1,0,0,0,0,-42.38814,-9.286164,7.63281,0,-42.38814,-9.203312,-0.6030504,0,0,0,0,0,-13,0,0,8.07584,-0.7501482,25.16896,0,8.07584,-0.4094517,-1,0,0,0,0,0,5,0,0,48.44619,-2.396656,0,52.32112,-8.513261,0.5,0,0,0,0,-47.67888,0,0,92,0,0,133,2,229
09.31.55.499214, 135.1252,-31.17873,16.94065,136.6348,-28.13519,1,0,0,0,0,-43.20826,-9.327322,8.143958,0,-42.38814,-9.286164,-0.6396171,0,0,0,0,0,-13,0,0,8.185905,-0.9194769,26.18612,0,8.07584,-0.7501482,-1,0,0,0,0,0,5,0,0,48.79434,-2.314268,0,52.32112,-7.861989,0.5,0,0,0,0,-48.43074,0,0,92,0,0,134,2,229
09.31.55.601220, 133.4388,-33.08554,17.09428,135.1252,-31.17873,1,0,0,0,0,-43.87246,-9.371536,8.52491,0,-43.20826,-9.327322,-0.6554627,0,0,0,0,0,-13,0,0,8.162697,-1.085324,25.92673,0,8.185905,-0.9194769,-1,0,0,0,0,0,5,0,0,49.13268,-2.211567,0,51.56926,-7.591724,0.5,0,0,0,0,-49.03967,0,0,92,0,0,135,2,229
09.31.55.700226, 129.8445,-32.16079,17.38957,133.4388,-33.08554,1,0,0,0,0,-43.87246,-9.451705,8.717392,0,-43.87246,-9.371536,-0.6672722,0,0,0,0,0,-13,0,0,8.162697,-1.38608,22.55332,0,8.162697,-1.085324,-1,0,0,0,0,0,5,0,0,49.7972,-2.062305,0,50.96033,-7.254826,0.5,0,0,0,0,-49.03967,0,0,92,0,0,136,2,229
09.31.55.802231, 128.1083,-29.51274,17.52619,129.8445,-32.16079,1,0,0,0,0,-44.92961,-9.482455,8.442959,0,-44.92961,-9.451705,-0.6732391,0,0,0,0,0,-13,0,0,7.29343,-1.511209,19.76842,0,7.29343,-1.38608,-1,0,0,0,0,0,5,0,0,50.11725,-2.032064,0,49.99115,-6.765185,0.5,0,0,0,0,-50.00885,0,0,92,0,0,137,2,229
09.31.55.900237, 126.5244,-25.67006,17.65775,128.1083,-29.51274,1,0,0,0,0,-44.92961,-9.505302,7.879179,0,-44.92961,-9.482455,-0.6647317,0,0,0,0,0,-13,0,0,7.29343,-1.619454,16.36669,0,7.29343,-1.511209,-1,0,0,0,0,0,5,0,0,50.42867,-2.045936,0,49.99115,-6.665983,0.5,0,0,0,0,-50.00885,0,0,92,0,0,138,2,229
09.31.56.005243, 124.1291,-15.4719,17.78431,126.5244,-25.67006,1,0,0,0,0,-46.1021,-9.512423,5.881517,0,-44.92961,-9.505302,-0.6472545,0,0,0,0,0,-13,0,0,7.113739,-1.760177,8.146035,0,7.29343,-1.619454,-1,0,0,0,0,0,5,0,0,51.08102,-2.234177,0,49.99115,-6.711488,0.5,0,0,0,0,-51.08377,0,0,92,0,0,139,2,229
09.31.56.100248, 123.4512,-9.608065,18.02246,124.1291,-15.4719,1,0,0,0,0,-46.85005,-9.490334,4.492016,0,-46.85005,-9.512423,-0.585327,0,0,0,0,0,-13,0,0,7.168774,-1.776315,3.50914,0,7.168774,-1.760177,-0.2894352,0,0,0,0,0,5,0,0,51.45817,-2.413096,0,48.90884,-7.328995,0.5,0,0,0,0,-51.09116,0,0,92,0,0,140,2,229
09.31.56.202254, 123.1831,-3.628979,18.13819,123.4512,-9.608065,1,0,0,0,0,-47.2601,-9.447312,2.900178,0,-47.2601,-9.490334,-0.5422525,0,0,0,0,0,-13,0,0,7.223803,-1.742803,-1.381308,0,7.223803,-1.776315,0.1371591,0,0,0,0,0,5,0,0,51.88266,-2.639996,0,48.53291,-7.915921,0.5,0,0,0,0,-51.46709,0,0,92,0,0,141,2,229
09.31.56.301260, 123.9417,7.596931,18.25212,123.1831,-3.628979,1,0,0,0,0,-47.58642,-9.310973,-0.5662126,0,-47.2601,-9.447312,-0.4929055,0,0,0,0,0,-13,0,0,7.200594,-1.525657,-11.07466,0,7.223803,-1.742803,0.5870803,0,0,0,0,0,5,0,0,52.85097,-3.122615,0,48.53291,-8.660244,0.5,0,0,0,0,-52.44457,0,0,92,0,0,142,2,229
09.31.56.399266, 124.9278,12.61433,18.36677,123.9417,7.596931,1,0,0,0,0,-48.99857,-9.245648,-2.236788,0,-47.58642,-9.310973,-0.3854474,0,0,0,0,0,-13,0,0,7.232418,-1.377361,-14.76054,0,7.200594,-1.525657,1,0,0,0,0,0,5,0,0,53.36778,-3.297369,0,47.55543,-10.24343,0.5,0,0,0,0,-53.06088,0,0,92,0,0,143,2,229
09.31.56.502271, 127.8073,21.05207,18.59661,124.9278,12.61433,1,0,0,0,0,-49.66277,-9.126121,-5.174119,0,-49.66277,-9.245648,-0.3336596,0,0,0,0,0,-13,0,0,7.209211,-1.005857,-19.29436,0,7.209211,-1.377361,1,0,0,0,0,0,5,0,0,54.46693,-3.547743,0,46.33019,-10.81669,0.5,0,0,0,0,-53.66981,0,0,92,0,0,144,2,229
09.31.56.604277, 129.5263,24.08436,18.71688,127.8073,21.05207,1,0,0,0,0,-50.48289,-9.090786,-6.367757,0,-50.48289,-9.126121,-0.2426023,0,0,0,0,0,-13,0,0,7.319275,-0.8335169,-19.76819,0,7.319275,-1.005857,1,0,0,0,0,0,5,0,0,55.04185,-3.581187,0,45.57833,-11.63802,0.5,0,0,0,0,-54.42167,0,0,92,0,0,145,2,229
09.31.56.702283, 133.0488,26.43145,18.83957,129.5263,24.08436,1,0,0,0,0,-50.55505,-9.071429,-8.306415,0,-50.48289,-9.090786,-0.2055995,0,0,0,0,0,-13,0,0,7.374306,-0.5308331,-17.91532,0,7.319275,-0.8335169,1,0,0,0,0,0,5,0,0,56.18882,-3.494173,0,45.57833,-11.74772,0.5,0,0,0,0,-55.16616,0,0,92,0,0,146,2,229
09.31.56.801289, 134.6745,25.53003,18.96947,133.0488,26.43145,1,0,0,0,0,-51.72755,-9.086268,-9.086753,0,-50.55505,-9.071429,-0.1455012,0,0,0,0,0,-13,0,0,7.194614,-0.4221656,-15.92039,0,7.374306,-0.5308331,1,0,0,0,0,0,5,0,0,56.72981,-3.384498,0,44.83384,-11.46229,0.5,0,0,0,0,-56.24109,0,0,92,0,0,147,2,229
09.31.56.908295, 137.262,19.14693,19.23182,134.6745,25.53003,1,0,0,0,0,-51.64381,-9.167301,-10.40541,0,-51.64381,-9.086268,-0.1213107,0,0,0,0,0,-13,0,0,7.116375,-0.3130193,-10.27167,0,7.116375,-0.4221656,1,0,0,0,0,0,5,0,0,57.70246,-3.020978,0,43.15736,-11.10251,0.5,0,0,0,0,-56.84264,0,0,92,0,0,148,2,229
09.31.57.004300, 138.086,13.91329,19.36735,137.262,19.14693,1,0,0,0,0,-52.71807,-9.223681,-10.93395,0,-52.71807,-9.167301,-0.08043242,0,0,0,0,0,-13,0,0,7.148199,-0.306451,-6.725003,0,7.148199,-0.3130193,1,0,0,0,0,0,5,0,0,58.14032,-2.80258,0,42.1725,-9.910015,0.5,0,0,0,0,-57.8275,0,0,92,0,0,149,2,229
09.31.57.103306, 138.5969,0.8207631,19.50322,138.086,13.91329,1,0,0,0,0,-53.11102,-9.363529,-11.66885,0,-52.71807,-9.223681,-0.0640476,0,0,0,0,0,-13,0,0,6.302143,-0.3749519,1.600427,0,7.148199,-0.306451,1,0,0,0,0,0,5,0,0,58.92025,-2.300673,0,42.1725,-9.193584,0.5,0,0,0,0,-58.18774,0,0,92,0,0,150,2,229
09.31.57.201311, 138.2738,-6.246187,19.63895,138.5969,0.8207631,1,0,0,0,0,-54.52317,-9.442424,-11.79234,0,-53.11102,-9.363529,-0.04126556,0,0,0,0,0,-13,0,0,6.333961,-0.4438986,6.270791,0,6.302143,-0.3749519,0.3127607,0,0,0,0,0,5,0,0,59.24582,-2.036983,0,41.81226,-7.547126,0.5,0,0,0,0,-58.80405,0,0,92,0,0,151,2,229
09.31.57.301317, 136.6017,-20.29056,19.90515,138.2738,-6.246187,1,0,0,0,0,-54.93322,-9.617493,-11.3727,0,-54.93322,-9.442424,-0.0374376,0,0,0,0,0,-13,0,0,6.388996,-0.6406378,16.39482,0,6.388996,-0.4438986,-0.1169127,0,0,0,0,0,5,0,0,59.72632,-1.468475,0,40.82002,-6.682119,0.5,0,0,0,0,-59.17998,0,0,92,0,0,152,2,229
09.31.57.401323, 135.3468,-26.97835,20.03216,136.6017,-20.29056,1,0,0,0,0,-55.52525,-9.712729,-10.74807,0,-55.52525,-9.617493,-0.05044628,0,0,0,0,0,-13,0,0,6.310757,-0.7433976,21.16667,0,6.310757,-0.6406378,-1,0,0,0,0,0,5,0,0,59.89672,-1.222523,0,40.95557,-4.817185,0.5,0,0,0,0,-59.04443,0,0,92,0,0,153,2,229
09.31.57.500329, 133.8717,-33.44183,20.15532,135.3468,-26.97835,1,0,0,0,0,-56.00748,-9.813442,-9.832339,0,-55.52525,-9.712729,-0.06980993,0,0,0,0,0,-13,0,0,6.420822,-0.8717697,25.6302,0,6.310757,-0.7433976,-1,0,0,0,0,0,5,0,0,60.02973,-0.9404818,0,40.95557,-4.010365,0.5,0,0,0,0,-60.16484,0,0,92,0,0,154,2,229
09.31.57.602334, 130.5297,-43.54304,20.27389,133.8717,-33.44183,1,0,0,0,0,-56.41754,-10.03791,-7.17193,0,-56.00748,-9.813442,-0.09819748,0,0,0,0,0,-13,0,0,6.475849,-1.118683,31.35487,0,6.420822,-0.8717697,-1,0,0,0,0,0,5,0,0,60.21346,-0.5402474,0,39.83516,-3.085157,0.5,0,0,0,0,-60.54078,0,0,92,0,0,155,2,229
09.31.57.700340, 128.7632,-46.44507,20.49241,130.5297,-43.54304,1,0,0,0,0,-57.44569,-10.1566,-5.551641,0,-57.44569,-10.03791,-0.1806702,0,0,0,0,0,-13,0,0,6.186096,-1.248856,32.12646,0,6.186096,-1.118683,-1,0,0,0,0,0,5,0,0,60.25372,-0.3624899,0,39.87327,-1.772228,0.5,0,0,0,0,-60.12673,0,0,92,0,0,156,2,229
09.31.57.802346, 125.3987,-44.99384,20.59601,128.7632,-46.44507,1,0,0,0,0,-58.2658,-10.39419,-2.175645,0,-58.2658,-10.1566,-0.2308991,0,0,0,0,0,-13,0,0,6.296162,-1.508492,30.35254,0,6.296162,-1.248856,-1,0,0,0,0,0,5,0,0,60.24042,-0.1232595,0,39.12141,-1.189112,0.5,0,0,0,0,-60.87859,0,0,92,0,0,157,2,229
09.31.57.900351, 123.9082,-41.05319,20.69053,125.3987,-44.99384,1,0,0,0,0,-59.27946,-10.51163,-0.617984,0,-58.2658,-10.39419,-0.335555,0,0,0,0,0,-13,0,0,6.296162,-1.633719,28.07208,0,6.296162,-1.508492,-1,0,0,0,0,0,4.769049,0,0,60.22531,-0.08210486,0,39.12141,-0.4043404,0.5,0,0,0,0,-59.77292,0,0,92,0,0,158,2,229
09.31.57.999357, 122.6249,-35.24337,20.78098,123.9082,-41.05319,1,0,0,0,0,-59.53361,-10.62573,0.7593434,0,-59.27946,-10.51163,-0.3838425,0,0,0,0,0,-13,0,0,6.217918,-1.76388,25.01195,0,6.296162,-1.633719,-1,0,0,0,0,0,4.413868,0,0,60.22937,-0.1261445,0,40.22708,-0.2693368,0.5,0,0,0,0,-60.00592,0,0,92,0,0,159,2,229
09.31.58.101363, 120.8938,-19.16362,20.95335,122.6249,-35.24337,1,0,0,0,0,-61.02949,-10.81758,2.745778,0,-61.02949,-10.62573,-0.4265396,0,0,0,0,0,-13,0,0,6.327984,-1.999712,17.00197,0,6.327984,-1.76388,-1,0,0,0,0,0,4.090422,0,0,60.30716,-0.4618127,0,39.97933,-0.4138044,0.5,0,0,0,0,-60.02067,0,0,92,0,0,160,2,229
09.31.58.199368, 120.5448,-9.754792,21.03399,120.8938,-19.16362,1,0,0,0,0,-61.28364,-10.88021,3.297625,0,-61.28364,-10.81758,-0.4881191,0,0,0,0,0,-13,0,0,6.249744,-2.087466,12.2709,0,6.249744,-1.999712,-1,0,0,0,0,0,3.309101,0,0,60.39277,-0.7616591,0,39.74633,-1.51493,0.5,0,0,0,0,-60.25367,0,0,92,0,0,161,2,229
09.31.58.301374, 120.6054,-0.05668227,21.113,120.5448,-9.754792,1,0,0,0,0,-62.44164,-10.90672,3.600121,0,-61.28364,-10.88021,-0.5052264,0,0,0,0,0,-13,0,0,6.35981,-2.143546,7.205045,0,6.249744,-2.087466,-0.8473842,0,0,0,0,0,3.060203,0,0,60.54052,-1.154364,0,39.74633,-2.498547,0.5,0,0,0,0,-60.63698,0,0,92,0,0,162,2,229
09.31.58.400380, 122.0094,18.15198,21.19128,120.6054,-0.05668227,1,0,0,0,0,-62.44164,-10.81711,3.633616,0,-62.44164,-10.90672,-0.5146037,0,0,0,0,0,-13,0,0,6.35981,-2.099555,-3.491336,0,6.35981,-2.143546,-0.3814079,0,0,0,0,0,3.059307,0,0,61.10875,-2.129543,0,39.36302,-3.786775,0.5,0,0,0,0,-60.63698,0,0,92,0,0,163,2,229
09.31.58.503386, 123.3158,25.65015,21.35158,122.0094,18.15198,1,0,0,0,0,-63.49879,-10.69536,3.453342,0,-63.49879,-10.81711,-0.515642,0,0,0,0,0,-13,0,0,5.49054,-1.974633,-8.947319,0,5.49054,-2.099555,0.6141381,0,0,0,0,0,1.934937,0,0,61.53132,-2.672812,0,38.39384,-6.985754,0.5,0,0,0,0,-61.60616,0,0,92,0,0,164,2,229
09.31.58.603392, 126.8932,36.04625,21.43352,123.3158,25.65015,1,0,0,0,0,-64.50089,-10.32988,3.017907,0,-64.50089,-10.69536,-0.5100536,0,0,0,0,0,-13,0,0,5.467331,-1.525188,-19.40766,0,5.467331,-1.974633,1,0,0,0,0,0,2.255905,0,0,62.59874,-3.6685,0,38.15347,-8.767891,0.5,0,0,0,0,-61.84653,0,0,92,0,0,165,2,229
09.31.58.715398, 129.0172,38.92716,21.52321,126.8932,36.04625,1,0,0,0,0,-65.08134,-10.17306,2.8855,0,-64.50089,-10.32988,-0.4965551,0,0,0,0,0,-13,0,0,5.365883,-1.306214,-22.83665,0,5.467331,-1.525188,1,0,0,0,0,0,3.530665,0,0,63.21214,-3.945196,0,38.15347,-12.03415,0.5,0,0,0,0,-63.05701,0,0,92,0,0,166,2,229
09.31.58.813404, 131.2317,40.1433,21.61648,129.0172,38.92716,1,0,0,0,0,-65.33549,-10.01977,2.830866,0,-65.08134,-10.17306,-0.4924505,0,0,0,0,0,-13,0,0,5.28764,-1.07244,-24.67586,0,5.365883,-1.306214,1,0,0,0,0,0,4.00596,0,0,63.88077,-4.209806,0,36.94299,-12.94182,0.5,0,0,0,0,-63.29002,0,0,92,0,0,167,2,229
09.31.58.916410, 135.5361,38.2052,21.80995,131.2317,40.1433,1,0,0,0,0,-66.33497,-9.770973,2.902279,0,-66.33497,-10.01977,-0.4907568,0,0,0,0,0,-13,0,0,4.073589,-0.6443564,-24.3537,0,4.073589,-1.07244,1,0,0,0,0,0,2.811986,0,0,65.31516,-4.479662,0,35.79368,-13.80985,0.5,0,0,0,0,-64.20632,0,0,92,0,0,168,2,229
09.31.59.013415, 137.4334,34.87851,21.91578,135.5361,38.2052,1,0,0,0,0,-67.07134,-9.682771,2.965211,0,-67.07134,-9.770973,-0.4929706,0,0,0,0,0,-13,0,0,4.105412,-0.4728564,-22.7672,0,4.105412,-0.6443564,1,0,0,0,0,0,4.071888,0,0,66.03692,-4.504822,0,34.44026,-14.69508,0.5,0,0,0,0,-65.55974,0,0,92,0,0,169,2,229
09.31.59.116421, 139.0577,29.99296,22.02454,137.4334,34.87851,1,0,0,0,0,-67.4814,-9.620325,2.994403,0,-67.07134,-9.682771,-0.4949215,0,0,0,0,0,-13,0,0,4.160442,-0.3418809,-20.518,0,4.105412,-0.4728564,1,0,0,0,0,0,4.558314,0,0,66.74183,-4.466889,0,34.44026,-14.77762,0.5,0,0,0,0,-65.93567,0,0,92,0,0,170,2,229
09.31.59.214427, 140.3492,23.76883,22.13598,139.0577,29.99296,1,0,0,0,0,-67.80772,-9.579533,2.956905,0,-67.4814,-9.620325,-0.4958265,0,0,0,0,0,-13,0,0,4.137234,-0.250929,-17.74438,0,4.160442,-0.3418809,1,0,0,0,0,0,5,0,0,67.42991,-4.381843,0,34.06433,-14.65318,0.5,0,0,0,0,-66.91316,0,0,92,0,0,171,2,229
09.31.59.316432, 141.7953,9.178242,22.36137,140.3492,23.76883,1,0,0,0,0,-68.21778,-9.548109,2.640625,0,-68.21778,-9.579533,-0.494664,0,0,0,0,0,-13,0,0,4.192268,-0.1771757,-10.98634,0,4.192268,-0.250929,1,0,0,0,0,0,5,0,0,68.76482,-4.104927,0,32.71091,-14.3742,0.5,0,0,0,0,-67.28909,0,0,92,0,0,172,2,229
09.31.59.415438, 141.9265,1.552994,22.47592,141.7953,9.178242,1,0,0,0,0,-69.46245,-9.550896,2.383034,0,-69.46245,-9.548109,-0.4848594,0,0,0,0,0,-13,0,0,4.067608,-0.184918,-7.132617,0,4.067608,-0.1771757,1,0,0,0,0,0,5,0,0,69.40238,-3.931424,0,30.8915,-13.4658,0.5,0,0,0,0,-69.1085,0,0,92,0,0,173,2,229
09.31.59.517444, 141.6567,-6.080976,22.58964,141.9265,1.552994,1,0,0,0,0,-69.8725,-9.563941,2.090501,0,-69.46245,-9.550896,-0.476874,0,0,0,0,0,-13,0,0,4.122643,-0.2186313,-3.047811,0,4.067608,-0.184918,1,0,0,0,0,0,5,0,0,70.00382,-3.740179,0,30.8915,-12.89664,0.5,0,0,0,0,-69.48443,0,0,92,0,0,174,2,229
09.31.59.615449, 139.9558,-20.57056,22.70164,141.6567,-6.080976,1,0,0,0,0,-70.5367,-9.618244,1.527954,0,-69.8725,-9.563941,-0.4678055,0,0,0,0,0,-13,0,0,4.09943,-0.3524558,5.687207,0,4.122643,-0.2186313,0.7403986,0,0,0,0,0,5,0,0,71.06986,-3.309009,0,30.51557,-12.26928,0.5,0,0,0,0,-70.09336,0,0,92,0,0,175,2,229
09.31.59.717455, 138.5661,-27.13705,22.91475,139.9558,-20.57056,1,0,0,0,0,-71.61096,-9.659056,1.326625,0,-71.61096,-9.618244,-0.4503666,0,0,0,0,0,-13,0,0,4.131256,-0.4467669,10.28703,0,4.131256,-0.3524558,-0.0732317,0,0,0,0,0,4.936944,0,0,71.54103,-3.064748,0,28.92178,-10.85487,0.5,0,0,0,0,-71.07822,0,0,92,0,0,176,2,229
09.31.59.815461, 136.8558,-33.10552,23.0165,138.5661,-27.13705,1,0,0,0,0,-72.02103,-9.707506,1.218157,0,-72.02103,-9.659056,-0.4441254,0,0,0,0,0,-13,0,0,4.186287,-0.552112,14.9471,0,4.186287,-0.4467669,-0.5095416,0,0,0,0,0,4.748529,0,0,71.97877,-2.801756,0,28.54585,-10.0536,0.5,0,0,0,0,-71.45415,0,0,92,0,0,177,2,229
09.31.59.913467, 134.8582,-38.46308,23.11333,136.8558,-33.10552,1,0,0,0,0,-72.27516,-9.764935,1.230971,0,-72.02103,-9.707506,-0.4407628,0,0,0,0,0,-13,0,0,4.108047,-0.6668701,19.6629,0,4.186287,-0.552112,-0.9657571,0,0,0,0,0,4.449739,0,0,72.37691,-2.503296,0,28.54585,-9.190882,0.5,0,0,0,0,-71.68715,0,0,92,0,0,178,2,229
09.32.00.016472, 130.1841,-46.84307,23.20462,134.8582,-38.46308,1,0,0,0,0,-72.75739,-9.877944,1.709679,0,-72.27516,-9.764935,-0.4411601,0,0,0,0,0,-13,0,0,4.218109,-0.8626267,26.15111,0,4.108047,-0.6668701,-1,0,0,0,0,0,4.011821,0,0,73.04922,-2.040744,0,28.31285,-8.211813,0.5,0,0,0,0,-72.80757,0,0,92,0,0,179,2,229
09.32.00.114478, 127.6211,-49.28168,23.36312,130.1841,-46.84307,1,0,0,0,0,-73.85773,-9.941246,2.116871,0,-73.85773,-9.877944,-0.4560001,0,0,0,0,0,-13,0,0,3.983387,-0.9573532,27.4614,0,3.983387,-0.8626267,-1,0,0,0,0,0,3.277459,0,0,73.31331,-1.818982,0,26.86199,-6.694455,0.5,0,0,0,0,-73.13801,0,0,92,0,0,180,2,229
09.32.00.217484, 125.0093,-50.04977,23.43527,127.6211,-49.28168,1,0,0,0,0,-73.92989,-10.00659,2.554753,0,-73.92989,-9.941246,-0.468623,0,0,0,0,0,-13,0,0,4.038418,-1.0462,27.64618,0,4.038418,-0.9573532,-1,0,0,0,0,0,3.087866,0,0,73.53692,-1.590962,0,26.11751,-5.96699,0.5,0,0,0,0,-73.88249,0,0,92,0,0,181,2,229
09.32.00.317490, 120.0196,-45.61757,23.50069,125.0093,-50.04977,1,0,0,0,0,-75.01572,-10.13275,3.236271,0,-73.92989,-10.00659,-0.4821973,0,0,0,0,0,-13,0,0,4.093449,-1.201688,25.19582,0,4.038418,-1.0462,-1,0,0,0,0,0,2.83587,0,0,73.92,-1.232491,0,26.11751,-5.21899,0.5,0,0,0,0,-73.52132,0,0,92,0,0,182,2,229
09.32.00.416495, 117.7917,-41.04936,23.55347,120.0196,-45.61757,1,0,0,0,0,-76.01781,-10.19188,3.354753,0,-75.01572,-10.13275,-0.5033244,0,0,0,0,0,-13,0,0,4.070244,-1.270818,22.79634,0,4.093449,-1.201688,-1,0,0,0,0,0,2.473938,0,0,74.09074,-1.125758,0,26.47868,-4.043065,0.5,0,0,0,0,-73.76169,0,0,92,0,0,183,2,229
09.32.00.516501, 115.8383,-35.14612,23.6484,117.7917,-41.04936,1,0,0,0,0,-76.42786,-10.24703,3.269653,0,-76.42786,-10.19188,-0.5069973,0,0,0,0,0,-13,0,0,4.125275,-1.335946,19.74889,0,4.125275,-1.270818,-1,0,0,0,0,0,2.323598,0,0,74.24708,-1.088096,0,25.86238,-3.692937,0.5,0,0,0,0,-74.13762,0,0,92,0,0,184,2,229
09.32.00.614507, 113.0042,-20.33733,23.69044,115.8383,-35.14612,1,0,0,0,0,-76.68201,-10.32999,2.405501,0,-76.68201,-10.24703,-0.5043592,0,0,0,0,0,-13,0,0,4.047035,-1.430317,12.07192,0,4.047035,-1.335946,-1,0,0,0,0,0,2.026447,0,0,74.55998,-1.237903,0,25.62938,-3.569391,0.5,0,0,0,0,-74.37062,0,0,92,0,0,185,2,229
09.32.00.715512, 112.2243,-12.08492,23.72523,113.0042,-20.33733,1,0,0,0,0,-78.17789,-10.34612,1.632626,0,-76.68201,-10.32999,-0.4775705,0,0,0,0,0,-13,0,0,4.157097,-1.444298,7.610401,0,4.047035,-1.430317,-0.9488084,0,0,0,0,0,1.758781,0,0,74.76325,-1.432966,0,25.62938,-4.060819,0.5,0,0,0,0,-74.38537,0,0,92,0,0,186,2,229
09.32.00.813518, 112.1018,4.523767,23.75801,112.2243,-12.08492,1,0,0,0,0,-78.84209,-10.28921,-0.405543,0,-78.17789,-10.34612,-0.4536114,0,0,0,0,0,-13,0,0,4.133888,-1.352749,-2.152464,0,4.157097,-1.444298,-0.5274465,0,0,0,0,0,1.877287,0,0,75.34471,-2.036448,0,25.61463,-4.700702,0.5,0,0,0,0,-74.9943,0,0,92,0,0,187,2,229
