DateTime,MagYaw,YawVelocityDegreesPerSecond,YawIntegral,YawProportional,YawDerivativeError,YawControl,YawIntegralGain,YawDerivativeGain,YawProportionalGain,YawAntiWindupGain,XNEDBodyFrame,XVelocityMetersPerSecond,ThetaPitchDegrees,XIntegral,XProportional,XDerivativeError,LongitudeControl,XIntegralGain,XDerivativeGain,XProportionalGain,XAntiWindupGain,LongitudeInnerLoopGain,XLongitudeOuterLoopSetpoint,PitchAngularVelocityRadsPerSecond,PitchAngularVelocityGain,YNEDBodyFrame,YVelocityMetersPerSecond,PhiRollDegrees,YIntegral,YProportional,YDerivativeError,LateralControl,YIntegralGain,YDerivativeGain,YProportionalGain,YAntiWindupGain,LateralInnerLoopGain,YLateralOuterLoopSetpoint,RollAngularVelocityRadsPerSecond,RollAngularVelocityGain,AltitudeFeetAgl,ZVelocityMetersPerSecond,ZIntegral,ZProportional,ZDerivativeError,MainRotorCollectiveControl,ZIntegralGain,ZDerivativeGain,ZProportionalGain,ZAntiWindupGain,ZNEDBodyFrame,LatitudeDegrees,LongitudeDegrees,Timeouts,UnrecognizedMsgTypes,ChecksumErrors,NumOfBlownFrames,MessageType,NumOfBytesInMsg
09.54.27.278389,156.8274,11.88134,0,0,0,0,0,0,0,0,0,-0.01060513,-1.276665,0,0,0,0,0,0,0,0,0,0,0,0,0,0.003412833,-0.219328,0,0,0,0,0,0,0,0,0,0,0,0,0.0928908,0.000328353,0,0,0,0,0,0,0,0,0,0,0,64,0,0,0,2,229
09.54.27.319391,159.3773,19.63318,0.3920686,156.8274,11.88134,1,0,0,0,0,0,-0.0146849,-1.325637,0,0,-0.01060513,0.03896546,0,0,0,0,0,-0.01971493,0,0,0,0.002712746,-0.2426476,0,0,0.003412833,0.02106872,0,0,0,0,0,0.009679819,0,0,0.09296167,-5.70E-05,0.09999999,100,0.00107713,0.5,0,0,0,0,0,0,0,64,0,0,1,2,229
09.54.27.387395,162.9612,26.68673,0.7674261,159.3773,19.63318,1,0,0,0,0,-0.3118834,-0.01678477,-1.374336,0,0,-0.0146849,0.04024845,0,0,0,0,0,-0.02729923,0,0,0.2665623,0.001952555,-0.274833,0,0,0.002712746,0.02303144,0,0,0,0,0,0.007694162,0,0,0.09309043,-0.000524076,0,100,-0.000187115,0.5,0,0,0,0,-0.2857854,0,0,64,0,0,2,2,229
09.54.27.493401,164.2359,-2.98381,1.14739,162.9612,26.68673,1,0,0,0,0,-0.3118834,-0.03996528,-1.410584,0,-0.3118834,-0.01678477,0.03884298,0,0,0,0,0,-0.1213372,0,0,0.2665623,-0.1190117,-0.03875619,0,0.2665623,0.001952555,0.06103474,0,0,0,0,0,0.388588,0,0,0.3210205,-1.405568,0,99.71422,-0.001719179,0.5,0,0,0,0,-0.2857854,0,0,64,0,0,3,2,229
09.54.27.591407,161.7819,-30.60865,1.901005,164.2359,-2.98381,1,0,0,0,0,0.02590969,-0.06291281,-1.0555,0,0.02590969,-0.03996528,0.03863077,0,0,0,0,0,-0.06680755,0,0,0.2665623,-0.2684114,0.8155342,0,0.2665623,-0.1190117,0.007751305,0,0,0,0,0,0.04549712,0,0,0.8717184,-1.729763,0,99.34557,-4.610825,0.5,0,0,0,0,-0.6544259,0,0,64,0,0,4,2,229
09.54.27.694413,159.7581,-40.79113,2.266164,161.7819,-30.60865,1,0,0,0,0,0.1094955,-0.0725088,-0.7605153,0,0.1094955,-0.06291281,0.03007588,0,0,0,0,0,-0.08531072,0,0,0.1883342,-0.3379565,1.345969,0,0.1883342,-0.2684114,-0.1201698,0,0,0,0,0,-0.4906589,0,0,1.158129,-1.759008,0,98.744,-5.674315,0.5,0,0,0,0,-1.256002,0,0,64,0,0,5,2,229
09.54.27.792419,154.4327,-57.44714,2.623524,159.7581,-40.79113,1,0,0,0,0,0.1094955,-0.09041343,0.05747838,0,0.1094955,-0.0725088,0.02037834,0,0,0,0,0,-0.1031497,0,0,0.1883342,-0.4761379,2.456828,0,0.1883342,-0.3379565,-0.1871168,0,0,0,0,0,-0.6879096,0,0,1.732895,-1.754946,0,98.744,-5.770249,0.5,0,0,0,0,-1.256002,0,0,64,0,0,6,2,229
09.54.27.894424,147.7861,-70.18639,2.964539,154.4327,-57.44714,1,0,0,0,0,0.2101677,-0.1068454,1.15679,0,0.1094955,-0.09041343,-0.006011296,0,0,0,0,0,-0.1364344,0,0,-0.7909838,-0.6095611,3.220903,0,0.1883342,-0.4761379,-0.3253729,0,0,0,0,0,-1.079834,0,0,2.294183,-1.713507,0,98.744,-5.756927,0.5,0,0,0,0,-1.841921,0,0,64,0,0,7,2,229
09.54.27.992430,140.06,-80.13315,3.607256,147.7861,-70.18639,1,0,0,0,0,0.03954613,-0.1203126,2.466923,0,0.03954613,-0.1068454,-0.04013501,0,0,0,0,0,-0.1871968,0,0,-0.9474398,-0.7365216,3.15463,0,-0.9474398,-0.6095611,-0.559953,0,0,0,0,0,-3.090369,0,0,2.841344,-1.66151,0,97.32357,-5.620987,0.5,0,0,0,0,-2.676433,0,0,64,0,0,8,2,229
09.54.28.095436,131.47,-87.89818,3.905202,140.06,-80.13315,1,0,0,0,0,0.1231319,-0.1246806,3.849464,0,0.1231319,-0.1203126,-0.08230498,0,0,0,0,0,-0.188076,0,0,-1.025668,-0.8479499,2.015044,0,-1.025668,-0.7365216,-0.618011,0,0,0,0,0,-3.562881,0,0,3.373146,-1.613714,0,96.72199,-5.450417,0.5,0,0,0,0,-3.278009,0,0,64,0,0,9,2,229
09.54.28.193441,122.2978,-93.98431,4.180287,131.47,-87.89818,1,0,0,0,0,0.460925,-0.1046353,5.071372,0,0.1231319,-0.1246806,-0.1254155,0,0,0,0,0,-0.1961962,0,0,-1.025668,-0.9258162,-0.5825957,0,-1.025668,-0.8479499,-0.5422451,0,0,0,0,0,-3.878925,0,0,3.886193,-1.581191,0,96.72199,-5.293627,0.5,0,0,0,0,-3.64665,0,0,64,0,0,10,2,229
09.54.28.291447,112.751,-98.95969,4.431406,122.2978,-93.98431,1,0,0,0,0,0.050776,-0.04404533,5.844587,0,0.460925,-0.1046353,-0.1591131,0,0,0,0,0,-0.06130978,0,0,-0.9706149,-0.9634346,-4.894543,0,-1.025668,-0.9258162,-0.3235807,0,0,0,0,0,-4.099777,0,0,4.381781,-1.564057,0,96.35335,-5.186939,0.5,0,0,0,0,-4.022478,0,0,64,0,0,11,2,229
09.54.28.393453,98.00609,-105.4173,4.884059,112.751,-98.95969,1,0,0,0,0,-0.02157998,0.14689,5.601021,0,-0.02157998,-0.04404533,-0.1832656,0,0,0,0,0,-0.08811688,0,0,-0.9155619,-0.9557217,-13.37438,0,-0.9155619,-0.9634346,0.07058056,0,0,0,0,0,-4.048252,0,0,5.095002,-1.539856,0,95.23306,-5.130733,0.5,0,0,0,0,-4.766947,0,0,64,0,0,12,2,229
09.54.28.491459,88.37021,-109.5698,5.071053,98.00609,-105.4173,1,0,0,0,0,0.3162131,0.3300144,4.341447,0,0.3162131,0.14689,-0.1623336,0,0,0,0,0,0.364454,0,0,-0.9155619,-0.9285125,-18.75418,0,-0.9155619,-0.9557217,0.8600162,0,0,0,0,0,-4.026376,0,0,5.534925,-1.51266,0,94.86441,-5.051344,0.5,0,0,0,0,-5.135587,0,0,64,0,0,13,2,229
09.54.28.594464,73.81999,-117.098,5.234918,88.37021,-109.5698,1,0,0,0,0,0.06200576,0.6715061,0.8738161,0,0.3162131,0.3300144,-0.1127335,0,0,0,0,0,0.7048823,0,0,-0.99379,-0.8815529,-24.72945,0,-0.9155619,-0.9285125,1,0,0,0,0,0,-3.949202,0,0,6.15511,-1.437822,0,94.86441,-4.962129,0.5,0,0,0,0,-5.368523,0,0,64,0,0,14,2,229
09.54.28.692470,63.96664,-122.7952,5.362617,73.81999,-117.098,1,0,0,0,0,-0.01034999,0.8632829,-2.23934,0,0.06200576,0.6715061,0.01216544,0,0,0,0,0,1.26625,0,0,-0.9387367,-0.8587078,-24.99445,0,-0.99379,-0.8815529,1,0,0,0,0,0,-3.928425,0,0,6.542843,-1.391044,0,94.63148,-4.716633,0.5,0,0,0,0,-6.112991,0,0,64,0,0,15,2,229
09.54.28.794476,53.73964,-129.7971,5.572689,63.96664,-122.7952,1,0,0,0,0,0.3274431,1.043937,-5.518404,0,0.3274431,0.8632829,0.1190769,0,0,0,0,0,1.699474,0,0,-0.9387367,-0.8310925,-21.86205,0,-0.9387367,-0.8587078,1,0,0,0,0,0,-3.784518,0,0,6.910372,-1.338892,0,93.51837,-4.563181,0.5,0,0,0,0,-6.481632,0,0,64,0,0,16,2,229
09.54.28.892481,36.30166,-143.5419,5.651536,53.73964,-129.7971,1,0,0,0,0,0.2550871,1.240001,-10.02876,0,0.2550871,1.043937,0.2335169,0,0,0,0,0,2.0144,0,0,-0.8836837,-0.7315067,-11.95135,0,-0.8836837,-0.8310925,1,0,0,0,0,0,-3.627081,0,0,7.459738,-1.307754,0,92.7739,-4.392101,0.5,0,0,0,0,-7.2261,0,0,64,0,0,17,2,229
09.54.28.993487,23.37222,-152.9631,5.688006,36.30166,-143.5419,1,0,0,0,0,0.2550871,1.301076,-11.74549,0,0.2550871,1.240001,0.3846368,0,0,0,0,0,2.378882,0,0,-0.8836837,-0.5863922,-2.839178,0,-0.8836837,-0.7315067,0.7918186,0,0,0,0,0,-3.344626,0,0,7.826701,-1.330017,0,92.7739,-4.289956,0.5,0,0,0,0,-7.2261,0,0,64,0,0,18,2,229
09.54.29.100493,2.750586,-163.0353,5.695238,23.37222,-152.9631,1,0,0,0,0,0.1827312,1.310095,-10.87938,0,0.2550871,1.301076,0.4413753,0,0,0,0,0,2.49242,0,0,-0.8286307,-0.1795088,12.69729,0,-0.8836837,-0.5863922,-0.008635046,0,0,0,0,0,-2.933038,0,0,8.391267,-1.381872,0,92.7739,-4.362987,0.5,0,0,0,0,-7.97057,0,0,64,0,0,19,2,229
09.54.29.191499,349.3437,-166.1672,5.615933,2.750586,-163.0353,1,0,0,0,0,0.5205245,1.287026,-7.603942,0,0.5205245,1.310095,0.4143972,0,0,0,0,0,2.585898,0,0,-0.8286307,0.2246587,22.94861,0,-0.8286307,-0.1795088,-1,0,0,0,0,0,-1.699883,0,0,8.762404,-1.366886,0,91.66079,-4.533093,0.5,0,0,0,0,-8.339211,0,0,64,0,0,20,2,229
09.54.29.293504,331.2374,-165.4007,5.545335,-10.65628,-166.1672,1,0,0,0,0,0.8583174,1.292314,0.7717795,0,0.8583174,1.287026,0.3175819,0,0,0,0,0,2.640635,0,0,-0.8286307,0.9173225,35.19277,0,-0.8286307,0.2246587,-1,0,0,0,0,0,-0.553543,0,0,9.263206,-1.201492,0,91.29215,-4.483932,0.5,0,0,0,0,-8.70785,0,0,64,0,0,21,2,229
09.54.29.391510,320.3533,-162.2318,5.432705,-28.76257,-165.4007,1,0,0,0,0,0.9419026,1.32871,7.857774,0,0.8583174,1.292314,0.05823928,0,0,0,0,0,2.650466,0,0,-0.9068587,1.362883,38.58932,0,-0.8286307,0.9173225,-1,0,0,0,0,0,1.411059,0,0,9.548132,-1.034361,0,91.29215,-3.941375,0.5,0,0,0,0,-9.309426,0,0,64,0,0,22,2,229
09.54.29.494516,309.6989,-157.9333,5.297324,-39.64667,-162.2318,1,0,0,0,0,0.9419026,1.39661,15.44126,0,0.9419026,1.32871,-0.1585802,0,0,0,0,0,2.742282,0,0,-0.9068587,1.821812,37.72337,0,-0.9068587,1.362883,-1,0,0,0,0,0,2.562388,0,0,9.781516,-0.8023568,0,90.69057,-3.393118,0.5,0,0,0,0,-9.309426,0,0,64,0,0,23,2,229
09.54.29.592521,293.1516,-148.4488,4.983395,-50.30109,-157.9333,1,0,0,0,0,0.8695469,1.511141,26.14792,0,0.8695469,1.39661,-0.3897553,0,0,0,0,0,2.847598,0,0,-0.8518057,2.487497,29.23549,0,-0.8518057,1.821812,-1,0,0,0,0,0,3.943161,0,0,10.01805,-0.4475011,0,89.94611,-2.632051,0.5,0,0,0,0,-10.0539,0,0,64,0,0,24,2,229
09.54.29.694527,280.9778,-142.2757,4.788357,-66.84842,-148.4488,1,0,0,0,0,1.617489,1.560656,31.66085,0,1.617489,1.511141,-0.7090089,0,0,0,0,0,3.276665,0,0,-0.9068587,2.920141,19.18748,0,-0.9068587,2.487497,-1,0,0,0,0,0,5,0,0,10.10989,-0.2709603,0,89.95329,-1.467983,0.5,0,0,0,0,-10.04671,0,0,64,0,0,25,2,229
09.54.29.792533,267.3666,-136.9315,4.567733,-79.02216,-142.2757,1,0,0,0,0,1.617489,1.548188,35.02196,0,1.617489,1.560656,-0.8770563,0,0,0,0,0,3.368714,0,0,-0.9068587,3.362043,5.868571,0,-0.9068587,2.920141,-1,0,0,0,0,0,5,0,0,10.16977,-0.1630554,0,89.95329,-0.8888581,0.5,0,0,0,0,-10.04671,0,0,64,0,0,26,2,229
09.54.29.891539,253.1861,-133.74,4.317433,-92.63336,-136.9315,1,0,0,0,0,1.444461,1.433314,35.49519,0,1.617489,1.548188,-0.9819691,0,0,0,0,0,3.345537,0,0,0.1275122,3.80806,-9.298539,0,-0.9068587,3.362043,-0.07990856,0,0,0,0,0,5,0,0,10.21175,-0.1153394,0,89.95329,-0.534887,0.5,0,0,0,0,-10.20526,0,0,64,0,0,27,2,229
09.54.29.993544,239.2314,-133.8178,3.761163,-106.8139,-133.74,1,0,0,0,0,1.698668,1.186819,32.48184,0,1.698668,1.433314,-1,0,0,0,0,0,3.155446,0,0,0.2057402,4.262973,-25.10897,0,0.2057402,3.80806,1,0,0,0,0,0,5,0,0,10.24889,-0.08941619,0,90.02768,-0.3783595,0.5,0,0,0,0,-9.972322,0,0,64,0,0,28,2,229
09.54.30.091550,226.5708,-138.5381,3.453583,-120.7686,-133.8178,1,0,0,0,0,1.698668,0.8381572,25.69406,0,1.698668,1.186819,-0.9233234,0,0,0,0,0,2.697211,0,0,0.2057402,4.716576,-39.49661,0,0.2057402,4.262973,1,0,0,0,0,0,5,0,0,10.26674,-0.001750302,0,90.02768,-0.2933209,0.5,0,0,0,0,-9.972322,0,0,64,0,0,29,2,229
09.54.30.193556,215.8919,-148.6645,3.120005,-133.4292,-138.5381,0.4251303,0,0,0,0,1.765168,0.4549557,15.58594,0,1.698668,0.8381572,-0.7329953,0,0,0,0,0,2.049049,0,0,1.028602,5.137956,-48.23009,0,0.2057402,4.716576,1,0,0,0,0,0,5,0,0,10.24007,0.1443677,0,90.02768,-0.005741689,0.5,0,0,0,0,-10.58955,0,0,64,0,0,30,2,229
09.54.30.292562,206.2497,-166.1044,2.759735,-144.1081,-148.6645,-0.1492237,0,0,0,0,1.681582,0.05279309,2.745341,0,1.765168,0.4549557,-0.4411315,0,0,0,0,0,1.355896,0,0,1.10683,5.501698,-49.0672,0,1.028602,5.137956,1,0,0,0,0,0,5,0,0,10.16172,0.3090953,0,89.41045,0.4735838,0.5,0,0,0,0,-9.987978,0,0,64,0,0,31,2,229
09.54.30.394567,197.6813,-153.7,1.990984,-153.7503,-166.1044,-1,0,0,0,0,1.762761,-0.4552346,-10.1678,0,1.762761,0.05279309,-0.06699785,0,0,0,0,0,0.6075803,0,0,2.219429,5.852364,-44.12048,0,2.219429,5.501698,1,0,0,0,0,0,5,0,0,10.01275,0.528534,0,90.08641,1.013956,0.5,0,0,0,0,-9.913591,0,0,64,0,0,32,2,229
09.54.30.492573,185.7745,-122.9116,1.586438,-162.3187,-153.7,-1,0,0,0,0,1.762761,-1.327755,-26.4263,0,1.762761,-0.4552346,0.3047597,0,0,0,0,0,-0.3368432,0,0,2.219429,6.291334,-30.41074,0,2.219429,5.852364,1,0,0,0,0,0,5,0,0,9.742549,0.6463904,0,90.08641,1.733803,0.5,0,0,0,0,-9.913591,0,0,64,0,0,33,2,229
09.54.30.594579,180.6003,-35.79539,1.157547,-174.2255,-122.9116,-1,0,0,0,0,2.155824,-2.304269,-34.30311,0,1.762761,-1.327755,0.7584907,0,0,0,0,0,-1.958859,0,0,3.065466,6.732461,-17.67775,0,2.219429,6.291334,1,0,0,0,0,0,5,0,0,9.505526,0.5807595,0,90.08641,2.120419,0.5,0,0,0,0,-9.55342,0,0,64,0,0,34,2,229
09.54.30.693584,181.8557,18.6416,0.7216963,-179.3997,-35.79539,-1,0,0,0,0,1.728588,-3.278349,-37.28086,0,2.155824,-2.304269,0.9499177,0,0,0,0,0,-3.660603,0,0,4.021609,6.790714,-8.342935,0,3.065466,6.732461,1,0,0,0,0,0,5,0,0,9.377987,0.2869471,0,90.44658,1.905124,0.5,0,0,0,0,-9.944905,0,0,64,0,0,35,2,229
09.54.30.791590,187.6512,55.7486,-0.1328435,-178.1443,18.6416,-1,0,0,0,0,1.728588,-4.180039,-36.80417,0,1.728588,-3.278349,0.9822652,0,0,0,0,0,-5.594888,0,0,4.021609,6.52842,-1.69627,0,4.021609,6.790714,1,0,0,0,0,0,5,0,0,9.395778,-0.1651453,0,90.05509,0.9413012,0.5,0,0,0,0,-9.944905,0,0,64,0,0,36,2,229
09.54.30.893596,197.0689,82.91759,-0.5397919,-172.3488,55.7486,-1,0,0,0,0,0.8222971,-4.968888,-33.42909,0,0.8222971,-4.180039,0.9074048,0,0,0,0,0,-7.53305,0,0,5.40077,5.966705,3.18434,0,5.40077,6.52842,0.6160568,0,0,0,0,0,5,0,0,9.602355,-0.7611313,0,90.58098,-0.5417427,0.5,0,0,0,0,-9.419024,0,0,64,0,0,37,2,229
09.54.30.991602,209.4404,103.795,-0.920814,-162.9311,82.91759,-1,0,0,0,0,0.0572691,-5.50277,-27.87145,0,0.8222971,-4.968888,0.7573168,0,0,0,0,0,-8.999519,0,0,6.356913,5.17133,7.160172,0,5.40077,5.966705,0.1670407,0,0,0,0,0,5,0,0,10.04688,-1.476835,0,90.58098,-2.496815,0.5,0,0,0,0,-9.441868,0,0,64,0,0,38,2,229
09.54.31.094607,223.1876,118.6249,-1.269288,-150.5596,103.795,-1,0,0,0,0,-0.1157594,-5.655451,-21.21911,0,0.0572691,-5.50277,0.547409,0,0,0,0,0,-10.2131,0,0,7.391284,4.384223,10.58699,0,6.356913,5.17133,-0.1987358,0,0,0,0,0,5,0,0,10.7047,-2.162364,0,90.55814,-4.84461,0.5,0,0,0,0,-9.600418,0,0,64,0,0,39,2,229
09.54.31.192613,233.5009,128.6962,-1.895449,-136.8124,118.6249,-1,0,0,0,0,-0.5259085,-5.595834,-16.38441,0,-0.5259085,-5.655451,0.3308372,0,0,0,0,0,-10.66547,0,0,7.446337,3.961234,12.27414,0,7.446337,4.384223,-0.5140034,0,0,0,0,0,5,0,0,11.26922,-2.528368,0,90.02376,-7.093419,0.5,0,0,0,0,-9.976246,0,0,64,0,0,40,2,229
09.54.31.294619,245.201,141.2276,-2.179444,-126.4991,128.6962,-1,0,0,0,0,-1.28853,-5.465132,-11.39434,0,-1.28853,-5.595834,0.1738903,0,0,0,0,0,-10.77504,0,0,7.211653,3.642036,12.68399,0,7.211653,3.961234,-0.6692207,0,0,0,0,0,5,0,0,11.93631,-2.801141,0,89.32495,-8.29406,0.5,0,0,0,0,-10.67505,0,0,64,0,0,41,2,229
09.54.31.392624,259.3982,159.6026,-2.433421,-114.799,141.2276,-1,0,0,0,0,-1.377973,-5.296506,-6.171962,0,-1.28853,-5.465132,0.02673065,0,0,0,0,0,-10.53206,0,0,8.167796,3.437226,11.38437,0,7.211653,3.642036,-0.7069268,0,0,0,0,0,5,0,0,12.73004,-2.946604,0,89.32495,-9.188863,0.5,0,0,0,0,-11.43518,0,0,64,0,0,42,2,229
09.54.31.491630,285.9495,200.5022,-2.651735,-100.6018,159.6026,-1,0,0,0,0,-1.704536,-5.175076,1.251675,0,-1.377973,-5.296506,-0.1262468,0,0,0,0,0,-10.24444,0,0,8.144621,3.331426,5.739347,0,8.167796,3.437226,-0.5873625,0,0,0,0,0,5,0,0,14.00233,-2.761392,0,88.56482,-9.66604,0.5,0,0,0,0,-12.41258,0,0,64,0,0,43,2,229
09.54.31.593636,306.1185,237.5215,-2.961152,-74.05048,200.5022,-1,0,0,0,0,-2.779041,-5.233906,5.431883,0,-2.779041,-5.175076,-0.3523073,0,0,0,0,0,-10.42361,0,0,8.176498,3.270937,0.9078419,0,8.176498,3.331426,-0.06801992,0,0,0,0,0,5,0,0,14.73438,-2.475559,0,86.60283,-9.058472,0.5,0,0,0,0,-13.39717,0,0,64,0,0,44,2,229
09.54.31.692642,340.912,303.9926,-3.065899,-53.88147,237.5215,-1,0,0,0,0,-3.599339,-5.396194,10.5835,0,-3.599339,-5.233906,-0.5022596,0,0,0,0,0,-10.77004,0,0,8.286605,2.999213,-5.075037,0,8.286605,3.270937,0.3764786,0,0,0,0,0,5,0,0,15.6502,-2.160022,0,85.85117,-8.120822,0.5,0,0,0,0,-14.14883,0,0,64,0,0,45,2,229
09.54.31.793647,9.179516,350.7983,-3.086956,-19.08798,303.9926,-1,0,0,0,0,-4.098931,-5.432629,12.886,0,-3.599339,-5.396194,-0.6713123,0,0,0,0,0,-11.07173,0,0,9.2978,2.713658,-6.365948,0,8.286605,2.999213,0.9269034,0,0,0,0,0,5,0,0,16.22316,-2.111155,0,85.85117,-7.085735,0.5,0,0,0,0,-15.28479,0,0,64,0,0,46,2,229
09.54.31.891653,42.44737,391.6574,-3.044666,9.179516,350.7983,-1,0,0,0,0,-4.50908,-5.381159,12.90346,0,-4.098931,-5.432629,-0.7492654,0,0,0,0,0,-11.28385,0,0,9.352854,2.43907,-4.008831,0,9.2978,2.713658,1,0,0,0,0,0,5,0,0,16.82211,-2.153622,0,84.71521,-6.925434,0.5,0,0,0,0,-15.66061,0,0,64,0,0,47,2,229
09.54.31.994659,79.76097,423.9969,-2.814605,42.44737,391.6574,-1,0,0,0,0,-4.835643,-5.299571,9.00781,0,-4.835643,-5.381159,-0.7505149,0,0,0,0,0,-11.40108,0,0,9.329679,2.280811,1.174625,0,9.329679,2.43907,0.8288125,0,0,0,0,0,5,0,0,17.4471,-2.164824,0,83.36198,-7.064742,0.5,0,0,0,0,-16.63802,0,0,64,0,0,48,2,229
09.54.32.092664,119.168,439.4611,-2.611408,79.76097,423.9969,-0.4332944,0,0,0,0,-5.245793,-5.309696,1.103159,0,-5.245793,-5.299571,-0.6316481,0,0,0,0,0,-11.36794,0,0,9.384732,2.229312,5.974529,0,9.384732,2.280811,0.3519345,0,0,0,0,0,5,0,0,18.07668,-2.082932,0,82.98615,-7.101488,0.5,0,0,0,0,-17.01385,0,0,64,0,0,49,2,229
09.54.32.194670,159.0102,432.1009,-2.313488,119.168,439.4611,0.6182198,0,0,0,0,-5.910149,-5.485187,-8.265225,0,-5.245793,-5.309696,-0.3871874,0,0,0,0,0,-11.38676,0,0,9.361557,2.093698,7.537518,0,9.384732,2.229312,-0.08965665,0,0,0,0,0,5,0,0,18.66937,-1.87916,0,82.98615,-6.832851,0.5,0,0,0,0,-17.62261,0,0,64,0,0,50,2,229
09.54.32.292676,214.2194,363.5182,-1.915962,159.0102,432.1009,1,0,0,0,0,-6.239119,-5.617148,-17.08812,0,-5.910149,-5.485187,-0.1128329,0,0,0,0,0,-11.90499,0,0,10.52921,1.384001,4.153363,0,9.361557,2.093698,-0.2334517,0,0,0,0,0,5,0,0,19.47566,-1.747696,0,82.3774,-6.164397,0.5,0,0,0,0,-17.92405,0,0,64,0,0,51,2,229
09.54.32.390682,253.673,284.7219,-2.618497,-145.7806,363.5182,-1,0,0,0,0,-7.074098,-5.380749,-17.64008,0,-7.074098,-5.617148,0.1501248,0,0,0,0,0,-12.48669,0,0,10.34958,0.731032,-1.274245,0,10.34958,1.384001,0.07789058,0,0,0,0,0,5,0,0,20.22196,-1.960533,0,80.63268,-5.733142,0.5,0,0,0,0,-19.36733,0,0,64,0,0,52,2,229
09.54.32.493687,273.8885,239.8535,-2.847245,-106.327,284.7219,-1,0,0,0,0,-7.484246,-5.166068,-15.58297,0,-7.484246,-5.380749,0.1697038,0,0,0,0,0,-12.16576,0,0,10.40463,0.4203715,-4.694581,0,10.40463,0.731032,0.5772306,0,0,0,0,0,5,0,0,20.75928,-2.150705,0,80.25684,-6.431331,0.5,0,0,0,0,-19.74316,0,0,64,0,0,53,2,229
09.54.32.598693,299.8462,231.7358,-3.029145,-86.11145,239.8535,-1,0,0,0,0,-7.810809,-5.007501,-10.44248,0,-7.484246,-5.166068,0.1183054,0,0,0,0,0,-11.76667,0,0,10.38146,0.02058397,-9.131539,0,10.40463,0.4203715,0.8919014,0,0,0,0,0,5,0,0,21.63713,-2.38339,0,80.25684,-7.055172,0.5,0,0,0,0,-20.72056,0,0,64,0,0,54,2,229
09.54.32.694699,328.4021,263.0677,-3.14732,-60.15381,231.7358,-1,0,0,0,0,-8.968901,-4.935874,-2.349478,0,-7.810809,-5.007501,-0.03483728,0,0,0,0,0,-11.56627,0,0,10.49156,-0.2962267,-10.24562,0,10.38146,0.02058397,1,0,0,0,0,0,5,0,0,22.5799,-2.478478,0,79.27944,-7.818472,0.5,0,0,0,0,-21.10358,0,0,64,0,0,55,2,229
09.54.32.791704,350.1052,290.0457,-3.253138,-31.59793,263.0677,-1,0,0,0,0,-8.547522,-4.913045,3.935216,0,-8.547522,-4.935874,-0.2919681,0,0,0,0,0,-11.64602,0,0,10.41333,-0.4544821,-7.128572,0,10.41333,-0.2962267,1,0,0,0,0,0,5,0,0,23.21682,-2.427245,0,77.92621,-8.130401,0.5,0,0,0,0,-22.07379,0,0,64,0,0,56,2,229
09.54.32.894710,14.94762,321.3528,-3.253881,-9.894806,290.0457,-1,0,0,0,0,-9.705613,-4.903925,9.356153,0,-9.705613,-4.913045,-0.4920782,0,0,0,0,0,-11.93827,0,0,10.52344,-0.586278,-0.5325888,0,10.52344,-0.4544821,1,0,0,0,0,0,5,0,0,23.82619,-2.276693,0,77.54319,-7.962336,0.5,0,0,0,0,-22.45681,0,0,64,0,0,57,2,229
09.54.32.992716,44.77633,354.1823,-3.196967,14.94762,321.3528,-1,0,0,0,0,-10.44232,-4.919183,11.9613,0,-9.705613,-4.903925,-0.6596016,0,0,0,0,0,-11.92132,0,0,10.55532,-0.6783766,9.391377,0,10.52344,-0.586278,0.5089982,0,0,0,0,0,5,0,0,24.39615,-1.995437,0,77.54319,-7.468464,0.5,0,0,0,0,-23.81004,0,0,64,0,0,58,2,229
09.54.33.094722,95.17505,392.2111,-3.071159,44.77633,354.1823,-1,0,0,0,0,-10.44232,-5.042612,5.58374,0,-10.44232,-4.919183,-0.7478405,0,0,0,0,0,-12.16259,0,0,10.55532,-0.7845417,24.50445,0,10.55532,-0.6783766,-0.4040067,0,0,0,0,0,5,0,0,25.06813,-1.355629,0,76.18996,-6.545831,0.5,0,0,0,0,-23.81004,0,0,64,0,0,59,2,229
09.54.33.192727,129.4115,407.3787,-2.588731,95.17505,392.2111,-0.1787444,0,0,0,0,-11.10668,-5.197863,-4.642816,0,-11.10668,-5.042612,-0.5572494,0,0,0,0,0,-12.58405,0,0,10.53214,-0.9130472,28.32,0,10.53214,-0.7845417,-1,0,0,0,0,0,5,0,0,25.36518,-0.9503986,0,75.58119,-4.447004,0.5,0,0,0,0,-24.41881,0,0,64,0,0,60,2,229
09.54.33.291733,166.6499,406.9403,-2.265202,129.4115,407.3787,0.8023806,0,0,0,0,-11.6151,-5.424793,-15.79506,0,-11.6151,-5.197863,-0.2590727,0,0,0,0,0,-13,0,0,10.37569,-1.151581,21.59507,0,10.37569,-0.9130472,-1,0,0,0,0,0,5,0,0,25.59489,-0.7019042,0,75.11533,-3.117687,0.5,0,0,0,0,-24.88468,0,0,64,0,0,61,2,229
09.54.33.393739,200.9862,351.4368,-1.848577,166.6499,406.9403,1,0,0,0,0,-12.02524,-5.573168,-20.70867,0,-11.6151,-5.424793,0.08664689,0,0,0,0,0,-13,0,0,10.43074,-1.654511,6.620887,0,10.37569,-1.151581,-1,0,0,0,0,0,5,0,0,25.75647,-0.5146489,0,75.11533,-2.302527,0.5,0,0,0,0,-25.26051,0,0,64,0,0,62,2,229
09.54.33.491745,240.6272,272.4597,-2.255172,-159.0138,351.4368,-1,0,0,0,0,-12.36063,-5.581933,-17.17581,0,-12.02524,-5.573168,0.2389688,0,0,0,0,0,-13,0,0,9.239914,-2.173963,-15.89605,0,10.43074,-1.654511,-0.1491216,0,0,0,0,0,5,0,0,25.91508,-0.3261869,0,74.73949,-1.688254,0.5,0,0,0,0,-25.56783,0,0,64,0,0,63,2,229
09.54.33.593750,266.0272,195.4168,-2.783261,-119.3728,272.4597,-1,0,0,0,0,-12.77078,-5.581446,-8.586275,0,-12.77078,-5.581933,0.12945,0,0,0,0,0,-13,0,0,9.294966,-2.375832,-30.71025,0,9.294966,-2.173963,1,0,0,0,0,0,5,0,0,25.96406,0.009379867,0,74.05634,-1.070023,0.5,0,0,0,0,-25.94366,0,0,64,0,0,64,2,229
09.54.33.691756,280.2427,206.7488,-2.98284,-93.97278,195.4168,-1,0,0,0,0,-14.11072,-5.841311,-1.069604,0,-14.11072,-5.581446,-0.1368255,0,0,0,0,0,-13,0,0,9.271791,-2.508878,-36.90675,0,9.271791,-2.375832,1,0,0,0,0,0,5,0,0,25.89856,0.3611339,0,74.18486,0.03076972,0.5,0,0,0,0,-25.81514,0,0,64,0,0,65,2,229
09.54.33.794762,302.063,220.7973,-3.148296,-79.75729,206.7488,-1,0,0,0,0,-14.44852,-6.22437,13.02819,0,-14.11072,-5.841311,-0.3698423,0,0,0,0,0,-13,0,0,9.271791,-2.777119,-37.32069,0,9.271791,-2.508878,1,0,0,0,0,0,5,0,0,25.65845,0.7746195,0,74.18486,1.184664,0.5,0,0,0,0,-25.4465,0,0,64,0,0,66,2,229
09.54.33.892767,318.9129,230.4317,-3.26036,-57.93704,220.7973,-1,0,0,0,0,-15.19646,-6.468085,23.00854,0,-14.44852,-6.22437,-0.8068739,0,0,0,0,0,-13,0,0,9.326843,-2.991166,-30.73413,0,9.271791,-2.777119,1,0,0,0,0,0,5,0,0,25.39331,1.045627,0,74.5535,2.541062,0.5,0,0,0,0,-25.45369,0,0,64,0,0,67,2,229
09.54.33.994773,339.3033,244.7404,-3.409068,-41.08707,230.4317,-1,0,0,0,0,-15.36122,-6.733246,31.20586,0,-15.36122,-6.468085,-1,0,0,0,0,0,-13,0,0,8.292473,-3.21088,-18.1934,0,8.292473,-2.991166,1,0,0,0,0,0,3.43244,0,0,25.07177,1.221623,0,75.0735,3.430076,0.5,0,0,0,0,-24.92649,0,0,64,0,0,68,2,229
09.54.34.093779,19.78003,282.9902,-3.432961,-20.69672,244.7404,-1,0,0,0,0,-15.69902,-7.175826,34.10518,0,-15.69902,-6.733246,-1,0,0,0,0,0,-13,0,0,8.292473,-3.495107,11.42462,0,8.292473,-3.21088,1,0,0,0,0,0,2.809265,0,0,24.50139,1.398927,0,75.44215,4.007413,0.5,0,0,0,0,-24.55786,0,0,64,0,0,69,2,229
09.54.34.191785,48.8951,321.9842,-3.359426,19.78003,282.9902,-1,0,0,0,0,-17.12254,-7.415932,25.02437,0,-15.69902,-7.175826,-1,0,0,0,0,0,-13,0,0,8.347527,-3.613976,31.07626,0,8.292473,-3.495107,-0.8667789,0,0,0,0,0,2.003112,0,0,24.05553,1.617027,0,75.44215,4.589041,0.5,0,0,0,0,-23.82776,0,0,64,0,0,70,2,229
09.54.34.293790,75.91902,374.2996,-3.221952,48.8951,321.9842,-1,0,0,0,0,-17.69746,-7.511242,6.850654,0,-17.12254,-7.415932,-1,0,0,0,0,0,-13,0,0,7.368208,-3.659555,43.34774,0,8.347527,-3.613976,-1,0,0,0,0,0,1.745074,0,0,23.49875,2.039894,0,76.17224,5.304494,0.5,0,0,0,0,-23.6764,0,0,64,0,0,71,2,229
09.54.34.391796,118.5532,436.8029,-2.834522,75.91902,374.2996,-0.8099895,0,0,0,0,-18.11884,-7.749653,-27.94482,0,-18.11884,-7.511242,-0.6153703,0,0,0,0,0,-13,0,0,7.446436,-3.600444,34.57308,0,7.446436,-3.659555,-1,0,0,0,0,0,0.3209324,0,0,22.53636,2.465939,0,77.29382,6.691669,0.5,0,0,0,0,-22.70618,0,0,64,0,0,72,2,229
09.54.34.493802,156.4345,449.7208,-2.538139,118.5532,436.8029,0.3777935,0,0,0,0,-18.79442,-7.967746,-42.02012,0,-18.79442,-7.749653,0.4632894,0,0,0,0,0,-13,0,0,7.446436,-3.535002,7.930216,0,7.446436,-3.600444,-1,0,0,0,0,0,0.4885893,0,0,21.84583,2.898833,0,78.0311,8.089267,0.5,0,0,0,0,-21.9689,0,0,64,0,0,73,2,229
09.54.34.592807,229.0006,405.6648,-2.147053,156.4345,449.7208,1,0,0,0,0,-19.38643,-8.22356,-26.32489,0,-18.79442,-7.967746,0.8996237,0,0,0,0,0,-13,0,,,,,,,,,,,,,,,,,,,,,,,,,,,,,,,,,,,
