MagYaw,YawVelocityDegreesPerSecond,YawIntegral,YawProportional,YawDerivativeError,YawControl,YawIntegralGain,YawDerivativeGain,YawProportionalGain,YawAntiWindupGain,XNEDBodyFrame,XVelocityMetersPerSecond,ThetaPitchDegrees,XIntegral,XProportional,XDerivativeError,LongitudeControl,XIntegralGain,XDerivativeGain,XProportionalGain,XAntiWindupGain,LongitudeInnerLoopGain,XLongitudeOuterLoopSetpoint,PitchAngularVelocityRadsPerSecond,PitchAngularVelocityGain,YNEDBodyFrame,YVelocityMetersPerSecond,PhiRollDegrees,YIntegral,YProportional,YDerivativeError,LateralControl,YIntegralGain,YDerivativeGain,YProportionalGain,YAntiWindupGain,LateralInnerLoopGain,YLateralOuterLoopSetpoint,RollAngularVelocityRadsPerSecond,RollAngularVelocityGain,AltitudeFeetAgl,ZVelocityMetersPerSecond,ZIntegral,ZProportional,ZDerivativeError,MainRotorCollectiveControl,ZIntegralGain,ZDerivativeGain,ZProportionalGain,ZAntiWindupGain,ZNEDBodyFrame,LatitudeDegrees,LongitudeDegrees,Timeouts,UnrecognizedMsgTypes,ChecksumErrors,NumOfBlownFrames,MessageType,NumOfBytesInMsg
201.3675,54.38623,0,0,0,0,0,0,0,0,0,-0.01032726,-1.13061,0,0,0,0,0,0,0,0,0,0,0,0,0,0.004491647,-0.6633242,0,0,0,0,0,0,0,0,0,0,0,0,0.09291254,0.000103216,0,0,0,0,0,0,0,0,0,0,0,60,0,0,0,2,229
206.9597,56.03941,-0.063453,-158.6325,54.38623,-1,0,0,0,0,0,-0.009190519,-1.032435,0,0,-0.01032726,0.03445376,0,0,0,0,0,-0.01919837,0,0,0,0.005405614,-0.69675,0,0,0.004491647,0.06219787,0,0,0,0,0,0.01273966,0,0,0.09288441,2.683171E-05,0.09999999,100,0.0003385899,1,0,0,0,0,0,0,0,60,0,0,1,2,229
212.6972,57.4187,0,-153.0403,56.03941,-1,0,0,0,0,-0.7626219,-0.008178033,-0.9303883,0,0,-0.009190519,0.03147585,0,0,0,0,0,-0.01708518,0,0,-0.2346839,0.00652706,-0.7246144,0,0,0.005405614,0.06551153,0,0,0,0,0,0.01533194,0,0,0.09282398,0.0007875406,0,100,8.801874E-05,1,0,0,0,0,-0.6988069,0,0,60,0,0,2,2,229
218.5525,58.52372,0,-147.3028,57.4187,-1,0,0,0,0,-0.7626219,-0.007261624,-0.8248011,0,-0.7626219,-0.008178033,0.02153841,0,0,0,0,0,-0.2356007,0,0,-0.2346839,0.007845311,-0.7392843,0,-0.2346839,0.00652706,0.03734154,0,0,0,0,0,-0.3187281,0,0,0.0928124,0.0001605392,0,99.30119,0.002583448,1,0,0,0,0,-0.6988069,0,0,60,0,0,3,2,229
224.5,59.38195,0,-141.4475,58.52372,-1,0,0,0,0,-0.7626219,-0.006558475,-0.7164922,0,-0.7626219,-0.007261624,0.01831802,0,0,0,0,0,-0.2338971,0,0,-0.2346839,0.009319369,-0.7513401,0,-0.2346839,0.007845311,0.03903516,0,0,0,0,0,-0.3149891,0,0,0.0928176,0.0003637771,0,99.30119,0.0005266329,1,0,0,0,0,-0.6988069,0,0,60,0,0,4,2,229
230.5156,59.99535,0,-135.5,59.38195,-1,0,0,0,0,-0.7626219,-0.006164769,-0.6068112,0,-0.7626219,-0.006558475,0.01500097,0,0,0,0,0,-0.2325899,0,0,-0.2346839,0.01102468,-0.7570176,0,-0.2346839,0.009319369,0.04052892,0,0,0,0,0,-0.3108083,0,0,0.09282403,-0.0003420687,0,99.30119,0.001193334,1,0,0,0,0,-0.6988069,0,0,60,0,0,5,2,229
236.5763,60.38901,0,-129.4844,59.99535,-1,0,0,0,0,-0.7626219,-0.005946644,-0.4957532,0,-0.7626219,-0.006164769,0.01162355,0,0,0,0,0,-0.231858,0,0,-0.2346839,0.01288156,-0.7490723,0,-0.2346839,0.01102468,0.04149624,0,0,0,0,0,-0.3059715,0,0,0.09270424,0.0002232305,0,99.30119,-0.001122122,1,0,0,0,0,-0.6988069,0,0,60,0,0,6,2,229
242.6598,60.56433,0,-123.4237,60.38901,-1,0,0,0,0,-0.7626219,-0.006007205,-0.3837629,0,-0.7626219,-0.005946644,0.00819332,0,0,0,0,0,-0.2314525,0,0,-0.2346839,0.0148175,-0.7359154,0,-0.2346839,0.01288156,0.04124981,0,0,0,0,0,-0.3007048,0,0,0.09280516,-7.73213E-05,0,99.30119,0.0007322854,1,0,0,0,0,-0.6988069,0,0,60,0,0,7,2,229
245.7042,60.5855,0,-117.3402,60.56433,-1,0,0,0,0,-0.7626219,-0.006124604,-0.3282513,0,-0.7626219,-0.006007205,0.004718131,0,0,0,0,0,-0.2315651,0,0,-0.2346839,0.0158016,-0.7254328,0,-0.2346839,0.0148175,0.04054454,0,0,0,0,0,-0.2952139,0,0,0.09265897,0.0008485217,0,99.30119,-0.0002536448,1,0,0,0,0,-0.6988069,0,0,60,0,0,8,2,229
245.7042,60.5855,0,-114.2958,60.5855,-1,0,0,0,0,-0.7626219,-0.006124604,-0.3282513,0,-0.7626219,-0.006124604,0.002990507,0,0,0,0,0,-0.2317834,0,0,-0.2346839,0.0158016,-0.7254328,0,-0.2346839,0.0158016,0.03983692,0,0,0,0,0,-0.2924227,0,0,0.09265897,0.0008485217,0,99.30119,0.002783491,1,0,0,0,0,-0.6988069,0,0,61,0,0,9,2,229
245.7042,60.5855,0,-114.2958,60.5855,-1,0,0,0,0,-0.7626219,-0.006124604,-0.3282513,0,-0.7626219,-0.006124604,0.002990507,0,0,0,0,0,-0.2317834,0,0,-0.2346839,0.0158016,-0.7254328,0,-0.2346839,0.0158016,0.03983692,0,0,0,0,0,-0.2924227,0,0,0.09265897,0.0008485217,0,99.30119,0.002783491,1,0,0,0,0,-0.6988069,0,0,62,0,0,10,2,229
245.7042,60.5855,0,-114.2958,60.5855,-1,0,0,0,0,-0.7626219,-0.006124604,-0.3282513,0,-0.7626219,-0.006124604,0.002990507,0,0,0,0,0,-0.2317834,0,0,-0.2346839,0.0158016,-0.7254328,0,-0.2346839,0.0158016,0.03983692,0,0,0,0,0,-0.2924227,0,0,0.09265897,0.0008485217,0,99.30119,0.002783491,1,0,0,0,0,-0.6988069,0,0,63,0,0,11,2,229
245.7042,60.5855,0,-114.2958,60.5855,-1,0,0,0,0,-0.7626219,-0.006124604,-0.3282513,0,-0.7626219,-0.006124604,0.002990507,0,0,0,0,0,-0.2317834,0,0,-0.2346839,0.0158016,-0.7254328,0,-0.2346839,0.0158016,0.03983692,0,0,0,0,0,-0.2924227,0,0,0.09265897,0.0008485217,0,99.30119,0.002783491,1,0,0,0,0,-0.6988069,0,0,64,0,0,12,2,229
245.7042,60.5855,0,-114.2958,60.5855,-1,0,0,0,0,-0.7626219,-0.006124604,-0.3282513,0,-0.7626219,-0.006124604,0.002990507,0,0,0,0,0,-0.2317834,0,0,-0.2346839,0.0158016,-0.7254328,0,-0.2346839,0.0158016,0.03983692,0,0,0,0,0,-0.2924227,0,0,0.09265897,0.0008485217,0,99.30119,0.002783491,1,0,0,0,0,-0.6988069,0,0,65,0,0,13,2,229
298.5524,181.5527,0,-114.2958,60.5855,-1,0,0,0,0,-0.7626219,-0.5629932,4.034461,0,-0.7626219,-0.006124604,0.002990507,0,0,0,0,0,-0.2317834,0,0,-0.2346839,-0.08440063,-1.953864,0,-0.2346839,0.0158016,0.03983692,0,0,0,0,0,-0.2924227,0,0,4.58553,-5.377869,0,99.30119,0.002783491,1,0,0,0,0,-0.6988069,0,0,65,0,0,14,2,229
298.5524,181.5527,0,-61.44757,181.5527,1,0,0,0,0,-0.6453459,-0.5629932,4.034461,0,-0.7626219,-0.5629932,-0.1643454,0,0,0,0,0,-1.267002,0,0,-0.3824363,-0.08440063,-1.953864,0,-0.2346839,-0.08440063,0.1267059,0,0,0,0,0,-0.5766263,0,0,4.58553,-5.377869,0,99.30119,-17.64156,1,0,0,0,0,-5.338517,0,0,66,0,0,15,2,229
329.5259,215.9905,-17.50243,-61.44757,181.5527,1,0,0,0,0,-0.6453459,-0.754705,7.859269,0,-0.6453459,-0.5629932,-0.1632947,0,0,0,0,0,-1.233109,0,0,-0.3824363,-0.05218199,0.38835,0,-0.3824363,-0.08440063,0.1071724,0,0,0,0,0,-0.7889464,0,0,7.371011,-5.730496,0,94.66148,-17.64156,1,0,0,0,0,-5.338517,0,0,66,0,0,16,2,229
351.8578,210.6974,-24.9516,-30.47409,215.9905,1,0,0,0,0,-0.7788277,-0.9142782,9.827008,0,-0.7788277,-0.754705,-0.2941077,0,0,0,0,0,-1.628078,0,0,-0.2955048,0.1115241,3.629978,0,-0.2955048,-0.05218199,-0.08841147,0,0,0,0,0,-0.5726442,0,0,9.2973,-5.8723,0,91.8265,-18.79832,1,0,0,0,0,-8.1735,0,0,66,0,0,17,2,229
1.473763,187.1131,-37.67149,-8.142212,210.6974,1,0,0,0,0,-1.177747,-1.040543,10.47085,0,-0.7788277,-0.9142782,-0.3643037,0,0,0,0,0,-1.924724,0,0,-0.2636263,0.2799857,5.690518,0,-0.2955048,0.1115241,-0.3439238,0,0,0,0,0,-0.1083247,0,0,10.27593,-5.93059,0,91.8265,-19.26349,1,0,0,0,0,-9.895372,0,0,66,0,0,18,2,229
16.69667,133.0111,-50.8988,1.473763,187.1131,1,0,0,0,0,-1.166517,-1.401806,11.44103,0,-1.177747,-1.040543,-0.3951131,0,0,0,0,0,-2.274738,0,0,-0.2868011,0.6135477,9.898463,0,-0.2636263,0.2799857,-0.4853207,0,0,0,0,0,0.4152924,0,0,12.2595,-6.03303,0,90.10463,-19.45471,1,0,0,0,0,-11.24142,0,0,66,0,0,19,2,229
27.05863,87.11514,-68.44775,16.69667,133.0111,1,0,0,0,0,-0.9905214,-1.825487,12.21158,0,-0.9905214,-1.401806,-0.4459073,0,0,0,0,0,-2.892218,0,0,0.7243953,0.8388401,12.22659,0,0.7243953,0.6135477,-0.7884759,0,0,0,0,0,2.781161,0,0,14.27543,-6.122642,0,86.88535,-19.79075,1,0,0,0,0,-13.11465,0,0,66,0,0,20,2,229
30.82761,70.0009,-74.46776,27.05863,87.11514,1,0,0,0,0,-1.305854,-2.042335,12.5907,0,-1.305854,-1.825487,-0.495459,0,0,0,0,0,-3.770971,0,0,0.6780453,0.9086614,12.43039,0,0.6780453,0.8388401,-0.816319,0,0,0,0,0,3.353553,0,0,15.29466,-6.167822,0,84.5619,-20.08471,1,0,0,0,0,-15.4381,0,0,66,0,0,21,2,229
36.41562,46.32959,-77.0193,30.82761,70.0009,1,0,0,0,0,-1.632418,-2.431907,13.32428,0,-1.305854,-2.042335,-0.5197086,0,0,0,0,0,-4.174092,0,0,0.654871,0.9536952,10.69753,0,0.6780453,0.9086614,-0.8168497,0,0,0,0,0,3.551587,0,0,17.35936,-6.277949,0,84.5619,-20.23293,1,0,0,0,0,-16.4155,0,0,66,0,0,22,2,229
38.5212,39.07669,-78.23565,36.41562,46.32959,-1,0,0,0,0,-1.693542,-2.587474,13.59864,0,-1.632418,-2.431907,-0.567826,0,0,0,0,0,-4.992684,0,0,0.686749,0.9345949,8.544607,0,0.654871,0.9536952,-0.6487395,0,0,0,0,0,3.646015,0,0,18.40892,-6.349374,0,83.5845,-20.59418,1,0,0,0,0,-18.50602,0,0,66,0,0,23,2,229
42.08868,33.05445,-77.52685,38.5212,39.07669,-1,0,0,0,0,-1.682314,-2.792644,13.87395,0,-1.682314,-2.587474,-0.5858439,0,0,0,0,0,-5.296303,0,0,0.6635747,0.8054476,2.145425,0,0.6635747,0.9345949,-0.4514401,0,0,0,0,0,3.604348,0,0,20.55169,-6.532169,0,80.14793,-20.82849,1,0,0,0,0,-19.85206,0,0,66,0,0,24,2,229
46.47295,84.91994,-77.03096,42.08868,33.05445,-1,0,0,0,0,-1.74344,-2.647455,13.70233,0,-1.74344,-2.792644,-0.6066491,0,0,0,0,0,-5.69538,0,0,0.6954527,0.602879,-1.526698,0,0.6954527,0.8054476,0.1047357,0,0,0,0,0,3.283857,0,0,21.65121,-6.654705,0,78.05742,-21.42813,1,0,0,0,0,-21.94258,0,0,66,0,0,25,2,229
63.3871,189.548,-76.42776,46.47295,84.91994,1,0,0,0,0,-2.563737,-2.170225,13.37544,0,-1.74344,-2.647455,-0.5929618,0,0,0,0,0,-5.425473,0,0,0.8055587,0.2103042,-8.681579,0,0.6954527,0.602879,0.3897128,0,0,0,0,0,2.709311,0,0,23.90294,-6.86925,0,78.05742,-21.8301,1,0,0,0,0,-22.69423,0,0,66,0,0,26,2,229
90.46844,281.5675,-80.52512,63.3871,189.548,1,0,0,0,0,-2.723128,-1.547971,13.85178,0,-2.563737,-2.170225,-0.5626752,0,0,0,0,0,-4.775369,0,0,0.6259279,0.01554567,-13.45157,0,0.8055587,0.2103042,0.96008,0,0,0,0,0,1.754074,0,0,26.21121,-7.028344,0,77.30577,-22.53389,1,0,0,0,0,-24.87479,0,0,66,0,0,27,2,229
104.1657,258.9014,-118.1519,90.46844,281.5675,1,0,0,0,0,-3.194403,-1.497928,13.77881,0,-3.194403,-1.547971,-0.5430098,0,0,0,0,0,-3.800861,0,0,0.7128601,-0.07051137,-14.11166,0,0.7128601,0.01554567,1,0,0,0,0,0,1.068472,0,0,27.38806,-7.134255,0,72.65887,-23.05578,1,0,0,0,0,-27.34113,0,0,66,0,0,28,2,229
116.9418,239.1366,-139.1752,104.1657,258.9014,1,0,0,0,0,-3.183172,-1.414694,13.30703,0,-3.183172,-1.497928,-0.5419851,0,0,0,0,0,-3.704584,0,0,0.6896849,-0.1241085,-13.94906,0,0.6896849,-0.07051137,1,0,0,0,0,0,0.7910858,0,0,28.5802,-7.228248,0,71.31282,-23.40321,1,0,0,0,0,-28.68718,0,0,66,0,0,29,2,229
139.8864,205.9431,-157.5341,116.9418,239.1366,1,0,0,0,0,-2.917737,-1.324443,11.33254,0,-3.183172,-1.414694,-0.5225634,0,0,0,0,0,-3.549854,0,0,0.7447386,-0.2394994,-10.43685,0,0.6896849,-0.1241085,1,0,0,0,0,0,0.6390682,0,0,30.99888,-7.360428,0,71.31282,-23.71154,1,0,0,0,0,-29.80029,0,0,66,0,0,30,2,229
150.0194,190.4931,-173.6455,139.8864,205.9431,1,0,0,0,0,-2.641069,-1.303877,9.890736,0,-2.917737,-1.324443,-0.4537751,0,0,0,0,0,-3.305366,0,0,0.7766171,-0.3089663,-7.535158,0,0.7447386,-0.2394994,0.9961528,0,0,0,0,0,0.3908973,0,0,32.21886,-7.398963,0,70.19971,-24.14515,1,0,0,0,0,-32.25944,0,0,66,0,0,31,2,229
159.2537,175.9623,-199.8871,150.0194,190.4931,1,0,0,0,0,-2.967632,-1.294834,8.198583,0,-2.967632,-1.303877,-0.4054153,0,0,0,0,0,-3.281554,0,0,0.7534418,-0.4136205,-4.046537,0,0.7534418,-0.3089663,0.7152849,0,0,0,0,0,0.2063748,0,0,33.44241,-7.421879,0,66.76315,-24.27156,1,0,0,0,0,-33.23685,0,0,66,0,0,32,2,229
167.591,161.7538,-210.9285,159.2537,175.9623,1,0,0,0,0,-3.450136,-1.287944,6.298198,0,-3.450136,-1.294834,-0.3596858,0,0,0,0,0,-3.404186,0,0,0.8635483,-0.5637771,-0.04993907,0,0.8635483,-0.4136205,0.378516,0,0,0,0,0,0.06776702,0,0,34.66753,-7.432654,0,65.64286,-24.34673,1,0,0,0,0,-34.35714,0,0,66,0,0,33,2,229
181.5897,133.0817,-220.5508,167.591,161.7538,1,0,0,0,0,-3.537172,-1.20689,2.202321,0,-3.450136,-1.287944,-0.3003768,0,0,0,0,0,-3.391377,0,0,0.6288643,-1.008532,9.166027,0,0.8635483,-0.5637771,-0.02835285,0,0,0,0,0,-0.3581222,0,0,37.12253,-7.452995,0,65.64286,-24.38208,1,0,0,0,0,-35.79323,0,0,66,0,0,34,2,229
187.2833,118.3038,-228.9753,-178.4103,133.0817,-1,0,0,0,0,-3.260506,-1.128167,0.1690495,0,-3.537172,-1.20689,-0.1695134,0,0,0,0,0,-3.265852,0,0,0.6607428,-1.270373,13.82233,0,0.6288643,-1.008532,-1,0,0,0,0,0,-1.956822,0,0,38.35122,-7.460327,0,64.20677,-24.4488,1,0,0,0,0,-38.25238,0,0,66,0,0,35,2,229
192.1412,103.0394,-172.6992,-172.7167,118.3038,-1,0,0,0,0,-3.249275,-1.022055,-1.750073,0,-3.249275,-1.128167,-0.09946652,0,0,0,0,0,-3.036302,0,0,0.6375685,-1.547945,17.89182,0,0.6375685,-1.270373,-1,0,0,0,0,0,-2.686973,0,0,39.58008,-7.464396,0,60.40157,-24.47286,1,0,0,0,0,-39.59843,0,0,66,0,0,36,2,229
202.4945,135.9145,-148.3806,-167.8588,103.0394,-1,0,0,0,0,-3.731779,-0.8765778,-6.171153,0,-3.731779,-1.022055,-0.03808073,0,0,0,0,0,-2.978484,0,0,0.7476749,-1.954023,23.00665,0,0.7476749,-1.547945,-1,0,0,0,0,0,-3.316026,0,0,42.04788,-7.55013,0,59.28127,-24.48621,1,0,0,0,0,-40.71873,0,0,66,0,0,37,2,229
210.7877,177.3603,-125.678,-157.5055,135.9145,-1,0,0,0,0,-4.030025,-0.8454843,-9.576538,0,-3.731779,-0.8765778,0.1073564,0,0,0,0,0,-2.708042,0,0,-0.1997652,-2.088439,22.39415,0,0.7476749,-1.954023,-1,0,0,0,0,0,-4.467786,0,0,43.29901,-7.604283,0,59.28127,-24.76745,1,0,0,0,0,-43.02652,0,0,66,0,0,38,2,229
233.1507,246.1705,-109.0721,-149.2123,177.3603,-1,0,0,0,0,-4.117062,-0.7904183,-17.15708,0,-4.030025,-0.8454843,0.2120433,0,0,0,0,0,-2.736433,0,0,-0.4344482,-2.398824,14.67732,0,-0.1997652,-2.088439,-1,0,0,0,0,0,-6.210503,0,0,45.80864,-7.635091,0,56.97348,-24.94509,1,0,0,0,0,-44.46261,0,0,66,0,0,39,2,229
263.7197,305.278,-97.01332,-126.8493,246.1705,-1,0,0,0,0,-3.840395,-0.8403465,-21.35482,0,-3.840395,-0.7904183,0.4494336,0,0,0,0,0,-2.579262,0,0,-0.4025707,-2.712109,-1.471629,0,-0.4025707,-2.398824,-1,0,0,0,0,0,-7.382279,0,0,48.30781,-7.60827,0,53.07824,-25.04615,1,0,0,0,0,-46.92176,0,0,66,0,0,40,2,229
298.7652,358.0357,-95.69007,-96.28027,305.278,1,0,0,0,0,-3.973875,-1.049372,-16.6177,0,-3.973875,-0.8403465,0.5779693,0,0,0,0,0,-2.710654,0,0,-0.3156395,-3.13624,-20.80563,0,-0.3156395,-2.712109,-0.6140355,0,0,0,0,0,-8.145928,0,0,50.68529,-7.481976,0,50.24326,-24.95817,1,0,0,0,0,-49.75674,0,0,66,0,0,41,2,229
334.8539,410.5011,-102.3662,-61.23483,358.0357,1,0,0,0,0,-3.624853,-1.28595,-1.03521,0,-3.973875,-1.049372,0.4190725,0,0,0,0,0,-3.099232,0,0,-0.3388138,-3.784033,-35.58768,0,-0.3156395,-3.13624,1,0,0,0,0,0,-9.348892,0,0,53.00303,-7.222665,0,50.24326,-24.54387,1,0,0,0,0,-51.47143,0,0,66,0,0,42,2,229
351.2256,383.493,-116.3492,-25.14615,410.5011,1,0,0,0,0,-4.275574,-1.322039,8.588376,0,-3.624853,-1.28595,-0.07449158,0,0,0,0,0,-3.438164,0,0,-1.575991,-3.998393,-38.66276,0,-0.3388138,-3.784033,1,0,0,0,0,0,-10,0,0,54.15848,-7.189409,0,48.52857,-23.69323,1,0,0,0,0,-54.1022,0,0,66,0,0,43,2,229
22.0068,327.7366,-154.9191,-8.774384,383.493,1,0,0,0,0,-4.347929,-1.432638,25.86685,0,-4.347929,-1.322039,-0.3807323,0,0,0,0,0,-3.714221,0,0,-1.520937,-4.476185,-35.04916,0,-1.520937,-3.998393,1,0,0,0,0,0,-10,0,0,56.48611,-7.213245,0,45.15334,-23.58414,1,0,0,0,0,-54.84666,0,0,66,0,0,44,2,229
37.88255,304.8735,-171.0379,22.0068,327.7366,1,0,0,0,0,-4.071262,-1.450792,32.13389,0,-4.071262,-1.432638,-0.9209082,0,0,0,0,0,-3.839869,0,0,-1.489059,-4.714073,-27.62135,0,-1.489059,-4.476185,1,0,0,0,0,0,-10,0,0,57.66259,-7.229486,0,42.69418,-23.66233,1,0,0,0,0,-57.30582,0,0,66,0,0,45,2,229
70.88465,265.906,-183.8772,37.88255,304.8735,1,0,0,0,0,-4.397825,-1.599705,37.76514,0,-4.071262,-1.450792,-1,0,0,0,0,0,-3.873617,0,0,-1.512234,-5.195368,-5.404009,0,-1.489059,-4.714073,1,0,0,0,0,0,-10,0,0,60.01246,-7.181859,0,42.69418,-23.7156,1,0,0,0,0,-58.28323,0,0,66,0,0,46,2,229
100.5042,232.4203,-195.0637,70.88465,265.906,1,0,0,0,0,-4.358278,-1.932692,34.00787,0,-4.397825,-1.599705,-1,0,0,0,0,0,-4.244823,0,0,-2.459673,-5.671613,18.78289,0,-1.512234,-5.195368,-0.4228312,0,0,0,0,0,-10,0,0,62.31885,-6.992332,0,41.71677,-23.55937,1,0,0,0,0,-60.95966,0,0,66,0,0,47,2,229
112.2188,215.6913,-214.2627,100.5042,232.4203,1,0,0,0,0,-4.081612,-2.163157,29.60064,0,-4.081612,-1.932692,-1,0,0,0,0,0,-4.77246,0,0,-2.427794,-5.94864,29.23306,0,-2.427794,-5.671613,-1,0,0,0,0,0,-10,0,0,63.43333,-6.805513,0,36.58119,-22.93765,1,0,0,0,0,-63.41881,0,0,66,0,0,48,2,229
121.7965,198.3164,-222.4977,112.2188,215.6913,1,0,0,0,0,-4.743563,-2.422353,24.36494,0,-4.743563,-2.163157,-1,0,0,0,0,0,-5.392199,0,0,-3.641796,-6.268219,38.40115,0,-3.641796,-5.94864,-1,0,0,0,0,0,-10,0,0,64.50522,-6.546704,0,35.29646,-22.3248,1,0,0,0,0,-64.70354,0,0,66,0,0,49,2,229
135.5669,158.4253,-229.6549,121.7965,198.3164,1,0,0,0,0,-5.070122,-2.775694,13.38619,0,-4.743563,-2.422353,-0.9374084,0,0,0,0,0,-5.874043,0,0,-3.664972,-6.946752,48.37201,0,-3.641796,-6.268219,-1,0,0,0,0,0,-10,0,0,66.5379,-6.079852,0,35.29646,-21.47581,1,0,0,0,0,-65.68094,0,0,66,0,0,50,2,229
140.4613,139.6697,-235.5717,135.5669,158.4253,1,0,0,0,0,-4.859957,-2.961031,8.235974,0,-5.070122,-2.775694,-0.6203555,0,0,0,0,0,-6.62528,0,0,-4.455954,-7.321685,50.15622,0,-3.664972,-6.946752,-1,0,0,0,0,0,-10,0,0,67.47547,-5.74249,0,34.31906,-19.94435,1,0,0,0,0,-67.52286,0,0,66,0,0,51,2,229
144.456,123.263,-240.755,140.4613,139.6697,1,0,0,0,0,-5.18652,-3.119649,3.461429,0,-5.18652,-2.961031,-0.4694968,0,0,0,0,0,-7.003461,0,0,-4.47913,-7.695686,50.44921,0,-4.47913,-7.321685,-1,0,0,0,0,0,-10,0,0,68.35696,-5.408891,0,31.49973,-18.83767,1,0,0,0,0,-68.50027,0,0,66,0,0,52,2,229
147.8005,109.8435,-242.4397,144.456,123.263,1,0,0,0,0,-5.184113,-3.256737,-0.9539875,0,-5.184113,-3.119649,-0.333531,0,0,0,0,0,-7.297636,0,0,-5.669956,-8.05297,49.52763,0,-5.669956,-7.695686,-1,0,0,0,0,0,-10,0,0,69.18612,-5.099939,0,30.82377,-17.74333,1,0,0,0,0,-69.17623,0,0,66,0,0,53,2,229
150.8049,100.0986,-242.9596,147.8005,109.8435,-1,0,0,0,0,-5.100525,-3.361239,-5.02184,0,-5.184113,-3.256737,-0.2045534,0,0,0,0,0,-7.552484,0,0,-5.748184,-8.397496,47.54824,0,-5.669956,-8.05297,-1,0,0,0,0,0,-10,0,0,69.97032,-4.833978,0,30.82377,-16.72984,1,0,0,0,0,-69.77781,0,0,66,0,0,54,2,229
156.75,91.56413,-242.8201,150.8049,100.0986,-1,0,0,0,0,-5.681297,-3.56376,-12.33881,0,-5.100525,-3.361239,-0.0837234,0,0,0,0,0,-7.722594,0,0,-5.849586,-9.024527,40.79479,0,-5.748184,-8.397496,-1,0,0,0,0,0,-10,0,0,71.44241,-4.471198,0,30.22219,-15.85738,1,0,0,0,0,-70.98814,0,0,66,0,0,55,2,229
162.3654,148.1684,-241.4431,156.75,91.56413,-1,0,0,0,0,-6.400921,-3.699268,-17.46263,0,-6.400921,-3.56376,0.1262286,0,0,0,0,0,-8.474895,0,0,-6.718798,-9.11757,35.01099,0,-6.718798,-9.024527,-1,0,0,0,0,0,-10,0,0,72.17794,-4.541515,0,27.67428,-14.66732,1,0,0,0,0,-72.32572,0,0,66,0,0,56,2,229
184.2499,262.107,-240.7918,162.3654,148.1684,1,0,0,0,0,-6.046043,-4.161494,-29.73159,0,-6.046043,-3.699268,0.2739899,0,0,0,0,0,-8.624245,0,0,-7.619888,-9.151418,14.76519,0,-7.619888,-9.11757,-1,0,0,0,0,0,-10,0,0,73.70161,-4.744407,0,27.32129,-14.89799,1,0,0,0,0,-72.67871,0,0,66,0,0,57,2,229
223.6504,364.4537,-245.5138,-175.7501,262.107,-1,0,0,0,0,-6.782753,-4.973134,-33.04851,0,-6.046043,-4.161494,0.6276899,0,0,0,0,0,-9.483524,0,0,-7.588011,-9.053498,-19.82582,0,-7.619888,-9.151418,-1,0,0,0,0,0,-10,0,0,75.26177,-4.858961,0,27.32129,-15.56355,1,0,0,0,0,-74.03194,0,0,66,0,0,58,2,229
255.7704,300.2141,-225.821,-136.3496,364.4537,-1,0,0,0,0,-7.416389,-5.507958,-21.40726,0,-6.782753,-4.973134,0.7145037,0,0,0,0,0,-10,0,0,-9.726278,-9.351957,-47.2462,0,-7.588011,-9.053498,0.9039754,0,0,0,0,0,-10,0,0,76.75149,-4.722709,0,25.96806,-15.93934,1,0,0,0,0,-76.64705,0,0,66,0,0,59,2,229
269.0093,335.4352,-213.8887,-104.2296,300.2141,-1,0,0,0,0,-7.405155,-6.015557,-10.68358,0,-7.405155,-5.507958,0.3536251,0,0,0,0,0,-10,0,0,-9.749451,-9.402302,-57.22814,0,-9.749451,-9.351957,1,0,0,0,0,0,-10,0,0,77.44552,-4.381548,0.001877932,22.0069,-15.49237,1,0,0,0,0,-77.9931,0,0,66,0,0,60,2,229
292.6583,382.8266,-207.7315,-90.99066,335.4352,-1,0,0,0,0,-7.798222,-6.545865,18.46277,0,-7.798222,-6.015557,0.02119096,0,0,0,0,0,-10,0,0,-10.59549,-9.620757,-66.64912,0,-10.59549,-9.402302,1,0,0,0,0,0,-10,0,0,78.62991,-3.548498,0.01115096,21.64673,-14.37323,1,0,0,0,0,-78.35327,0,0,66,0,0,61,2,229
324.5321,408.5478,-206.4982,-67.34174,382.8266,1,0,0,0,0,-8.797962,-6.575595,50.24318,0,-7.798222,-6.545865,-0.8823458,0,0,0,0,0,-10,0,0,-11.80949,-9.846928,-53.03178,0,-10.59549,-9.620757,1,0,0,0,0,0,-10,0,0,79.53813,-2.651172,0.02034511,21.64673,-11.64049,1,0,0,0,0,-79.26936,0,0,66,0,0,62,2,229
40.65398,431.1281,-211.5686,-35.46786,408.5478,1,0,0,0,0,-8.359497,-6.58153,60.82091,0,-8.797962,-6.575595,-1,0,0,0,0,0,-10,0,0,-12.78881,-9.926148,13.04521,0,-11.80949,-9.846928,1,0,0,0,0,0,-10,0,0,80.19835,-1.977735,0.0245857,20.73064,-8.696906,1,0,0,0,0,-80.22392,0,0,66,0,0,63,2,229
84.54983,364.0446,-239.9228,40.65398,431.1281,1,0,0,0,0,-10.44498,-7.27494,35.02539,0,-10.44498,-6.58153,-1,0,0,0,0,0,-10,0,0,-13.94776,-9.79229,51.35652,0,-13.94776,-9.926148,-1,0,0,0,0,0,-10,0,0,80.6988,-1.495204,0.03647069,19.22145,-6.487761,1,0,0,0,0,-80.77855,0,0,66,0,0,64,2,229
93.57876,328.9276,-256.508,84.54983,364.0446,1,0,0,0,0,-10.3443,-7.723704,20.5688,0,-10.3443,-7.27494,-1,0,0,0,0,0,-10,0,0,-14.92707,-9.780368,59.26143,0,-14.92707,-9.79229,-1,0,0,0,0,0,-10,0,0,80.86497,-1.105306,0.04543591,18.63553,-4.904868,1,0,0,0,0,-81.36447,0,0,66,0,0,65,2,229
105.0459,281.1281,-270.1185,93.57876,328.9276,1,0,0,0,0,-10.75445,-8.51411,-6.405089,0,-10.3443,-7.723704,-0.9476328,0,0,0,0,0,-10,0,0,-14.87202,-9.973917,63.59156,0,-14.92707,-9.780368,-1,0,0,0,0,0,-10,0,0,81.06557,-0.5053585,0.05515605,18.63553,-3.625844,1,0,0,0,0,-81.7403,0,0,66,0,0,66,2,229
120.3089,259.1924,-280.2814,105.0459,281.1281,1,0,0,0,0,-11.73951,-9.44504,-39.97865,0,-10.75445,-8.51411,-0.1114422,0,0,0,0,0,-10,0,0,-15.79629,-10.23748,54.32613,0,-14.87202,-9.973917,-1,0,0,0,0,0,-10,0,0,80.9403,0.5397001,0.06206899,18.2597,-1.657778,1,0,0,0,0,-81.96477,0,0,66,0,0,67,2,229
153.5535,258.7425,-291.7691,120.3089,259.1924,1,0,0,0,0,-12.72458,-10.29927,-64.3131,0,-12.72458,-9.44504,0.929338,0,0,0,0,0,-10,0,0,-16.72055,-10.29595,19.30672,0,-16.72055,-10.23748,-1,0,0,0,0,0,-10,0,0,80.50019,1.329752,0.07059931,17.81077,1.770432,1,0,0,0,0,-82.18923,0,0,66,0,0,68,2,229
220.3008,254.4435,-296.493,153.5535,258.7425,1,0,0,0,0,-14.31047,-11.26666,-62.68729,0,-14.31047,-10.29927,1,0,0,0,0,0,-10,0,0,-18.8907,-10.18508,-53.58356,0,-18.8907,-10.29595,-1,0,0,0,0,0,-10,0,0,79.82955,2.05086,0.07481007,18.39209,4.36212,1,0,0,0,0,-81.60791,0,0,66,0,0,69,2,229
243.7632,232.671,-304.1481,-139.6992,254.4435,-1,0,0,0,0,-15.56097,-12.33492,-40.49189,0,-14.31047,-11.26666,1,0,0,0,0,0,-10,0,0,-19.87001,-9.949187,-84.30247,0,-18.8907,-10.18508,1,0,0,0,0,0,-10,0,0,78.90964,2.837417,0.07221225,18.39209,6.727641,1,0,0,0,0,-80.71927,0,0,66,0,0,70,2,229
247.1646,205.8575,-281.5376,-116.2368,232.671,-1,0,0,0,0,-16.90973,-12.79955,-25.54764,0,-15.56097,-12.33492,0.9452485,0,0,0,0,0,-10,0,0,-21.06084,-9.865215,-94.40024,0,-19.87001,-9.949187,1,0,0,0,0,0,-10,0,0,78.11152,3.521651,0.0680638,19.28073,9.307864,1,0,0,0,0,-79.92067,0,0,66,0,0,71,2,229
246.2883,273.5189,-241.8735,-112.8354,205.8575,-1,0,0,0,0,-17.92311,-13.03521,-6.031583,0,-17.92311,-12.79955,0.4819768,0,0,0,0,0,-10,0,0,-21.06084,-9.767801,-100.4852,0,-21.06084,-9.865215,1,0,0,0,0,0,-10,0,0,77.04958,4.446493,0.04076261,21.18526,11.55242,1,0,0,0,0,-78.81474,0,0,66,0,0,72,2,229
236.3811,320.0091,-224.046,-113.7117,273.5189,-1,0,0,0,0,-18.76346,-13.20962,29.483,0,-18.76346,-13.03521,-0.1230209,0,0,0,0,0,-10,0,0,-22.09521,-9.694717,-107.8877,0,-22.09521,-9.767801,1,0,0,0,0,0,-10,0,0,74.94772,5.688628,0.02094055,22.44972,14.58628,1,0,0,0,0,-77.55028,0,0,66,0,0,73,2,229
203.9986,305.1477,-213.6688,-123.6189,320.0091,-1,0,0,0,0,-20.09755,-13.26142,59.59151,0,-18.76346,-13.20962,-1,0,0,0,0,0,-10,0,0,-22.9963,-9.346186,-131.1212,0,-22.09521,-9.694717,1,0,0,0,0,0,-10,0,0,72.46608,6.560309,0,22.44972,18.66097,1,0,0,0,0,-76.06006,0,0,66,0,0,74,2,229
134.9889,270.3824,-207.3032,-156.0014,305.1477,-1,0,0,0,0,-21.38519,-13.40425,62.13163,0,-20.09755,-13.26142,-1,0,0,0,0,0,-10,0,0,-24.21901,-8.686193,173.3891,0,-22.9963,-9.346186,1,0,0,0,0,0,-10,0,0,69.84359,7.566201,0,23.93994,21.52044,1,0,0,0,0,-73.17094,0,0,66,0,0,75,2,229
99.87503,236.7952,-213.5881,134.9889,270.3824,1,0,0,0,0,-23.39487,-13.59207,42.61835,0,-23.39487,-13.40425,-1,0,0,0,0,0,-10,0,0,-25.1201,-7.86068,153.2574,0,-25.1201,-8.686193,-1,0,0,0,0,0,-10,0,0,66.82472,8.904989,0,29.05655,24.82017,1,0,0,0,0,-70.94345,0,0,66,0,0,76,2,229
87.93414,218.6232,-228.5707,99.87503,236.7952,1,0,0,0,0,-24.74018,-13.45168,27.04266,0,-24.74018,-13.59207,-1,0,0,0,0,0,-10,0,0,-25.99801,-7.425564,153.1178,0,-25.99801,-7.86068,-1,0,0,0,0,0,-10,0,0,64.45444,9.972097,0,31.89281,29.21193,1,0,0,0,0,-68.10719,0,0,66,0,0,77,2,229
79.87389,158.7375,-235.6935,87.93414,218.6232,1,0,0,0,0,-24.84382,-12.79909,12.86517,0,-24.74018,-13.45168,-1,0,0,0,0,0,-10,0,0,-27.06426,-7.430389,155.3849,0,-25.99801,-7.425564,-1,0,0,0,0,0,-10,0,0,61.77289,10.69103,0,31.89281,32.71247,1,0,0,0,0,-65.48949,0,0,66,0,0,78,2,229
76.28345,88.95773,-239.3686,79.87389,158.7375,-1,0,0,0,0,-26.46043,-11.78752,-0.886696,0,-24.84382,-12.79909,-0.7088203,0,0,0,0,0,-10,0,0,-27.11931,-7.530809,159.3519,0,-27.06426,-7.430389,-1,0,0,0,0,0,-10,0,0,58.63877,11.38148,0,34.51051,35.07087,1,0,0,0,0,-62.90181,0,0,66,0,0,79,2,229
81.92801,-34.01907,-228.5424,76.28345,88.95773,-1,0,0,0,0,-27.23965,-10.07242,-19.92272,0,-27.23965,-11.78752,-0.2825124,0,0,0,0,0,-10,0,0,-28.18556,-7.78891,164.8415,0,-28.18556,-7.530809,-1,0,0,0,0,0,-10,0,0,53.45744,11.74356,0,40.45318,37.3358,1,0,0,0,0,-59.54682,0,0,66,0,0,80,2,229
87.21255,-4.624428,-220.9452,81.92801,-34.01907,-1,0,0,0,0,-29.11584,-9.577908,-32.93602,0,-29.11584,-10.07242,0.3076043,0,0,0,0,0,-10,0,0,-29.17358,-7.837757,165.2319,0,-29.17358,-7.78891,-1,0,0,0,0,0,-10,0,0,50.09884,11.64686,0,45.51566,38.52358,1,0,0,0,0,-54.48434,0,0,66,0,0,81,2,229
92.51499,27.45911,-204.2169,87.21255,-4.624428,-1,0,0,0,0,-29.89507,-9.160286,-52.46011,0,-29.11584,-9.577908,0.7110166,0,0,0,0,0,-10,0,0,-30.23983,-7.883199,161.3014,0,-29.17358,-7.837757,-1,0,0,0,0,0,-10,0,0,45.54952,11.79238,0,45.51566,38.20638,1,0,0,0,0,-51.12936,0,0,66,0,0,82,2,229
96.14858,48.14812,-192.1864,92.51499,27.45911,-1,0,0,0,0,-30.60435,-9.059721,-65.26117,0,-29.89507,-9.160286,1,0,0,0,0,0,-10,0,0,-30.17031,-8.131383,155.6797,0,-30.23983,-7.883199,-1,0,0,0,0,0,-10,0,0,42.74611,12.1194,0,48.87064,38.68372,1,0,0,0,0,-46.35394,0,0,66,0,0,83,2,229
96.14858,48.14812,-179.9224,96.14858,48.14812,-1,0,0,0,0,-31.29999,-9.059721,-65.26117,0,-31.29999,-9.059721,1,0,0,0,0,0,-10,0,0,-31.31478,-8.131383,155.6797,0,-31.31478,-8.131383,-1,0,0,0,0,0,-10,0,0,42.74611,12.1194,0,56.39946,39.75648,1,0,0,0,0,-43.60054,0,0,66,0,0,84,2,229
127.7703,86.97347,-175.6991,96.14858,48.14812,-1,0,0,0,0,-31.29999,-9.110334,-85.54868,0,-31.29999,-9.059721,1,0,0,0,0,0,-10,0,0,-31.31478,-8.893286,120.9152,0,-31.31478,-8.131383,-1,0,0,0,0,0,-10,0,0,38.51134,12.75269,0,56.39946,39.75648,1,0,0,0,0,-43.60054,0,0,66,0,0,85,2,229
263.6371,144.2977,-171.8856,127.7703,86.97347,1,0,0,0,0,-31.90859,-9.743678,-61.47186,0,-31.29999,-9.110334,1,0,0,0,0,0,-10,0,0,-32.22458,-10.90417,-37.95315,0,-31.31478,-8.893286,-1,0,0,0,0,0,-10,0,0,32.47324,13.2271,0,56.39946,41.83394,1,0,0,0,0,-39.41104,0,0,66,0,0,86,2,229
263.4992,162.6643,-174.8053,-96.36285,144.2977,-1,0,0,0,0,-33.40054,-10.29551,-45.0716,0,-31.90859,-9.743678,1,0,0,0,0,0,-10,0,0,-33.53422,-11.84075,-46.8402,0,-32.22458,-10.90417,1,0,0,0,0,0,-10,0,0,29.45264,13.14249,0,60.58896,43.39019,1,0,0,0,0,-33.31831,0,0,66,0,0,87,2,229
255.833,156.2271,-148.3982,-96.50079,162.6643,-1,0,0,0,0,-33.89965,-11.56325,-11.62367,0,-33.89965,-10.29551,1,0,0,0,0,0,-10,0,0,-34.25568,-12.87652,-63.32865,0,-34.25568,-11.84075,1,0,0,0,0,0,-10,0,0,23.67599,12.76642,0,69.61519,43.11261,1,0,0,0,0,-30.38481,0,0,66,0,0,88,2,229
249.7192,146.8407,-137.8764,-104.167,156.2271,-1,0,0,0,0,-35.3916,-12.11373,3.884527,0,-35.3916,-11.56325,0.05033391,0,0,0,0,0,-10,0,0,-35.56532,-13.01163,-71.12318,0,-35.56532,-12.87652,1,0,0,0,0,0,-10,0,0,20.53841,12.56748,0,75.70792,41.87897,1,0,0,0,0,-24.29208,0,0,66,0,0,89,2,229
246.617,118.9831,-127.0955,-110.2808,146.8407,-1,0,0,0,0,-36.24319,-12.00002,15.3802,0,-35.3916,-12.11373,-0.4304203,0,0,0,0,0,-10,0,0,-36.57651,-12.82678,-77.14544,0,-35.56532,-13.01163,1,0,0,0,0,0,-10,0,0,16.91437,12.82938,0,75.70792,41.22636,1,0,0,0,0,-21.68156,0,0,66,0,0,90,2,229
238.7457,60.88127,-115.9847,-113.383,118.9831,-1,0,0,0,0,-37.24485,-13.62209,26.85559,0,-36.24319,-12.00002,-0.7867861,0,0,0,0,0,-10,0,0,-38.33234,-12.06373,-80.9659,0,-36.57651,-12.82678,1,0,0,0,0,0,-10,0,0,11.62088,12.54648,0,78.31844,42.08549,1,0,0,0,0,-17.85224,0,0,66,0,0,91,2,229
231.4017,16.17664,-86.17694,-121.2543,60.88127,-1,0,0,0,0,-38.80916,-15.20027,30.15178,0,-38.80916,-13.62209,-1,0,0,0,0,0,-10,0,0,-39.58692,-11.12933,-78.74547,0,-39.58692,-12.06373,1,0,0,0,0,0,-10,0,0,8.261333,12.21403,0,87.49603,41.15747,1,0,0,0,0,-12.50397,0,0,66,0,0,92,2,229
223.7565,-31.07685,-70.76016,-128.5983,16.17664,-1,0,0,0,0,-40.15448,-16.9658,29.81189,0,-40.15448,-15.20027,-1,0,0,0,0,0,-10,0,0,-40.46484,-9.819401,-73.28831,0,-40.46484,-11.12933,1,0,0,0,0,0,-10,0,0,5.08612,11.6689,0,90.33229,40.06691,1,0,0,0,0,-9.667707,0,0,66,0,0,93,2,229
213.5714,-95.55121,-52.35382,-136.2435,-31.07685,-1,0,0,0,0,-41.36976,-19.98066,22.70973,0,-40.15448,-16.9658,-1,0,0,0,0,0,-10,0,0,-41.7426,-6.791203,-59.66306,0,-40.46484,-9.819401,1,0,0,0,0,0,-10,0,0,0.1511587,9.947143,0,90.33229,38.27865,1,0,0,0,0,-6.034126,0,0,66,0,0,94,2,229
213.5714,-95.55121,-31.01113,-146.4286,-95.55121,-1,0,0,0,0,-43.99389,-19.98066,22.70973,0,-41.36976,-19.98066,-1,0,0,0,0,0,-10,0,0,-42.67556,-6.791203,-59.66306,0,-41.7426,-6.791203,1,0,0,0,0,0,-10,0,0,0.1511587,9.947143,0,93.96587,32.63061,1,0,0,0,0,-0.9788303,0,0,66,0,0,95,2,229
213.5714,-95.55121,0,-146.4286,-95.55121,-1,0,0,0,0,-43.99389,-19.98066,22.70973,0,-43.99389,-19.98066,-1,0,0,0,0,0,-10,0,0,-42.67556,-6.791203,-59.66306,0,-42.67556,-6.791203,1,0,0,0,0,0,-10,0,0,0.1511587,9.947143,0,99.02117,32.63061,1,0,0,0,0,-0.9788303,0,0,66,0,0,96,2,229
213.5714,-95.55121,0,-146.4286,-95.55121,-1,0,0,0,0,-43.99389,-19.98066,22.70973,0,-43.99389,-19.98066,-1,0,0,0,0,0,-10,0,0,-42.67556,-6.791203,-59.66306,0,-42.67556,-6.791203,1,0,0,0,0,0,-10,0,0,0.1511587,9.947143,0,99.02117,32.63061,1,0,0,0,0,-0.9788303,0,0,66,0,0,97,2,229
213.5714,-95.55121,0,-146.4286,-95.55121,-1,0,0,0,0,-43.99389,-19.98066,22.70973,0,-43.99389,-19.98066,-1,0,0,0,0,0,-10,0,0,-42.67556,-6.791203,-59.66306,0,-42.67556,-6.791203,1,0,0,0,0,0,-10,0,0,0.1511587,9.947143,0,99.02117,32.63061,1,0,0,0,0,-0.9788303,0,0,66,0,0,98,2,229
213.5714,-95.55121,0,-146.4286,-95.55121,-1,0,0,0,0,-43.99389,-19.98066,22.70973,0,-43.99389,-19.98066,-1,0,0,0,0,0,-10,0,0,-42.67556,-6.791203,-59.66306,0,-42.67556,-6.791203,1,0,0,0,0,0,-10,0,0,0.1511587,9.947143,0,99.02117,32.63061,1,0,0,0,0,-0.9788303,0,0,66,0,0,99,2,229
213.5714,-95.55121,0,-146.4286,-95.55121,-1,0,0,0,0,-43.99389,-19.98066,22.70973,0,-43.99389,-19.98066,-1,0,0,0,0,0,-10,0,0,-42.67556,-6.791203,-59.66306,0,-42.67556,-6.791203,1,0,0,0,0,0,-10,0,0,0.1511587,9.947143,0,99.02117,32.63061,1,0,0,0,0,-0.9788303,0,0,66,0,0,100,2,229
213.5714,-95.55121,0,-146.4286,-95.55121,-1,0,0,0,0,-43.99389,-19.98066,22.70973,0,-43.99389,-19.98066,-1,0,0,0,0,0,-10,0,0,-42.67556,-6.791203,-59.66306,0,-42.67556,-6.791203,1,0,0,0,0,0,-10,0,0,0.1511587,9.947143,0,99.02117,32.63061,1,0,0,0,0,-0.9788303,0,0,66,0,0,101,2,229
213.5714,-95.55121,0,-146.4286,-95.55121,-1,0,0,0,0,-43.99389,-19.98066,22.70973,0,-43.99389,-19.98066,-1,0,0,0,0,0,-10,0,0,-42.67556,-6.791203,-59.66306,0,-42.67556,-6.791203,1,0,0,0,0,0,-10,0,0,0.1511587,9.947143,0,99.02117,32.63061,1,0,0,0,0,-0.9788303,0,0,66,0,0,102,2,229
213.5714,-95.55121,0,-146.4286,-95.55121,-1,0,0,0,0,-43.99389,-19.98066,22.70973,0,-43.99389,-19.98066,-1,0,0,0,0,0,-10,0,0,-42.67556,-6.791203,-59.66306,0,-42.67556,-6.791203,1,0,0,0,0,0,-10,0,0,0.1511587,9.947143,0,99.02117,32.63061,1,0,0,0,0,-0.9788303,0,0,66,0,0,103,2,229
213.5714,-95.55121,0,-146.4286,-95.55121,-1,0,0,0,0,-43.99389,-19.98066,22.70973,0,-43.99389,-19.98066,-1,0,0,0,0,0,-10,0,0,-42.67556,-6.791203,-59.66306,0,-42.67556,-6.791203,1,0,0,0,0,0,-10,0,0,0.1511587,9.947143,0,99.02117,32.63061,1,0,0,0,0,-0.9788303,0,0,66,0,0,104,2,229
213.5714,-95.55121,0,-146.4286,-95.55121,-1,0,0,0,0,-43.99389,-19.98066,22.70973,0,-43.99389,-19.98066,-1,0,0,0,0,0,-10,0,0,-42.67556,-6.791203,-59.66306,0,-42.67556,-6.791203,1,0,0,0,0,0,-10,0,0,0.1511587,9.947143,0,99.02117,32.63061,1,0,0,0,0,-0.9788303,0,0,66,0,0,105,2,229
213.5714,-95.55121,0,-146.4286,-95.55121,-1,0,0,0,0,-43.99389,-19.98066,22.70973,0,-43.99389,-19.98066,-1,0,0,0,0,0,-10,0,0,-42.67556,-6.791203,-59.66306,0,-42.67556,-6.791203,1,0,0,0,0,0,-10,0,0,0.1511587,9.947143,0,99.02117,32.63061,1,0,0,0,0,-0.9788303,0,0,66,0,0,106,2,229
213.5714,-95.55121,0,-146.4286,-95.55121,-1,0,0,0,0,-43.99389,-19.98066,22.70973,0,-43.99389,-19.98066,-1,0,0,0,0,0,-10,0,0,-42.67556,-6.791203,-59.66306,0,-42.67556,-6.791203,1,0,0,0,0,0,-10,0,0,0.1511587,9.947143,0,99.02117,32.63061,1,0,0,0,0,-0.9788303,0,0,66,0,0,107,2,229
213.5714,-95.55121,0,-146.4286,-95.55121,-1,0,0,0,0,-43.99389,-19.98066,22.70973,0,-43.99389,-19.98066,-1,0,0,0,0,0,-10,0,0,-42.67556,-6.791203,-59.66306,0,-42.67556,-6.791203,1,0,0,0,0,0,-10,0,0,0.1511587,9.947143,0,99.02117,32.63061,1,0,0,0,0,-0.9788303,0,0,66,0,0,108,2,229
213.5714,-95.55121,0,-146.4286,-95.55121,-1,0,0,0,0,-43.99389,-19.98066,22.70973,0,-43.99389,-19.98066,-1,0,0,0,0,0,-10,0,0,-42.67556,-6.791203,-59.66306,0,-42.67556,-6.791203,1,0,0,0,0,0,-10,0,0,0.1511587,9.947143,0,99.02117,32.63061,1,0,0,0,0,-0.9788303,0,0,66,0,0,109,2,229
213.5714,-95.55121,0,-146.4286,-95.55121,-1,0,0,0,0,-43.99389,-19.98066,22.70973,0,-43.99389,-19.98066,-1,0,0,0,0,0,-10,0,0,-42.67556,-6.791203,-59.66306,0,-42.67556,-6.791203,1,0,0,0,0,0,-10,0,0,0.1511587,9.947143,0,99.02117,32.63061,1,0,0,0,0,-0.9788303,0,0,66,0,0,110,2,229
213.5714,-95.55121,0,-146.4286,-95.55121,-1,0,0,0,0,-43.99389,-19.98066,22.70973,0,-43.99389,-19.98066,-1,0,0,0,0,0,-10,0,0,-42.67556,-6.791203,-59.66306,0,-42.67556,-6.791203,1,0,0,0,0,0,-10,0,0,0.1511587,9.947143,0,99.02117,32.63061,1,0,0,0,0,-0.9788303,0,0,66,0,0,111,2,229
213.5714,-95.55121,0,-146.4286,-95.55121,-1,0,0,0,0,-43.99389,-19.98066,22.70973,0,-43.99389,-19.98066,-1,0,0,0,0,0,-10,0,0,-42.67556,-6.791203,-59.66306,0,-42.67556,-6.791203,1,0,0,0,0,0,-10,0,0,0.1511587,9.947143,0,99.02117,32.63061,1,0,0,0,0,-0.9788303,0,0,66,0,0,112,2,229
213.5714,-95.55121,0,-146.4286,-95.55121,-1,0,0,0,0,-43.99389,-19.98066,22.70973,0,-43.99389,-19.98066,-1,0,0,0,0,0,-10,0,0,-42.67556,-6.791203,-59.66306,0,-42.67556,-6.791203,1,0,0,0,0,0,-10,0,0,0.1511587,9.947143,0,99.02117,32.63061,1,0,0,0,0,-0.9788303,0,0,66,0,0,113,2,229
213.5714,-95.55121,0,-146.4286,-95.55121,-1,0,0,0,0,-43.99389,-19.98066,22.70973,0,-43.99389,-19.98066,-1,0,0,0,0,0,-10,0,0,-42.67556,-6.791203,-59.66306,0,-42.67556,-6.791203,1,0,0,0,0,0,-10,0,0,0.1511587,9.947143,0,99.02117,32.63061,1,0,0,0,0,-0.9788303,0,0,66,0,0,114,2,229
213.5714,-95.55121,0,-146.4286,-95.55121,-1,0,0,0,0,-43.99389,-19.98066,22.70973,0,-43.99389,-19.98066,-1,0,0,0,0,0,-10,0,0,-42.67556,-6.791203,-59.66306,0,-42.67556,-6.791203,1,0,0,0,0,0,-10,0,0,0.1511587,9.947143,0,99.02117,32.63061,1,0,0,0,0,-0.9788303,0,0,66,0,0,115,2,229
213.5714,-95.55121,0,-146.4286,-95.55121,-1,0,0,0,0,-43.99389,-19.98066,22.70973,0,-43.99389,-19.98066,-1,0,0,0,0,0,-10,0,0,-42.67556,-6.791203,-59.66306,0,-42.67556,-6.791203,1,0,0,0,0,0,-10,0,0,0.1511587,9.947143,0,99.02117,32.63061,1,0,0,0,0,-0.9788303,0,0,66,0,0,116,2,229
213.5714,-95.55121,0,-146.4286,-95.55121,-1,0,0,0,0,-43.99389,-19.98066,22.70973,0,-43.99389,-19.98066,-1,0,0,0,0,0,-10,0,0,-42.67556,-6.791203,-59.66306,0,-42.67556,-6.791203,1,0,0,0,0,0,-10,0,0,0.1511587,9.947143,0,99.02117,32.63061,1,0,0,0,0,-0.9788303,0,0,66,0,0,117,2,229
213.5714,-95.55121,0,-146.4286,-95.55121,-1,0,0,0,0,-43.99389,-19.98066,22.70973,0,-43.99389,-19.98066,-1,0,0,0,0,0,-10,0,0,-42.67556,-6.791203,-59.66306,0,-42.67556,-6.791203,1,0,0,0,0,0,-10,0,0,0.1511587,9.947143,0,99.02117,32.63061,1,0,0,0,0,-0.9788303,0,0,66,0,0,118,2,229
213.5714,-95.55121,0,-146.4286,-95.55121,-1,0,0,0,0,-43.99389,-19.98066,22.70973,0,-43.99389,-19.98066,-1,0,0,0,0,0,-10,0,0,-42.67556,-6.791203,-59.66306,0,-42.67556,-6.791203,1,0,0,0,0,0,-10,0,0,0.1511587,9.947143,0,99.02117,32.63061,1,0,0,0,0,-0.9788303,0,0,66,0,0,119,2,229
213.5714,-95.55121,0,-146.4286,-95.55121,-1,0,0,0,0,-43.99389,-19.98066,22.70973,0,-43.99389,-19.98066,-1,0,0,0,0,0,-10,0,0,-42.67556,-6.791203,-59.66306,0,-42.67556,-6.791203,1,0,0,0,0,0,-10,0,0,0.1511587,9.947143,0,99.02117,32.63061,1,0,0,0,0,-0.9788303,0,0,66,0,0,120,2,229
213.5714,-95.55121,0,-146.4286,-95.55121,-1,0,0,0,0,-43.99389,-19.98066,22.70973,0,-43.99389,-19.98066,-1,0,0,0,0,0,-10,0,0,-42.67556,-6.791203,-59.66306,0,-42.67556,-6.791203,1,0,0,0,0,0,-10,0,0,0.1511587,9.947143,0,99.02117,32.63061,1,0,0,0,0,-0.9788303,0,0,66,0,0,121,2,229
213.5714,-95.55121,0,-146.4286,-95.55121,-1,0,0,0,0,-43.99389,-19.98066,22.70973,0,-43.99389,-19.98066,-1,0,0,0,0,0,-10,0,0,-42.67556,-6.791203,-59.66306,0,-42.67556,-6.791203,1,0,0,0,0,0,-10,0,0,0.1511587,9.947143,0,99.02117,32.63061,1,0,0,0,0,-0.9788303,0,0,66,0,0,122,2,229
213.5714,-95.55121,0,-146.4286,-95.55121,-1,0,0,0,0,-43.99389,-19.98066,22.70973,0,-43.99389,-19.98066,-1,0,0,0,0,0,-10,0,0,-42.67556,-6.791203,-59.66306,0,-42.67556,-6.791203,1,0,0,0,0,0,-10,0,0,0.1511587,9.947143,0,99.02117,32.63061,1,0,0,0,0,-0.9788303,0,0,66,0,0,123,2,229
213.5714,-95.55121,0,-146.4286,-95.55121,-1,0,0,0,0,-43.99389,-19.98066,22.70973,0,-43.99389,-19.98066,-1,0,0,0,0,0,-10,0,0,-42.67556,-6.791203,-59.66306,0,-42.67556,-6.791203,1,0,0,0,0,0,-10,0,0,0.1511587,9.947143,0,99.02117,32.63061,1,0,0,0,0,-0.9788303,0,0,66,0,0,124,2,229
213.5714,-95.55121,0,-146.4286,-95.55121,-1,0,0,0,0,-43.99389,-19.98066,22.70973,0,-43.99389,-19.98066,-1,0,0,0,0,0,-10,0,0,-42.67556,-6.791203,-59.66306,0,-42.67556,-6.791203,1,0,0,0,0,0,-10,0,0,0.1511587,9.947143,0,99.02117,32.63061,1,0,0,0,0,-0.9788303,0,0,66,0,0,125,2,229
0,0,0,-146.4286,-95.55121,-1,0,0,0,0,-43.99389,0,0,0,-43.99389,-19.98066,-1,0,0,0,0,0,-10,0,0,-42.67556,0,0,0,-42.67556,-6.791203,1,0,0,0,0,0,-10,0,0,0,0,0,99.02117,32.63061,1,0,0,0,0,-0.9788303,0,0,66,0,0,126,2,229
158.95,53.52684,0,0,0,0,0,0,0,0,1.071055,-0.01968471,0.4548255,0,-43.99389,0,-0.31,0,0,0,0,0,-10,0,0,-0.3447903,0.1643062,0.7642801,0,-42.67556,0,-0.92,0,0,0,0,0,-10,0,0,1.331205,-5.592481,0,99.02117,0,1,0,0,0,0,-1.053071,0,0,66,0,0,127,2,229
167.4489,99.85625,0,158.95,53.52684,1,0,0,0,0,0.9263438,-0.4533245,-2.880518,0,0.9263438,-0.01968471,-0.005638415,0,0,0,0,0,0.2311195,0,0,-0.2346839,-0.007126885,4.96746,0,-0.2346839,0.1643062,-0.07302245,0,0,0,0,0,0.1287808,0,0,3.94263,-8.935696,0,97.45799,-18.34558,1,0,0,0,0,-2.542009,0,0,66,0,0,128,2,229
175.8044,86.13205,0,167.4489,99.85625,1,0,0,0,0,1.104745,-0.8331015,-7.090369,0,1.104745,-0.4533245,0.07306884,0,0,0,0,0,-0.5234588,0,0,-0.4143147,-0.1991682,5.927145,0,-0.4143147,-0.007126885,-0.51364,0,0,0,0,0,-0.6155843,0,0,7.317518,-10.90589,0,94.9088,-29.31266,1,0,0,0,0,-5.091206,0,0,66,0,0,129,2,229
180.0064,33.33809,0,175.8044,86.13205,1,0,0,0,0,1.05485,-1.121708,-10.19733,0,1.104745,-0.8331015,0.181688,0,0,0,0,0,-1.229464,0,0,-0.405611,-0.6168853,4.37876,0,-0.4143147,-0.1991682,-0.6520423,0,0,0,0,0,-1.160271,0,0,11.1538,-12.03369,0,94.9088,-35.77569,1,0,0,0,0,-8.527764,0,0,66,0,0,130,2,229
180.8151,2.355846,-24.87366,-179.9936,33.33809,-1,0,0,0,0,0.8490124,-1.472943,-12.03817,0,1.05485,-1.121708,0.2609248,0,0,0,0,0,-1.780403,0,0,-0.2636263,-0.885277,2.113472,0,-0.405611,-0.6168853,-0.6174391,0,0,0,0,0,-2.332535,0,0,15.2821,-12.7721,0,91.47224,-39.47531,1,0,0,0,0,-12.10721,0,0,66,0,0,131,2,229
180.3527,-8.687568,0,-179.1849,2.355846,-1,0,0,0,0,0.3742886,-1.644489,-12.51101,0,0.3742886,-1.472943,0.2959054,0,0,0,0,0,-2.630031,0,0,-0.4896064,-0.9659487,0.5242252,0,-0.4896064,-0.885277,-0.4602958,0,0,0,0,0,-3.214475,0,0,17.41069,-12.97555,0,83.38878,-41.89761,1,0,0,0,0,-16.61122,0,0,66,0,0,132,2,229
180.6667,23.83023,0,-179.6473,-8.687568,-1,0,0,0,0,0.5673695,-2.009108,-12.59396,0,0.5673695,-1.644489,0.2981543,0,0,0,0,0,-2.893135,0,0,-0.3795004,-0.8531301,-4.348931,0,-0.3795004,-0.9659487,-0.3504544,0,0,0,0,0,-3.285062,0,0,21.69962,-13.0279,0,81.5312,-42.565,1,0,0,0,0,-18.4688,0,0,66,0,0,133,2,229
188.7175,99.27501,0,-179.3333,23.83023,-1,0,0,0,0,0.445118,-2.305668,-10.71755,0,0.5673695,-2.009108,0.2797129,0,0,0,0,0,-3.570962,0,0,-0.3157434,-0.4919239,-12.93754,0,-0.3795004,-0.8531301,0.1273148,0,0,0,0,0,-2.965075,0,0,25.83157,-12.46432,0,81.5312,-42.73671,1,0,0,0,0,-22.64983,0,0,66,0,0,134,2,229
211.5272,201.517,0,-171.2825,99.27501,-1,0,0,0,0,0.07106495,-2.742858,-0.8193703,0,0.445118,-2.305668,0.2033585,0,0,0,0,0,-4.157597,0,0,-1.521042,0.06878492,-27.8756,0,-0.3157434,-0.4919239,1,0,0,0,0,0,-1.848967,0,0,31.43176,-11.16048,0,77.35017,-40.88794,1,0,0,0,0,-27.73975,0,0,66,0,0,135,2,229
231.6039,262.8398,-2.241048,-148.4728,201.517,1,0,0,0,0,-0.4613342,-3.090956,11.39176,0,-0.4613342,-2.742858,-0.132031,0,0,0,0,0,-5.232298,0,0,-1.402231,0.3363015,-33.89204,0,-1.402231,0.06878492,1,0,0,0,0,0,-1.819912,0,0,34.67615,-10.29581,0,67.70339,-36.61085,1,0,0,0,0,-32.29661,0,0,66,0,0,136,2,229
257.2913,314.4612,-4.249961,-128.3961,262.8398,1,0,0,0,0,-0.1010818,-3.438148,26.63664,0,-0.1010818,-3.090956,-0.5321789,0,0,0,0,0,-5.775301,0,0,-1.448582,0.4838458,-31.00759,0,-1.448582,0.3363015,1,0,0,0,0,0,-1.12776,0,0,37.67327,-9.509583,0,64.64266,-33.77438,1,0,0,0,0,-35.35734,0,0,66,0,0,137,2,229
285.3116,269.3824,-13.26782,-102.7087,314.4612,1,0,0,0,0,-0.6706219,-3.493582,37.32917,0,-0.1010818,-3.438148,-1,0,0,0,0,0,-6.42073,0,0,-1.573159,0.693315,-18.20865,0,-1.448582,0.4838458,1,0,0,0,0,0,-0.70928,0,0,40.43546,-9.010189,0,64.64266,-31.19523,1,0,0,0,0,-37.91372,0,0,66,0,0,138,2,229
323.0378,203.6464,-28.32924,-74.68845,269.3824,1,0,0,0,0,-1.133072,-3.604366,40.78757,0,-0.6706219,-3.493582,-1,0,0,0,0,0,-6.688379,0,0,-0.3185749,1.218246,8.22915,0,-1.573159,0.693315,1,0,0,0,0,0,-0.2941808,0,0,44.09902,-8.320496,0,62.08628,-29.55702,1,0,0,0,0,-41.05014,0,0,66,0,0,139,2,229
341.0217,165.7628,-50.28429,-36.96225,203.6464,1,0,0,0,0,-1.593119,-3.74165,37.67047,0,-1.593119,-3.604366,-1,0,0,0,0,0,-7.160927,0,0,-0.2548189,1.700864,23.64586,0,-0.2548189,1.218246,-0.48131,0,0,0,0,0,3.089138,0,0,46.25738,-7.897829,0,55.13747,-27.29455,1,0,0,0,0,-44.86253,0,0,66,0,0,140,2,229
358.4951,110.5831,-58.77718,-18.97827,165.7628,1,0,0,0,0,-1.824865,-4.159994,30.50424,0,-1.824865,-3.74165,-1,0,0,0,0,0,-7.483113,0,0,-0.3793964,2.704182,42.63383,0,-0.3793964,1.700864,-1,0,0,0,0,0,4.278968,0,0,49.33287,-7.214249,0,52.21244,-25.90804,1,0,0,0,0,-47.78756,0,0,66,0,0,141,2,229
4.974283,74.29463,-64.99208,-1.504883,110.5831,1,0,0,0,0,-2.550348,-4.520577,26.26786,0,-1.824865,-4.159994,-1,0,0,0,0,0,-8.260815,0,0,-0.3706913,3.318475,50.78885,0,-0.3793964,2.704182,-1,0,0,0,0,0,7.124679,0,0,51.24506,-6.735775,0,52.21244,-23.66562,1,0,0,0,0,-50.48684,0,0,66,0,0,142,2,229
8.32609,40.76549,-67.63995,4.974283,74.29463,0.4847679,0,0,0,0,-2.539118,-4.897157,23.37196,0,-2.550348,-4.520577,-1,0,0,0,0,0,-9.140803,0,0,-0.3938675,3.96367,54.53637,0,-0.3706913,3.318475,-1,0,0,0,0,0,8.879505,0,0,53.02205,-6.177505,0,49.51316,-22.09604,1,0,0,0,0,-51.83288,0,0,66,0,0,143,2,229
9.120462,2.310031,-65.2673,8.32609,40.76549,-1,0,0,0,0,-3.521214,-5.436792,21.72925,0,-3.521214,-4.897157,-1,0,0,0,0,0,-10,0,0,0.7274342,4.868944,53.8045,0,0.7274342,3.96367,-1,0,0,0,0,0,10,0,0,55.40614,-5.297621,0,45.91087,-20.26469,1,0,0,0,0,-54.08913,0,0,66,0,0,144,2,229
8.916468,14.81272,-63.13459,9.120462,2.310031,-1,0,0,0,0,-4.090754,-5.739181,20.36482,0,-4.090754,-5.436792,-0.9836069,0,0,0,0,0,-10,0,0,0.6028576,5.28248,50.25217,0,0.6028576,4.868944,-1,0,0,0,0,0,10,0,0,56.81669,-4.844507,0,43.35448,-17.37831,1,0,0,0,0,-56.64552,0,0,66,0,0,145,2,229
12.52559,102.656,-58.02597,8.916468,14.81272,-1,0,0,0,0,-4.489674,-5.96259,14.07419,0,-4.090754,-5.739181,-0.9413095,0,0,0,0,0,-10,0,0,0.634737,5.398937,45.01645,0,0.6028576,5.28248,-1,0,0,0,0,0,10,0,0,58.16649,-4.68402,0,43.35448,-15.89192,1,0,0,0,0,-58.36739,0,0,66,0,0,146,2,229
28.45864,231.8624,-54.46909,12.52559,102.656,1,0,0,0,0,-5.327059,-6.094201,-5.49897,0,-4.489674,-5.96259,-0.7462998,0,0,0,0,0,-10,0,0,1.645931,5.577431,31.86425,0,0.634737,5.398937,-1,0,0,0,0,0,10,0,0,60.18182,-4.710358,0,41.63261,-15.36546,1,0,0,0,0,-59.1347,0,0,66,0,0,147,2,229
49.333,313.6018,-75.443,28.45864,231.8624,1,0,0,0,0,-5.644796,-5.90834,-21.98034,0,-5.644796,-6.094201,-0.1395319,0,0,0,0,0,-10,0,0,2.790409,5.850405,15.28593,0,2.790409,5.577431,-1,0,0,0,0,0,10,0,0,61.56804,-4.927652,0,39.21781,-15.45186,1,0,0,0,0,-60.78219,0,0,66,0,0,148,2,229
88.53136,282.8987,-90.33315,49.333,313.6018,1,0,0,0,0,-6.381508,-5.769243,-34.9723,0,-6.381508,-5.90834,0.3713905,0,0,0,0,0,-10,0,0,2.822289,6.772938,-19.43683,0,2.822289,5.850405,-0.4863057,0,0,0,0,0,10,0,0,63.52509,-5.085783,0,37.86458,-16.16467,1,0,0,0,0,-62.13542,0,0,66,0,0,149,2,229
125.338,261.5304,-112.7539,88.53136,282.8987,1,0,0,0,0,-7.207664,-5.390193,-29.85845,0,-6.381508,-5.769243,0.7741413,0,0,0,0,0,-10,0,0,3.810308,7.835597,-52.6726,0,2.822289,6.772938,1,0,0,0,0,0,10,0,0,65.30965,-4.990506,0,37.86458,-16.6834,1,0,0,0,0,-64.24878,0,0,66,0,0,150,2,229
143.9722,244.0819,-134.2279,125.338,261.5304,1,0,0,0,0,-7.285877,-5.208292,-19.12629,0,-7.207664,-5.390193,0.6156118,0,0,0,0,0,-10,0,0,4.743277,8.533521,-68.08978,0,3.810308,7.835597,1,0,0,0,0,0,10,0,0,66.45871,-4.664968,0,35.75122,-16.37086,1,0,0,0,0,-66.35495,0,0,66,0,0,151,2,229
156.6312,219.9782,-174.8568,143.9722,244.0819,1,0,0,0,0,-7.612436,-5.202466,-3.388533,0,-7.612436,-5.208292,0.2829151,0,0,0,0,0,-10,0,0,4.720104,9.094491,-75.30997,0,4.720104,8.533521,1,0,0,0,0,0,10,0,0,67.68159,-4.239501,0,32.66765,-15.30296,1,0,0,0,0,-67.33235,0,0,66,0,0,152,2,229
166.1872,189.3303,-192.3527,156.6312,219.9782,1,0,0,0,0,-8.11203,-5.264476,12.74214,0,-8.11203,-5.202466,-0.2049555,0,0,0,0,0,-10,0,0,5.7313,9.491934,-74.77448,0,5.7313,9.094491,1,0,0,0,0,0,10,0,0,68.85758,-3.717723,0,31.53169,-13.90726,1,0,0,0,0,-68.46831,0,0,66,0,0,153,2,229
173.9637,149.4756,-207.3122,166.1872,189.3303,1,0,0,0,0,-9.021769,-5.268158,26.42489,0,-8.11203,-5.264476,-0.7050064,0,0,0,0,0,-10,0,0,6.79755,9.706278,-68.03735,0,5.7313,9.491934,1,0,0,0,0,0,10,0,0,69.94147,-3.289014,0,31.53169,-12.19562,1,0,0,0,0,-69.98009,0,0,66,0,0,154,2,229
180.7302,105.74,-219.1232,173.9637,149.4756,1,0,0,0,0,-8.363268,-5.096772,36.16371,0,-9.021769,-5.268158,-1,0,0,0,0,0,-10,0,0,7.698639,9.914134,-56.5002,0,6.79755,9.706278,1,0,0,0,0,0,10,0,0,70.92628,-2.991708,0,30.01991,-10.78928,1,0,0,0,0,-70.73302,0,0,66,0,0,155,2,229
185.9183,60.3435,-195.7885,-179.2698,105.74,-1,0,0,0,0,-10.2028,-4.735113,41.36343,0,-10.2028,-5.096772,-1,0,0,0,0,0,-10,0,0,8.686661,10.27709,-42.76148,0,8.686661,9.914134,1,0,0,0,0,0,10,0,0,71.81403,-2.904719,0,28.25954,-9.813999,1,0,0,0,0,-71.74046,0,0,66,0,0,156,2,229
188.0859,-2.891855,-167.4402,-174.0817,60.3435,-1,0,0,0,0,-10.44819,-3.737837,43.06678,0,-10.44819,-4.735113,-1,0,0,0,0,0,-10,0,0,9.776083,11.11067,-23.38825,0,9.776083,10.27709,1,0,0,0,0,0,10,0,0,73.14899,-3.256031,0,27.35652,-9.528639,1,0,0,0,0,-72.64348,0,0,66,0,0,157,2,229
191.3731,37.56194,-138.586,-171.9141,-2.891855,-1,0,0,0,0,-11.10372,-2.969945,43.45893,0,-10.44819,-3.737837,-1,0,0,0,0,0,-9.968165,0,0,10.92056,11.8738,-9.334354,0,9.776083,11.11067,1,0,0,0,0,0,10,0,0,74.16092,-3.750779,0,27.35652,-10.68108,1,0,0,0,0,-73.92233,0,0,66,0,0,158,2,229
202.5102,77.54148,-107.4576,-168.6269,37.56194,-1,0,0,0,0,-10.85537,-1.15956,42.40531,0,-11.10372,-2.969945,-1,0,0,0,0,0,-8.730103,0,0,11.87671,12.56396,15.14674,0,10.92056,11.8738,1,0,0,0,0,0,10,0,0,76.03787,-4.938201,0,26.07767,-12.30406,1,0,0,0,0,-75.05109,0,0,66,0,0,159,2,229
211.5909,96.37251,-65.88948,-157.4898,77.54148,-1,0,0,0,0,-11.27137,0.4678933,39.1376,0,-11.27137,-1.15956,-1,0,0,0,0,0,-5.413049,0,0,12.80967,12.58154,31.96767,0,12.80967,12.56396,-0.4734997,0,0,0,0,0,10,0,0,77.57829,-5.843635,0,23.21138,-16.19927,1,0,0,0,0,-76.78862,0,0,66,0,0,160,2,229
220.1576,112.2571,-50.30194,-148.4091,96.37251,-1,0,0,0,0,-11.3349,2.406304,33.27324,0,-11.3349,0.4678933,-1,0,0,0,0,0,-2.405973,0,0,14.03238,12.18178,47.81776,0,14.03238,12.58154,-1,0,0,0,0,0,10,0,0,79.37044,-6.659536,0.003309853,21.79683,-19.16946,1,0,0,0,0,-78.20317,0,0,66,0,0,161,2,229
227.3459,129.2155,-38.77844,-139.8424,112.2571,-1,0,0,0,0,-11.41312,4.336879,24.57641,0,-11.3349,2.406304,-0.994347,0,0,0,0,0,1.197532,0,0,14.96535,11.49149,61.00557,0,14.03238,12.18178,-1,0,0,0,0,0,10,0,0,81.3796,-7.111841,0.01802496,21.79683,-21.84594,1,0,0,0,0,-80.30934,0,0,66,0,0,162,2,229
235.0976,165.2045,-30.61127,-132.6541,129.2155,-1,0,0,0,0,-10.66221,6.882546,5.712478,0,-11.41312,4.336879,-0.6141888,0,0,0,0,0,4.763868,0,0,16.95586,10.32382,67.17296,0,14.96535,11.49149,-1,0,0,0,0,0,10,0,0,84.5944,-7.219983,0.03221626,19.69066,-23.32968,0.9279703,0,0,0,0,-82.33394,0,0,66,0,0,163,2,229
240.1027,208.2598,-24.57832,-124.9024,165.2045,-1,0,0,0,0,-9.966568,8.156134,-11.41639,0,-9.966568,6.882546,0.1240247,0,0,0,0,0,9.914316,0,0,18.10034,9.59514,62.91722,0,18.10034,10.32382,-1,0,0,0,0,0,10,0,0,86.72168,-7.031067,0.06479497,14.91265,-23.68443,0.6745511,0,0,0,0,-85.08735,0,0,66,0,0,164,2,229
257.262,309.3414,-23.82059,-119.8973,208.2598,1,0,0,0,0,-8.860779,8.796101,-42.6119,0,-8.860779,8.156134,0.6639081,0,0,0,0,0,10,0,0,19.18976,8.72369,43.56519,0,19.18976,9.59514,-1,0,0,0,0,0,10,0,0,89.54044,-6.52512,0.07733005,12.53508,-23.06471,0.5538567,0,0,0,0,-87.46492,0,0,66,0,0,165,2,229
328.3537,434.7692,-27.09198,-102.738,309.3414,1,0,0,0,0,-8.263405,8.282907,-58.95679,0,-8.860779,8.796101,1,0,0,0,0,0,10,0,0,20.12273,8.047496,-28.50006,0,19.18976,8.72369,-1,0,0,0,0,0,10,0,0,91.72767,-5.467039,0.08986513,12.53508,-21.405,0.5853292,0,0,0,0,-90.30838,0,0,66,0,0,166,2,229
9.227854,436.1973,-40.31567,-31.6463,434.7692,1,0,0,0,0,-7.085262,8.425108,-38.79096,0,-8.263405,8.282907,1,0,0,0,0,0,10,0,0,21.1571,7.562016,-68.23652,0,20.12273,8.047496,1,0,0,0,0,0,10,0,0,92.93503,-4.812245,0.09955675,9.69162,-17.93407,0.4668314,0,0,0,0,-91.94149,0,0,66,0,0,167,2,229
31.07824,424.0989,-100.8699,9.227854,436.1973,1,0,0,0,0,-6.655064,9.485126,5.449846,0,-6.655064,8.425108,1,0,0,0,0,0,10,0,0,22.24652,5.952963,-87.24115,0,22.24652,7.562016,1,0,0,0,0,0,10,0,0,94.5022,-3.982094,0.1140335,6.418213,-15.78609,0.3126529,0,0,0,0,-93.58179,0,0,66,0,0,168,2,229
40.76102,368.3863,-128.67,31.07824,424.0989,1,0,0,0,0,-5.558094,9.71529,36.09051,0,-5.558094,9.485126,0.1410548,0,0,0,0,0,10,0,0,22.1683,5.633461,-88.87731,0,22.1683,5.952963,1,0,0,0,0,0,10,0,0,95.45798,-3.430225,0.1187442,4.710716,-13.06286,0.2476763,0,0,0,0,-95.28928,0,0,66,0,0,169,2,229
71.27983,287.9011,-154.843,40.76102,368.3863,1,0,0,0,0,-4.971951,8.695946,71.2637,0,-5.558094,9.71529,-0.8088058,0,0,0,0,0,10,0,0,23.12444,5.959332,-63.64997,0,22.1683,5.633461,1,0,0,0,0,0,10,0,0,96.61196,-2.696253,0.1234549,4.710716,-11.25251,0.2730432,0,0,0,0,-96.78669,0,0,66,0,0,170,2,229
170.2607,220.9888,-174.6191,71.27983,287.9011,1,0,0,0,0,-3.54842,7.265842,71.08279,0,-4.971951,8.695946,-1,0,0,0,0,0,10,0,0,23.06939,6.132301,33.97874,0,23.12444,5.959332,1,0,0,0,0,0,10,0,0,97.3866,-1.724957,0.1266682,3.21331,-8.844788,0.2153666,0,0,0,0,-97.51678,0,0,66,0,0,171,2,229
187.6407,172.7748,-205.3718,170.2607,220.9888,1,0,0,0,0,-2.609806,6.949956,58.53922,0,-2.609806,7.265842,-1,0,0,0,0,0,10,0,0,24.31527,5.850686,53.82889,0,24.31527,6.132301,-1,0,0,0,0,0,10,0,0,97.68417,-1.001864,0.1304602,1.308792,-5.658549,0.143128,0,0,0,0,-98.69121,0,0,66,0,0,172,2,229
191.7871,90.32661,-220.6137,-172.3593,172.7748,-1,0,0,0,0,-2.199654,6.908702,44.11153,0,-2.199654,6.949956,-1,0,0,0,0,0,10,0,0,24.26021,5.144874,67.06657,0,24.26021,5.850686,-1,0,0,0,0,0,10,0,0,97.76787,0.1962198,0.1321449,1.684616,-3.286516,0.1940549,0,0,0,0,-98.31538,0,0,66,0,0,173,2,229
189.2741,28.8578,-196.1696,-168.2129,90.32661,-1,0,0,0,0,-1.697098,6.766121,39.52859,0,-2.199654,6.908702,-1,0,0,0,0,0,10,0,0,25.29459,4.834689,71.17999,0,24.26021,5.144874,-1,0,0,0,0,0,10,0,0,97.53326,1.144741,0.1338295,1.684616,0.6436796,0.2405831,0,0,0,0,-99.21121,0,0,66,0,0,174,2,229
187.0942,92.31794,-167.5773,-170.7259,28.8578,-1,0,0,0,0,-1.370533,7.243261,32.13641,0,-1.697098,6.766121,-0.9153863,0,0,0,0,0,10,0,0,25.31776,4.377945,70.94809,0,25.29459,4.834689,-1,0,0,0,0,0,10,0,0,97.15189,1.512474,0.1346183,0.7887878,3.755208,0.2240116,0,0,0,0,-98.23381,0,0,66,0,0,175,2,229
186.4959,155.7177,-113.4578,-172.9058,92.31794,-1,0,0,0,0,-0.9603844,7.85848,18.66257,0,-0.9603844,7.243261,-0.6862288,0,0,0,0,0,10,0,0,25.26271,3.610502,66.97603,0,25.26271,4.377945,-1,0,0,0,0,0,10,0,0,96.6646,1.743827,0.1385265,2.142021,4.96152,0.3215381,0,0,0,0,-97.85798,0,0,66,0,0,176,2,229
188.5049,224.9871,-92.83789,-173.5041,155.7177,-1,0,0,0,0,0.3047981,8.325901,-1.851322,0,0.3047981,7.85848,-0.2685398,0,0,0,0,0,10,0,0,26.53176,2.821465,60.34489,0,26.53176,3.610502,-1,0,0,0,0,0,10,0,0,96.09736,1.879124,0.1404715,1.944992,5.72045,0.3205158,0,0,0,0,-98.05501,0,0,66,0,0,177,2,229
196.2806,309.8983,-79.6083,-171.4951,224.9871,-1,0,0,0,0,0.9691505,8.734805,-29.98145,0,0.3047981,8.325901,0.367391,0,0,0,0,0,10,0,0,26.55494,1.34353,49.42833,0,26.53176,2.821465,-1,0,0,0,0,0,10,0,0,95.61971,1.392853,0.1424165,1.944992,6.164278,0.3275249,0,0,0,0,-97.44624,0,0,66,0,0,178,2,229
254.6877,417.3205,-73.78735,-163.7194,309.8983,1,0,0,0,0,1.616425,8.379033,-65.49266,0,0.9691505,8.734805,1,0,0,0,0,0,10,0,0,27.4792,-0.8109053,-10.5627,0,26.55494,1.34353,-1,0,0,0,0,0,10,0,0,95.19778,0.9108025,0.1449702,2.553757,4.569115,0.347801,0,0,0,0,-96.85313,0,0,66,0,0,179,2,229
330.7236,449.4117,-93.57127,-105.3123,417.3205,1,0,0,0,0,3.184662,7.756197,-33.74214,0,3.184662,8.379033,1,0,0,0,0,0,10,0,0,27.31404,-2.565422,-84.20866,0,27.31404,-0.8109053,1,0,0,0,0,0,10,0,0,94.75855,1.349435,0.1520228,3.905716,2.987797,0.4165899,0,0,0,0,-96.09428,0,0,66,0,0,180,2,229
346.7248,359.1602,-109.0669,-29.27643,449.4117,1,0,0,0,0,3.539539,7.726333,9.937659,0,3.539539,7.756197,1,0,0,0,0,0,10,0,0,26.41295,-3.244379,-98.04652,0,26.41295,-2.565422,1,0,0,0,0,0,10,0,0,94.05789,2.11096,0.1555755,3.552727,4.426686,0.4157304,0,0,0,0,-96.44727,0,0,66,0,0,181,2,229
342.0796,296.6011,-133.3378,-13.27524,359.1602,1,0,0,0,0,4.276253,7.716025,33.75335,0,3.539539,7.726333,0.001932563,0,0,0,0,0,10,0,0,26.38107,-3.475585,-105.0691,0,26.41295,-3.244379,1,0,0,0,0,0,10,0,0,93.42377,2.540328,0.1591283,3.552727,6.924792,0.4477865,0,0,0,0,-95.09404,0,0,66,0,0,182,2,229
327.2903,213.0654,-149.1123,-17.92044,296.6011,1,0,0,0,0,5.197224,7.420167,58.18244,0,4.276253,7.716025,-0.7363537,0,0,0,0,0,10,0,0,25.29165,-3.546669,-117.8068,0,26.38107,-3.475585,1,0,0,0,0,0,10,0,0,92.31861,3.280577,0.1640342,4.90596,8.333291,0.5486178,0,0,0,0,-94.9283,0,0,66,0,0,183,2,229
299.865,134.9594,-156.7326,-32.70975,213.0654,-1,0,0,0,0,6.369995,7.026218,69.33163,0,6.369995,7.420167,-1,0,0,0,0,0,10,0,0,25.47128,-3.70513,-140.0044,0,25.47128,-3.546669,1,0,0,0,0,0,10,0,0,91.05382,4.069299,0.1752522,6.146332,10.7616,0.6607372,0,0,0,0,-93.85367,0,0,66,0,0,184,2,229
272.5699,23.96725,-156.0229,-60.13498,134.9594,-1,0,0,0,0,7.106705,6.341015,70.41353,0,7.106705,7.026218,-1,0,0,0,0,0,10,0,0,25.4394,-4.733761,-155.8238,0,25.4394,-3.70513,1,0,0,0,0,0,10,0,0,88.95072,5.378795,0.1827518,7.499565,13.34893,0.7776124,0,0,0,0,-92.50043,0,0,66,0,0,185,2,229
265.0553,39.44353,-146.0137,-87.43005,23.96725,-1,0,0,0,0,7.751011,6.137204,70.31857,0,7.106705,6.341015,-1,0,0,0,0,0,10,0,0,24.3181,-5.718702,-156.5655,0,25.4394,-4.733761,1,0,0,0,0,0,10,0,0,87.68438,6.17475,0.1902514,7.499565,17.6446,0.8341256,0,0,0,0,-89.87555,0,0,66,0,0,186,2,229
244.5484,60.24496,-124.8445,-94.94467,39.44353,-1,0,0,0,0,8.233513,5.186764,71.77499,0,7.751011,6.137204,-1,0,0,0,0,0,10,0,0,24.20799,-7.803777,-162.377,0,24.3181,-5.718702,1,0,0,0,0,0,10,0,0,84.6748,7.753054,0.2003758,10.12445,20.25565,1,0,0,0,0,-88.75525,0,0,66,0,0,187,2,229
230.9933,67.68858,-89.44985,-115.4516,60.24496,-1,0,0,0,0,8.129871,4.412566,72.71728,0,8.129871,5.186764,-1,0,0,0,0,0,10,0,0,23.14174,-8.841508,-167.8718,0,23.14174,-7.803777,1,0,0,0,0,0,10,0,0,82.9217,8.529481,0.2063422,13.86246,25.43312,1,0,0,0,0,-86.13754,0,0,66,0,0,188,2,229
196.6168,80.6933,-74.23214,-129.0067,67.68858,-1,0,0,0,0,9.276733,2.01455,73.44214,0,9.276733,4.412566,-1,0,0,0,0,0,10,0,0,23.05481,-10.91347,175.5352,0,23.05481,-8.841508,1,0,0,0,0,0,8.052593,0,0,78.9066,10.11467,0.190478,15.59152,27.98011,1,0,0,0,0,-84.40848,0,0,66,0,0,189,2,229
165.306,91.77641,-59.82714,-163.3832,80.6933,-1,0,0,0,0,9.770954,-0.2463805,71.25899,0,9.276733,2.01455,-1,0,0,0,0,0,6.426024,0,0,21.18887,-11.87076,160.1708,0,23.05481,-10.91347,-1,0,0,0,0,0,2.175892,0,0,75.05716,11.35963,0.1630908,15.59152,33.18017,1,0,0,0,0,-80.56479,0,0,66,0,0,190,2,229
139.996,104.0753,-44.39891,165.306,91.77641,1,0,0,0,0,9.656082,-2.429822,66.21336,0,9.770954,-0.2463805,-1,0,0,0,0,0,2.365784,0,0,20.1458,-12.09465,150.1879,0,21.18887,-11.87076,-1,0,0,0,0,0,-3.220613,0,0,70.91036,12.58065,0.1363528,19.43521,37.26413,1,0,0,0,0,-76.60104,0,0,66,0,0,191,2,229
126.3983,114.2207,-80.41116,139.996,104.0753,1,0,0,0,0,9.385269,-3.399211,61.28022,0,9.385269,-2.429822,-1,0,0,0,0,0,-1.804696,0,0,19.23601,-12.08168,144.4558,0,19.23601,-12.09465,-1,0,0,0,0,0,-6.661909,0,0,67.90656,13.30759,0.0220738,27.21982,41.26955,1,0,0,0,0,-72.78018,0,0,66,0,0,192,2,229
112.854,79.23347,-95.06548,126.3983,114.2207,1,0,0,0,0,9.353989,-4.663085,53.47155,0,9.353989,-3.399211,-1,0,0,0,0,0,-3.61583,0,0,18.1147,-11.55999,137.1241,0,18.1147,-12.08168,-1,0,0,0,0,0,-8.236427,0,0,62.97704,14.57132,0,30.58199,43.65421,1,0,0,0,0,-69.41801,0,0,66,0,0,193,2,229
111.3587,-2.533477,-107.7624,112.854,79.23347,1,0,0,0,0,8.563534,-5.423284,50.49077,0,9.353989,-4.663085,-1,0,0,0,0,0,-5.965373,0,0,17.07163,-10.80473,136.468,0,18.1147,-11.55999,-1,0,0,0,0,0,-6.756756,0,0,57.36372,15.90016,0,30.58199,47.79974,1,0,0,0,0,-64.71698,0,0,66,0,0,194,2,229
116.6791,-54.73835,-114.8618,111.3587,-2.533477,-1,0,0,0,0,8.272669,-5.650325,51.45814,0,8.563534,-5.423284,-1,0,0,0,0,0,-7.607023,0,0,15.01736,-10.35946,139.6257,0,17.07163,-10.80473,-1,0,0,0,0,0,-6.113516,0,0,53.29617,16.69196,0,35.28302,52.1589,1,0,0,0,0,-58.88,0,0,66,0,0,195,2,229
136.9459,-129.4326,-109.983,116.6791,-54.73835,-1,0,0,0,0,7.802919,-5.523066,54.81672,0,7.802919,-5.650325,-1,0,0,0,0,0,-8.248911,0,0,14.87537,-9.748089,152.7968,0,14.87537,-10.35946,-1,0,0,0,0,0,-8.006618,0,0,46.77974,17.63798,0,45.43674,54.75631,1,0,0,0,0,-54.56326,0,0,66,0,0,196,2,229
154.9949,-54.93409,-106.0451,136.9459,-129.4326,-1,0,0,0,0,7.509647,-4.673778,51.70946,0,7.509647,-5.523066,-1,0,0,0,0,0,-8.097091,0,0,14.01193,-9.726303,159.9582,0,14.01193,-9.748089,-1,0,0,0,0,0,-7.513359,0,0,40.18586,18.02142,0,51.94968,57.85962,1,0,0,0,0,-48.05032,0,0,66,0,0,197,2,229
161.9544,17.53305,-98.17143,154.9949,-54.93409,1,0,0,0,0,6.52611,-3.147786,42.34698,0,7.509647,-4.673778,-1,0,0,0,0,0,-6.518264,0,0,12.85875,-9.490933,152.6733,0,14.01193,-9.726303,-1,0,0,0,0,0,-7.451567,0,0,33.73159,18.03129,0,51.94968,59.11747,1,0,0,0,0,-41.49171,0,0,66,0,0,198,2,229
157.8762,83.37218,-99.01961,161.9544,17.53305,1,0,0,0,0,6.15166,-2.000626,38.04458,0,6.52611,-3.147786,-1,0,0,0,0,0,-3.965688,0,0,10.88271,-9.253806,138.2984,0,12.85875,-9.490933,-1,0,0,0,0,0,-8.441111,0,0,29.3713,17.88095,0,58.50829,59.14985,1,0,0,0,0,-35.05315,0,0,66,0,0,199,2,229
156.4065,60.34185,-118.6873,157.8762,83.37218,1,0,0,0,0,6.372178,-1.440855,32.54544,0,6.372178,-2.000626,-1,0,0,0,0,0,-1.877604,0,0,11.03046,-8.870979,123.9096,0,11.03046,-9.253806,-1,0,0,0,0,0,-10,0,0,24.89655,17.95422,0,69.21792,58.65668,1,0,0,0,0,-30.78208,0,0,66,0,0,200,2,229
156.5864,75.49367,-129.5303,156.4065,60.34185,1,0,0,0,0,6.413251,-1.215283,25.72735,0,6.413251,-1.440855,-1,0,0,0,0,0,-0.8251195,0,0,9.854103,-9.027608,107.477,0,9.854103,-8.870979,-1,0,0,0,0,0,-10,0,0,19.93496,18.15579,0,73.32455,58.89704,1,0,0,0,0,-26.67544,0,0,66,0,0,201,2,229
