DateTime,MagYaw,YawVelocityDegreesPerSecond,YawIntegral,YawProportional,YawDerivativeError,YawControl,YawIntegralGain,YawDerivativeGain,YawProportionalGain,YawAntiWindupGain,XNEDBodyFrame,XVelocityMetersPerSecond,ThetaPitchDegrees,XIntegral,XProportional,XDerivativeError,LongitudeControl,XIntegralGain,XDerivativeGain,XProportionalGain,XAntiWindupGain,LongitudeInnerLoopGain,XLongitudeOuterLoopSetpoint,PitchAngularVelocityRadsPerSecond,PitchAngularVelocityGain,YNEDBodyFrame,YVelocityMetersPerSecond,PhiRollDegrees,YIntegral,YProportional,YDerivativeError,LateralControl,YIntegralGain,YDerivativeGain,YProportionalGain,YAntiWindupGain,LateralInnerLoopGain,YLateralOuterLoopSetpoint,RollAngularVelocityRadsPerSecond,RollAngularVelocityGain,AltitudeFeetAgl,ZVelocityMetersPerSecond,ZIntegral,ZProportional,ZDerivativeError,MainRotorCollectiveControl,ZIntegralGain,ZDerivativeGain,ZProportionalGain,ZAntiWindupGain,ZNEDBodyFrame,LatitudeDegrees,LongitudeDegrees,Timeouts,UnrecognizedMsgTypes,ChecksumErrors,NumOfBlownFrames,MessageType,NumOfBytesInMsg
09.39.04.275739, 275.7996,33.36857,0,0,0,0,0,0,0,0,0,-0.02158433,0.2359349,0,0,0,0,0,0,0,0,0,0,0,0,0,0.02412218,-0.6312408,0,0,0,0,0,0,0,0,0,0,0,0,0.09269971,8.874405E-05,0,0,0,0,0,0,0,0,0,0,0,291,0,0,0,2,229
09.39.04.308741, 279.8329,33.36625,-0.210501,-84.20041,33.36857,-1,0,0,0,0,0,-0.02232199,0.295448,0,0,-0.02158433,-0.008557866,0,0,0,0,0,-0.04012527,0,0,0,0.0243805,-0.5819261,0,0,0.02412218,0.06436859,0,0,0,0,0,0.06841774,0,0,0.09263258,0.0004321891,0.09999999,100,0.000291116,0.5,0,0,0,0,0,0,0,291,0,0,1,2,229
09.39.04.340742, 283.8744,33.38471,-0.4038158,-80.16708,33.36625,-1,0,0,0,0,0.02590984,-0.02313526,0.3500883,0,0,-0.02232199,-0.01044528,0,0,0,0,0,-0.04149659,0,0,0.2665623,0.02453222,-0.5332015,0,0,0.0243805,0.05989904,0,0,0,0,0,0.0691504,0,0,0.09254029,0.0006855458,0,100,0.001417753,0.5,0,0,0,0,-0.6544259,0,0,291,0,0,2,2,229
09.39.04.373744, 287.6161,33.47055,-0.5858386,-76.12558,33.38471,-1,0,0,0,0,0.02590984,-0.0238738,0.3970806,0,0.02590984,-0.02313526,-0.01195387,0,0,0,0,0,-0.03552051,0,0,0.2665623,0.02463792,-0.4840098,0,0.2665623,0.02453222,0.09069657,0,0,0,0,0,0.4526307,0,0,0.09260038,0.000314616,0,99.34557,0.002248864,0.5,0,0,0,0,-0.6544259,0,0,291,0,0,3,2,229
09.39.04.406746, 292.2972,33.64259,-0.9280059,-72.38394,33.47055,-1,0,0,0,0,0.02590984,-0.02479577,0.4502089,0,0.02590984,-0.0238738,-0.0134532,0,0,0,0,0,-0.03689345,0,0,0.2665623,0.02470814,-0.4220707,0,0.2665623,0.02463792,0.08619851,0,0,0,0,0,0.4529305,0,0,0.09263811,0.0003345284,0,99.34557,0.001032066,0.5,0,0,0,0,-0.6544259,0,0,291,0,0,4,2,229
09.39.04.440748, 295.8118,33.77111,-1.085169,-67.70276,33.64259,-1,0,0,0,0,0.02590984,-0.02548197,0.486458,0,0.02590984,-0.02479577,-0.0151533,0,0,0,0,0,-0.03860739,0,0,0.2665623,0.024741,-0.3727058,0,0.2665623,0.02470814,0.08051844,0,0,0,0,0,0.4531296,0,0,0.09247414,0.000528749,0,99.34557,0.001097387,0.5,0,0,0,0,-0.6544259,0,0,291,0,0,5,2,229
09.39.04.474750, 300.4201,33.95593,-1.232842,-64.18823,33.77111,-1,0,0,0,0,0.02590984,-0.02632401,0.527478,0,0.02590984,-0.02548197,-0.01631657,0,0,0,0,0,-0.03988304,0,0,0.2665623,0.02475173,-0.3025569,0,0.2665623,0.024741,0.07598543,0,0,0,0,0,0.4532228,0,0,0.0925701,0.0001010588,0,99.34557,0.001734508,0.5,0,0,0,0,-0.6544259,0,0,291,0,0,6,2,229
09.39.04.543754, 308.2371,86.79204,-1.368168,-59.5799,33.95593,-1,0,0,0,0,0.02590984,-0.1664271,0.6999665,0,0.02590984,-0.02632401,-0.01763672,0,0,0,0,0,-0.04144839,0,0,0.2665623,-0.1518807,-0.7687722,0,0.2665623,0.02475173,0.06953453,0,0,0,0,0,0.4532533,0,0,0.5633929,-1.601492,0,99.34557,0.0003315131,0.5,0,0,0,0,-0.6544259,0,0,291,0,0,7,2,229
09.39.04.649760, 320.9553,118.6575,-1.599908,-51.76288,86.79204,-1,0,0,0,0,-0.3006532,-0.2332191,1.26337,0,-0.3006532,-0.1664271,-0.03105786,0,0,0,0,0,-0.3962768,0,0,0.2433872,-0.2593814,-1.034604,0,0.2433872,-0.1518807,0.06633597,0,0,0,0,0,-0.08103168,0,0,1.224988,-1.754317,0,98.36817,-5.253533,0.5,0,0,0,0,-1.63183,0,0,291,0,0,8,2,229
09.39.04.748766, 331.7156,136.3154,-1.683402,-39.04468,118.6575,-1,0,0,0,0,-0.3730088,-0.2638476,1.78967,0,-0.3730088,-0.2332191,-0.05594643,0,0,0,0,0,-0.5413538,0,0,0.2984403,-0.3192768,-0.9026288,0,0.2984403,-0.2593814,0.06695567,0,0,0,0,0,-0.3068246,0,0,1.692251,-1.742056,0,97.6237,-5.75486,0.5,0,0,0,0,-2.376299,0,0,291,0,0,9,2,229
09.39.04.850772, 349.6179,159.266,-1.74204,-28.28439,136.3154,-1,0,0,0,0,-0.03521574,-0.2956679,2.601459,0,-0.3730088,-0.2638476,-0.07402682,0,0,0,0,0,-0.5982922,0,0,0.2984403,-0.3898968,-0.1986607,0,0.2984403,-0.3192768,0.03918489,0,0,0,0,0,-0.4767061,0,0,2.346882,-1.665619,0,97.6237,-5.714639,0.5,0,0,0,0,-2.744939,0,0,291,0,0,10,2,229
09.39.04.948777, 3.238148,173.8475,-1.757616,-10.38208,159.266,-1,0,0,0,0,-0.4600444,-0.311995,3.04974,0,-0.03521574,-0.2956679,-0.09799976,0,0,0,0,0,-0.559824,0,0,0.06375611,-0.4274736,0.6127834,0,0.2984403,-0.3898968,-0.04400771,0,0,0,0,0,-0.6770054,0,0,2.770123,-1.599633,0,97.25506,-5.463896,0.5,0,0,0,0,-3.812387,0,0,291,0,0,11,2,229
09.39.05.050783, 25.17866,194.8255,-1.730641,3.238148,173.8475,-1,0,0,0,0,-0.122251,-0.335445,3.316481,0,-0.122251,-0.311995,-0.1166434,0,0,0,0,0,-0.6153292,0,0,0.06375611,-0.4699265,2.129886,0,0.06375611,-0.4274736,-0.159492,0,0,0,0,0,-1.120826,0,0,3.355417,-1.498119,0,95.81897,-5.247436,0.5,0,0,0,0,-4.181027,0,0,291,0,0,12,2,229
09.39.05.148789, 40.99828,208.6609,-1.663876,25.17866,194.8255,-0.8749244,0,0,0,0,-0.02157903,-0.347139,3.109188,0,-0.02157903,-0.335445,-0.1223356,0,0,0,0,0,-0.6298285,0,0,-0.9155619,-0.4938183,3.060852,0,-0.9155619,-0.4699265,-0.4396129,0,0,0,0,0,-2.648515,0,0,3.720445,-1.431669,0,95.23306,-4.914429,0.5,0,0,0,0,-4.766946,0,0,291,0,0,13,2,229
09.39.05.248794, 68.32432,230.5137,-1.56138,40.99828,208.6609,-0.4572248,0,0,0,0,-0.02157903,-0.357136,2.061771,0,-0.02157903,-0.347139,-0.1165834,0,0,0,0,0,-0.6515677,0,0,-0.9155619,-0.5214065,3.7569,0,-0.9155619,-0.4938183,-0.5314961,0,0,0,0,0,-2.716279,0,0,4.266678,-1.330199,0,95.23306,-4.696445,0.5,0,0,0,0,-4.766946,0,0,291,0,0,14,2,229
09.39.05.349800, 87.88977,239.9956,-1.390569,68.32432,230.5137,0.2546531,0,0,0,0,0.06200695,-0.3570563,0.9891279,0,-0.02157903,-0.357136,-0.08468962,0,0,0,0,0,-0.6701521,0,0,-0.99379,-0.5269008,2.913306,0,-0.9155619,-0.5214065,-0.6027313,0,0,0,0,0,-2.794528,0,0,4.613143,-1.268853,0,95.23306,-4.363585,0.5,0,0,0,0,-5.368523,0,0,291,0,0,15,2,229
09.39.05.447806, 107.4531,230.7784,-0.9511203,87.88977,239.9956,1,0,0,0,0,0.06200695,-0.409931,-0.0538954,0,0.06200695,-0.3570563,-0.05068424,0,0,0,0,0,-0.6458477,0,0,-0.99379,-0.5377689,0.7125774,0,-0.99379,-0.5269008,-0.5368965,0,0,0,0,0,-2.922525,0,0,4.95154,-1.215062,0,94.63148,-4.162346,0.5,0,0,0,0,-5.368523,0,0,291,0,0,16,2,229
09.39.05.549812, 134.933,198.6096,-0.6831999,107.4531,230.7784,1,0,0,0,0,-0.0103488,-0.4873967,-0.9760603,0,-0.0103488,-0.409931,-0.02204587,0,0,0,0,0,-0.7650524,0,0,-0.9387367,-0.5745342,-4.478966,0,-0.9387367,-0.5377689,-0.329987,0,0,0,0,0,-2.874238,0,0,5.45082,-1.170972,0,93.88701,-3.985891,0.5,0,0,0,0,-6.112991,0,0,291,0,0,17,2,229
09.39.05.648817, 149.0172,144.7449,-0.3527196,134.933,198.6096,1,0,0,0,0,-0.4204977,-0.5593129,-1.185281,0,-0.0103488,-0.4873967,0.002076975,0,0,0,0,0,-0.9090611,0,0,-0.8836837,-0.6719962,-8.226894,0,-0.9387367,-0.5745342,0.1380414,0,0,0,0,0,-2.978516,0,0,5.793282,-1.17623,0,93.88701,-3.841257,0.5,0,0,0,0,-6.488819,0,0,291,0,0,18,2,229
09.39.05.750823, 159.6667,104.3648,0.005125551,149.0172,144.7449,1,0,0,0,0,-0.08270454,-0.5905393,-1.281213,0,-0.4204977,-0.5593129,0.0007438278,0,0,0,0,0,-1.161286,0,0,-0.8836837,-0.6869086,-11.5198,0,-0.8836837,-0.6719962,0.4646974,0,0,0,0,0,-3.175836,0,0,6.151777,-1.1892,0,93.51118,-3.858504,0.5,0,0,0,0,-6.85746,0,0,291,0,0,19,2,229
09.39.05.849829, 167.413,73.05254,0.7584066,159.6667,104.3648,1,0,0,0,0,-0.4928536,-0.6169903,-1.352938,0,-0.4928536,-0.5905393,0.00494446,0,0,0,0,0,-1.240247,0,0,-0.8286307,-0.6696248,-13.1879,0,-0.8286307,-0.6869086,0.7637535,0,0,0,0,0,-3.139021,0,0,6.5188,-1.191314,0,92.76671,-3.901052,0.5,0,0,0,0,-7.233288,0,0,291,0,0,20,2,229
09.39.05.948834, 172.7078,47.49142,1.148128,167.413,73.05254,1,0,0,0,0,-0.4092674,-0.6463058,-1.473762,0,-0.4092674,-0.6169903,0.002717917,0,0,0,0,0,-1.265263,0,0,-0.9068587,-0.650202,-12.43672,0,-0.9068587,-0.6696248,0.9186651,0,0,0,0,0,-3.202413,0,0,6.888762,-1.174975,0,92.16514,-3.907985,0.5,0,0,0,0,-7.834864,0,0,291,0,0,21,2,229
09.39.06.049840, 175.8668,26.78634,1.546279,172.7078,47.49142,1,0,0,0,0,-0.07147408,-0.6684633,-1.63807,0,-0.4092674,-0.6463058,0.004774031,0,0,0,0,0,-1.319761,0,0,-0.9068587,-0.6721902,-8.911367,0,-0.9068587,-0.650202,0.8546243,0,0,0,0,0,-3.147324,0,0,7.253747,-1.149808,0,92.16514,-3.854388,0.5,0,0,0,0,-8.203505,0,0,291,0,0,22,2,229
09.39.06.147846, 177.2144,9.83511,1.947793,175.8668,26.78634,1,0,0,0,0,-0.4816232,-0.6740848,-1.742677,0,-0.07147408,-0.6684633,0.01161696,0,0,0,0,0,-1.263329,0,0,-0.8518057,-0.7531593,-3.195923,0,-0.9068587,-0.6721902,0.5245544,0,0,0,0,0,-3.209689,0,0,7.602706,-1.113225,0,91.79649,-3.771832,0.5,0,0,0,0,-8.579332,0,0,291,0,0,23,2,229
09.39.06.249852, 177.0919,-4.768202,2.745076,177.2144,9.83511,1,0,0,0,0,-0.4816232,-0.6520922,-1.631423,0,-0.4816232,-0.6740848,0.0108613,0,0,0,0,0,-1.392313,0,0,-0.8518057,-0.9217778,4.120705,0,-0.8518057,-0.7531593,-0.01511628,0,0,0,0,0,-3.36023,0,0,7.938768,-1.06021,0,91.42067,-3.651822,0.5,0,0,0,0,-8.579332,0,0,291,0,0,24,2,229
09.39.06.347857, 175.87,-16.38957,3.137458,177.0919,-4.768202,1,0,0,0,0,-0.5539794,-0.6026222,-1.148301,0,-0.5539794,-0.6520922,0.008031604,0,0,0,0,0,-1.372339,0,0,-0.7967527,-1.172089,11.92659,0,-0.7967527,-0.9217778,-0.7249671,0,0,0,0,0,-3.759372,0,0,8.243253,-0.9830856,0,90.6762,-3.477913,0.5,0,0,0,0,-9.323802,0,0,291,0,0,25,2,229
09.39.06.449863, 173.8411,-25.76211,3.523128,175.87,-16.38957,1,0,0,0,0,-0.5539794,-0.533712,-0.1794374,0,-0.5539794,-0.6026222,-0.004094275,0,0,0,0,0,-1.280375,0,0,-0.7967527,-1.485677,19.02348,0,-0.7967527,-1.172089,-1,0,0,0,0,0,-4.469331,0,0,8.517261,-0.8777218,0,90.6762,-3.224914,0.5,0,0,0,0,-9.323802,0,0,291,0,0,26,2,229
09.39.06.548869, 171.2411,-32.97537,3.900286,173.8411,-25.76211,1,0,0,0,0,-1.145979,-0.4563836,1.259836,0,-0.5539794,-0.533712,-0.03015783,0,0,0,0,0,-1.152271,0,0,-0.8749809,-1.827407,23.87252,0,-0.7967527,-1.485677,-1,0,0,0,0,0,-5,0,0,8.754744,-0.7596465,0,90.6762,-2.879279,0.5,0,0,0,0,-9.188097,0,0,291,0,0,27,2,229
09.39.06.650875, 168.2361,-38.21017,4.632049,171.2411,-32.97537,1,0,0,0,0,-1.299514,-0.37503,3.078492,0,-1.299514,-0.4563836,-0.07562268,0,0,0,0,0,-1.223977,0,0,-1.932527,-2.180302,25.40386,0,-1.932527,-1.827407,-1,0,0,0,0,0,-5,0,0,8.956441,-0.6339484,0,89.99305,-2.491945,0.5,0,0,0,0,-10.00695,0,0,291,0,0,28,2,229
09.39.06.748880, 164.8815,-41.0075,4.985237,168.2361,-38.21017,1,0,0,0,0,-1.299514,-0.2889954,5.067324,0,-1.299514,-0.37503,-0.1286882,0,0,0,0,0,-1.07274,0,0,-1.932527,-2.539917,23.4146,0,-1.932527,-2.180302,-1,0,0,0,0,0,-5,0,0,9.122093,-0.5161813,0,89.99305,-2.079604,0.5,0,0,0,0,-10.00695,0,0,291,0,0,29,2,229
09.39.06.848886, 159.5661,-41.2159,5.327148,164.8815,-41.0075,1,0,0,0,0,-1.299514,-0.1476023,7.774945,0,-1.299514,-0.2889954,-0.1853839,0,0,0,0,0,-0.9128022,0,0,-1.932527,-3.001565,15.7767,0,-1.932527,-2.539917,-1,0,0,0,0,0,-5,0,0,9.335793,-0.4779248,0,89.99305,-1.693281,0.5,0,0,0,0,-10.00695,0,0,291,0,0,30,2,229
09.39.06.949892, 155.9499,-39.54031,5.653018,159.5661,-41.2159,1,0,0,0,0,-1.470136,-0.03302709,9.109778,0,-1.299514,-0.1476023,-0.2611718,0,0,0,0,0,-0.6499522,0,0,-2.088983,-3.211344,8.536485,0,-1.932527,-3.001565,-1,0,0,0,0,0,-5,0,0,9.501083,-0.5825553,0,89.99305,-1.567785,0.5,0,0,0,0,-10.84146,0,0,291,0,0,31,2,229
09.39.07.047897, 152.3843,-37.22321,6.279625,155.9499,-39.54031,1,0,0,0,0,-1.470136,0.1098714,9.881675,0,-1.470136,-0.03302709,-0.2974774,0,0,0,0,0,-0.4862666,0,0,-2.088983,-3.300339,0.1621515,0,-2.088983,-3.211344,-1,0,0,0,0,0,-5,0,0,9.724218,-0.7944431,0,89.15854,-1.911014,0.5,0,0,0,0,-10.84146,0,0,291,0,0,32,2,229
09.39.07.149903, 150.6304,-36.0568,6.579641,152.3843,-37.22321,1,0,0,0,0,-1.297108,0.1939555,10.01123,0,-1.297108,0.1098714,-0.3116209,0,0,0,0,0,-0.1706133,0,0,-3.123354,-3.287208,-4.371582,0,-3.123354,-3.300339,-0.4749179,0,0,0,0,0,-5,0,0,9.868382,-0.9342195,0,89.31709,-2.606091,0.5,0,0,0,0,-10.68291,0,0,291,0,0,33,2,229
09.39.07.247909, 147.2258,-34.26233,6.872892,150.6304,-36.0568,1,0,0,0,0,-0.9593148,0.3961249,9.684886,0,-1.297108,0.1939555,-0.3107916,0,0,0,0,0,-0.01430091,0,0,-3.123354,-3.121193,-13.9758,0,-3.123354,-3.287208,-0.0578145,0,0,0,0,0,-5,0,0,10.23758,-1.252458,0,89.31709,-3.064614,0.5,0,0,0,0,-11.05155,0,0,291,0,0,34,2,229
09.39.07.350915, 142.7055,-34.25348,7.155005,147.2258,-34.26233,1,0,0,0,0,-0.9593148,0.7535148,7.753929,0,-0.9593148,0.3961249,-0.2859977,0,0,0,0,0,0.4591542,0,0,-3.123354,-2.561795,-27.64587,0,-3.123354,-3.121193,0.8257735,0,0,0,0,0,-5,0,0,10.95516,-1.661268,0,88.94845,-4.108563,0.5,0,0,0,0,-11.05155,0,0,291,0,0,35,2,229
09.39.07.448920, 139.9783,-36.59861,7.690332,142.7055,-34.25348,1,0,0,0,0,-1.522998,0.998396,5.633505,0,-1.522998,0.7535148,-0.205542,0,0,0,0,0,0.9606375,0,0,-4.125847,-2.077209,-34.22431,0,-4.125847,-2.561795,1,0,0,0,0,0,-5,0,0,11.50637,-1.810735,0,87.75376,-5.449625,0.5,0,0,0,0,-12.24624,0,0,291,0,0,36,2,229
09.39.07.550926, 137.2063,-40.9415,7.947586,139.9783,-36.59861,1,0,0,0,0,-0.437263,1.206348,2.933701,0,-0.437263,0.998396,-0.1210195,0,0,0,0,0,1.729649,0,0,-4.1809,-1.632983,-36.53769,0,-4.1809,-2.077209,1,0,0,0,0,0,-5,0,0,12.08469,-1.846503,0,87.39231,-5.939935,0.5,0,0,0,0,-12.60769,0,0,291,0,0,37,2,229
09.39.07.648932, 133.9641,-47.48114,8.195879,137.2063,-40.9415,1,0,0,0,0,-0.5096188,1.391241,-0.1996343,0,-0.437263,1.206348,-0.02534153,0,0,0,0,0,2.116232,0,0,-4.125847,-1.204657,-34.40952,0,-4.1809,-1.632983,1,0,0,0,0,0,-5,0,0,12.6689,-1.813969,0,87.39231,-6.05727,0.5,0,0,0,0,-13.35216,0,0,291,0,0,38,2,229
09.39.07.748937, 129.8939,-56.96624,8.434168,133.9641,-47.48114,1,0,0,0,0,-0.581975,1.516162,-3.56607,0,-0.5096188,1.391241,0.08179882,0,0,0,0,0,2.439037,0,0,-4.070794,-0.8672732,-29.2233,0,-4.125847,-1.204657,1,0,0,0,0,0,-5,0,0,13.22447,-1.741092,0,86.64784,-5.950544,0.5,0,0,0,0,-14.09663,0,0,291,0,0,39,2,229
09.39.07.849943, 124.5469,-69.12169,8.885689,129.8939,-56.96624,1,0,0,0,0,-0.2270947,1.564754,-6.969596,0,-0.2270947,1.516162,0.1927092,0,0,0,0,0,2.752915,0,0,-4.971884,-0.6249011,-21.80856,0,-4.971884,-0.8672732,1,0,0,0,0,0,-5,0,0,13.75372,-1.678903,0,85.55038,-5.711479,0.5,0,0,0,0,-14.44961,0,0,291,0,0,40,2,229
09.39.07.947949, 117.6566,-82.84244,9.095153,124.5469,-69.12169,1,0,0,0,0,-0.1435089,1.519284,-9.949772,0,-0.1435089,1.564754,0.304947,0,0,0,0,0,2.867404,0,0,-5.050111,-0.4704821,-12.68408,0,-5.050111,-0.6249011,1,0,0,0,0,0,-5,0,0,14.26164,-1.655005,0,84.94881,-5.507475,0.5,0,0,0,0,-15.05119,0,0,291,0,0,41,2,229
09.39.08.049955, 105.3125,-102.7517,9.286488,117.6566,-82.84244,1,0,0,0,0,-0.2158651,1.250716,-12.3672,0,-0.1435089,1.519284,0.394712,0,0,0,0,0,2.782874,0,0,-4.995059,-0.3742086,2.36406,0,-5.050111,-0.4704821,0.7069355,0,0,0,0,0,-5,0,0,14.96477,-1.686957,0,84.94881,-5.429077,0.5,0,0,0,0,-15.79566,0,0,291,0,0,42,2,229
09.39.08.148960, 90.89128,-120.2054,9.446548,105.3125,-102.7517,1,0,0,0,0,-0.2158651,0.7218913,-11.19358,0,-0.2158651,1.250716,0.4535266,0,0,0,0,0,2.262695,0,0,-4.995059,-0.3926792,18.65385,0,-4.995059,-0.3742086,-0.6774935,0,0,0,0,0,-5,0,0,15.65434,-1.710917,0,84.20435,-5.533893,0.5,0,0,0,0,-15.79566,0,0,291,0,0,43,2,229
09.39.08.250966, 80.98466,-129.4433,9.698289,90.89128,-120.2054,1,0,0,0,0,0.1219287,0.2320835,-7.981582,0,0.1219287,0.7218913,0.386669,0,0,0,0,0,1.377233,0,0,-4.995059,-0.432993,29.24277,0,-4.995059,-0.3926792,-1,0,0,0,0,0,-5,0,0,16.09592,-1.658379,0,83.83571,-5.612492,0.5,0,0,0,0,-16.1643,0,0,291,0,0,44,2,229
09.39.08.348972, 66.77482,-139.4097,9.798977,80.98466,-129.4433,1,0,0,0,0,0.04957294,-0.4880861,0.1786265,0,0.04957294,0.2320835,0.2612479,0,0,0,0,0,0.4457697,0,0,-4.940005,-0.4479051,38.68781,0,-4.940005,-0.432993,-1,0,0,0,0,0,-5,0,0,16.70408,-1.478311,0,83.09123,-5.440147,0.5,0,0,0,0,-16.90877,0,0,291,0,0,45,2,229
09.39.08.450977, 57.51267,-144.4835,9.865117,66.77482,-139.4097,1,0,0,0,0,0.1331587,-1.000225,7.174851,0,0.04957294,-0.4880861,-0.03322121,0,0,0,0,0,-0.8930254,0,0,-5.018234,-0.4319937,39.97802,0,-4.940005,-0.4479051,-1,0,0,0,0,0,-5,0,0,17.05492,-1.272136,0,83.09123,-4.849451,0.5,0,0,0,0,-17.51034,0,0,291,0,0,46,2,229
09.39.08.548983, 47.65428,-147.5977,9.910232,57.51267,-144.4835,1,0,0,0,0,0.1331587,-1.515808,15.00416,0,0.1331587,-1.000225,-0.2788694,0,0,0,0,0,-1.820936,0,0,-5.018234,-0.3935021,37.45402,0,-5.018234,-0.4319937,-1,0,0,0,0,0,-5,0,0,17.35719,-1.025946,0,82.48965,-4.173116,0.5,0,0,0,0,-17.51034,0,0,291,0,0,47,2,229
09.39.08.647989, 31.38624,-149.2671,9.955511,47.65428,-147.5977,1,0,0,0,0,-0.3493462,-2.215349,26.09297,0,-0.3493462,-1.515808,-0.5512905,0,0,0,0,0,-2.918847,0,0,-4.908128,-0.346293,27.03508,0,-4.908128,-0.3935021,-1,0,0,0,0,0,-5,0,0,17.68583,-0.6795736,0,81.36936,-3.365515,0.5,0,0,0,0,-18.63064,0,0,291,0,0,48,2,229
09.39.08.749995, 18.58766,-149.8721,9.938073,31.38624,-149.2671,1,0,0,0,0,-0.3493462,-2.63078,31.69118,0,-0.3493462,-2.215349,-0.9396802,0,0,0,0,0,-4.219295,0,0,-4.908128,-0.3564059,15.78036,0,-4.908128,-0.346293,-1,0,0,0,0,0,-5,0,0,17.83726,-0.5011597,0,81.36936,-2.229273,0.5,0,0,0,0,-18.63064,0,0,291,0,0,49,2,229
09.39.08.848000, 3.649324,-151.0311,9.891845,18.58766,-149.8721,1,0,0,0,0,-0.2657595,-3.019677,34.65703,0,-0.3493462,-2.63078,-1,0,0,0,0,0,-4.991582,0,0,-4.986355,-0.4382113,1.158797,0,-4.908128,-0.3564059,-1,0,0,0,0,0,-5,0,0,17.95262,-0.3686726,0,81.36936,-1.644004,0.5,0,0,0,0,-19.23222,0,0,291,0,0,50,2,229
09.39.08.950006, 340.4682,-156.6662,9.811108,3.649324,-151.0311,1,0,0,0,0,-0.2657595,-3.533595,32.19563,0,-0.2657595,-3.019677,-1,0,0,0,0,0,-5.690383,0,0,-4.986355,-0.7466344,-22.80637,0,-4.986355,-0.4382113,-0.5666093,0,0,0,0,0,-5,0,0,18.05921,-0.1856024,0,80.76778,-1.209394,0.5,0,0,0,0,-19.23222,0,0,291,0,0,51,2,229
09.39.09.048012, 321.5391,-169.3307,9.546625,-19.53183,-156.6662,1,0,0,0,0,-1.449761,-3.938697,22.14467,0,-1.449761,-3.533595,-1,0,0,0,0,0,-6.987933,0,0,-5.142812,-1.210696,-42.69561,0,-5.142812,-0.7466344,1,0,0,0,0,0,-5,0,0,18.06019,0.1169196,0,81.0392,-0.6088501,0.5,0,0,0,0,-18.9608,0,0,291,0,0,52,2,229
09.39.09.151018, 311.1574,-181.8792,9.371219,-38.46094,-169.3307,1,0,0,0,0,-1.85991,-4.165902,11.97819,0,-1.85991,-3.938697,-0.9301309,0,0,0,0,0,-7.859551,0,0,-5.087758,-1.547033,-52.86052,0,-5.087758,-1.210696,1,0,0,0,0,0,-5,0,0,17.96796,0.4320136,0,80.66337,0.383543,0.5,0,0,0,0,-19.33663,0,0,291,0,0,53,2,229
09.39.09.249023, 302.3222,-196.6015,9.175319,-48.84262,-181.8792,1,0,0,0,0,-2.114118,-4.376431,-0.1081367,0,-1.85991,-4.165902,-0.6280636,0,0,0,0,0,-8.281926,0,0,-5.165987,-1.8714,-57.74563,0,-5.087758,-1.547033,1,0,0,0,0,0,-5,0,0,17.81099,0.6731117,0,80.66337,1.417178,0.5,0,0,0,0,-19.56957,0,0,291,0,0,54,2,229
09.39.09.348029, 284.7359,-232.1626,8.961416,-57.67776,-196.6015,1,0,0,0,0,-2.451911,-4.639383,-26.8206,0,-2.114118,-4.376431,-0.2677975,0,0,0,0,0,-8.746765,0,0,-5.165987,-2.483916,-52.06906,0,-5.165987,-1.8714,1,0,0,0,0,0,-5,0,0,17.29242,1.316182,0,80.43044,2.208076,0.5,0,0,0,0,-19.20093,0,0,291,0,0,55,2,229
09.39.09.450035, 263.2068,-259.8742,8.460091,-75.26407,-232.1626,1,0,0,0,0,-3.052735,-4.731317,-46.76544,0,-3.052735,-4.639383,0.5421088,0,0,0,0,0,-9.506853,0,0,-6.411867,-3.040006,-32.81023,0,-6.411867,-2.483916,1,0,0,0,0,0,-5,0,0,16.73798,1.752219,0,81.60486,4.317605,0.5,0,0,0,0,-18.39514,0,0,291,0,0,56,2,229
09.39.09.548040, 219.0432,-278.4215,8.161269,-96.79315,-259.8742,1,0,0,0,0,-3.728321,-4.746722,-57.57925,0,-3.728321,-4.731317,1,0,0,0,0,0,-9.873003,0,0,-6.411867,-3.754193,11.75204,0,-6.411867,-3.040006,1,0,0,0,0,0,-5,0,0,16.02775,2.233545,0,82.34214,5.747978,0.5,0,0,0,0,-17.65786,0,0,291,0,0,57,2,229
09.39.09.652046, 219.0432,-278.4215,7.759463,-140.9568,-278.4215,1,0,0,0,0,-3.811907,-4.746722,-57.57925,0,-3.728321,-4.746722,1,0,0,0,0,0,-9.901642,0,0,-6.333639,-3.754193,11.75204,0,-6.411867,-3.754193,-1,0,0,0,0,0,-5,0,0,16.02775,2.233545,0,82.34214,7.326921,0.5,0,0,0,0,-17.05628,0,0,292,0,0,58,2,229
09.39.09.736051, 163.2883,-269.4011,7.370141,-140.9568,-278.4215,1,0,0,0,0,-3.811907,-4.696797,-33.01824,0,-3.811907,-4.746722,1,0,0,0,0,0,-9.925797,0,0,-6.333639,-4.8144,71.52608,0,-6.333639,-3.754193,-1,0,0,0,0,0,-5,0,0,14.52989,3.318937,0,82.94372,7.326921,0.5,0,0,0,0,-17.05628,0,0,292,0,0,59,2,229
09.39.09.834057, 154.8389,-250.79,8.06041,163.2883,-269.4011,1,0,0,0,0,-4.398051,-4.742765,-17.29634,0,-4.398051,-4.696797,0.7187429,0,0,0,0,0,-10.00238,0,0,-7.289782,-4.985526,82.17899,0,-7.289782,-4.8144,-1,0,0,0,0,0,-5,0,0,13.69284,3.895496,0,84.44112,10.88744,0.5,0,0,0,0,-15.55888,0,0,292,0,0,60,2,229
09.39.09.936062, 147.0207,-204.8711,8.35122,154.8389,-250.79,1,0,0,0,0,-5.001281,-4.825969,8.910288,0,-5.001281,-4.742765,0.2180593,0,0,0,0,0,-10.26217,0,0,-7.344835,-5.018635,90.15866,0,-7.344835,-4.985526,-1,0,0,0,0,0,-5,0,0,11.83627,5.002974,0,85.92287,12.77879,0.5,0,0,0,0,-14.07713,0,0,292,0,0,61,2,229
09.39.10.035068, 144.0618,-171.6425,8.620829,147.0207,-204.8711,1,0,0,0,0,-5.997574,-4.844032,24.34812,0,-5.001281,-4.825969,-0.5991412,0,0,0,0,0,-10.41685,0,0,-8.245924,-4.862466,91.54842,0,-7.344835,-5.018635,-1,0,0,0,0,0,-5,0,0,10.26425,5.742403,0,85.92287,16.41176,0.5,0,0,0,0,-12.95555,0,0,292,0,0,62,2,229
09.39.10.137074, 141.6071,-140.2827,8.881024,144.0618,-171.6425,1,0,0,0,0,-6.008804,-4.845608,37.55209,0,-5.997574,-4.844032,-1,0,0,0,0,0,-10.73835,0,0,-8.22275,-4.695541,90.29824,0,-8.245924,-4.862466,-1,0,0,0,0,0,-5,0,0,8.427033,6.453939,0,87.04445,18.83738,0.5,0,0,0,0,-11.60951,0,0,292,0,0,63,2,229
09.39.10.235080, 135.7561,-103.7294,9.381345,141.6071,-140.2827,1,0,0,0,0,-6.103621,-4.899286,52.31486,0,-6.103621,-4.845608,-1,0,0,0,0,0,-10.77193,0,0,-8.121346,-4.859827,81.92316,0,-8.121346,-4.695541,-1,0,0,0,0,0,-5,0,0,5.401234,7.406013,0,90.33811,21.1715,0.5,0,0,0,0,-9.661885,0,0,292,0,0,64,2,229
09.39.10.333085, 125.5354,-80.53101,9.613098,135.7561,-103.7294,1,0,0,0,0,-7.038788,-5.001578,61.36329,0,-7.038788,-4.899286,-1,0,0,0,0,0,-11.14198,0,0,-9.054315,-5.534966,66.03526,0,-9.054315,-4.859827,-1,0,0,0,0,0,-5,0,0,2.416527,8.102292,0,93.55021,24.29469,0.5,0,0,0,0,-6.449794,0,0,292,0,0,65,2,229
09.39.10.436091, 120.9969,-74.78434,9.817455,125.5354,-80.53101,1,0,0,0,0,-7.324279,-5.031396,63.3463,0,-7.038788,-5.001578,-1,0,0,0,0,0,-11.33214,0,0,-10.25384,-5.839728,59.21891,0,-9.054315,-5.534966,-1,0,0,0,0,0,-5,0,0,1.441266,8.273629,0,93.55021,26.57876,0.5,0,0,0,0,-3.320557,0,0,292,0,0,66,2,229
09.39.10.534097, 120.9969,-74.78434,10.00992,120.9969,-74.78434,1,0,0,0,0,-7.407865,-5.031396,63.3463,0,-7.324279,-5.031396,-1,0,0,0,0,0,-11.47008,0,0,-10.17562,-5.839728,59.21891,0,-10.25384,-5.839728,-1,0,0,0,0,0,-5,0,0,1.441266,8.273629,0,96.67944,27.14081,0.5,0,0,0,0,-2.718982,0,0,292,0,0,67,2,229
09.39.10.636102, 120.9969,-74.78434,10.39058,120.9969,-74.78434,1,0,0,0,0,-7.407865,-5.031396,63.3463,0,-7.407865,-5.031396,-1,0,0,0,0,0,-11.49424,0,0,-10.17562,-5.839728,59.21891,0,-10.17562,-5.839728,-1,0,0,0,0,0,-5,0,0,1.441266,8.273629,0,97.28102,27.14081,0.5,0,0,0,0,-2.718982,0,0,292,0,0,68,2,229
09.39.10.734108, 120.9969,-74.78434,10.57806,120.9969,-74.78434,1,0,0,0,0,-7.407865,-5.031396,63.3463,0,-7.407865,-5.031396,-1,0,0,0,0,0,-11.49424,0,0,-10.17562,-5.839728,59.21891,0,-10.17562,-5.839728,-1,0,0,0,0,0,-5,0,0,1.441266,8.273629,0,97.28102,27.14081,0.5,0,0,0,0,-2.718982,0,0,292,0,0,69,2,229
09.39.10.837114, 120.9969,-74.78434,10.76367,120.9969,-74.78434,1,0,0,0,0,-7.407865,-5.031396,63.3463,0,-7.407865,-5.031396,-1,0,0,0,0,0,-11.49424,0,0,-10.17562,-5.839728,59.21891,0,-10.17562,-5.839728,-1,0,0,0,0,0,-5,0,0,1.441266,8.273629,0,97.28102,27.14081,0.5,0,0,0,0,-2.718982,0,0,292,0,0,70,2,229
09.39.10.935120, 120.9969,-74.78434,10.94742,120.9969,-74.78434,1,0,0,0,0,-7.407865,-5.031396,63.3463,0,-7.407865,-5.031396,-1,0,0,0,0,0,-11.49424,0,0,-10.17562,-5.839728,59.21891,0,-10.17562,-5.839728,-1,0,0,0,0,0,-5,0,0,1.441266,8.273629,0,97.28102,27.14081,0.5,0,0,0,0,-2.718982,0,0,292,0,0,71,2,229
09.39.11.037125, 120.9969,-74.78434,11.30942,120.9969,-74.78434,1,0,0,0,0,-7.407865,-5.031396,63.3463,0,-7.407865,-5.031396,-1,0,0,0,0,0,-11.49424,0,0,-10.17562,-5.839728,59.21891,0,-10.17562,-5.839728,-1,0,0,0,0,0,-5,0,0,1.441266,8.273629,0,97.28102,27.14081,0.5,0,0,0,0,-2.718982,0,0,292,0,0,72,2,229
09.39.11.135131, 120.9969,-74.78434,11.48771,120.9969,-74.78434,1,0,0,0,0,-7.407865,-5.031396,63.3463,0,-7.407865,-5.031396,-1,0,0,0,0,0,-11.49424,0,0,-10.17562,-5.839728,59.21891,0,-10.17562,-5.839728,-1,0,0,0,0,0,-5,0,0,1.441266,8.273629,0,97.28102,27.14081,0.5,0,0,0,0,-2.718982,0,0,292,0,0,73,2,229
09.39.11.233137, 120.9969,-74.78434,11.66422,120.9969,-74.78434,1,0,0,0,0,-7.407865,-5.031396,63.3463,0,-7.407865,-5.031396,-1,0,0,0,0,0,-11.49424,0,0,-10.17562,-5.839728,59.21891,0,-10.17562,-5.839728,-1,0,0,0,0,0,-5,0,0,1.441266,8.273629,0,97.28102,27.14081,0.5,0,0,0,0,-2.718982,0,0,292,0,0,74,2,229
09.39.11.336142, 120.9969,-74.78434,11.83897,120.9969,-74.78434,1,0,0,0,0,-7.407865,-5.031396,63.3463,0,-7.407865,-5.031396,-1,0,0,0,0,0,-11.49424,0,0,-10.17562,-5.839728,59.21891,0,-10.17562,-5.839728,-1,0,0,0,0,0,-5,0,0,1.441266,8.273629,0,97.28102,27.14081,0.5,0,0,0,0,-2.718982,0,0,292,0,0,75,2,229
09.39.11.434148, 120.9969,-74.78434,12.18323,120.9969,-74.78434,1,0,0,0,0,-7.407865,-5.031396,63.3463,0,-7.407865,-5.031396,-1,0,0,0,0,0,-11.49424,0,0,-10.17562,-5.839728,59.21891,0,-10.17562,-5.839728,-1,0,0,0,0,0,-5,0,0,1.441266,8.273629,0,97.28102,27.14081,0.5,0,0,0,0,-2.718982,0,0,292,0,0,76,2,229
09.39.11.536154, 120.9969,-74.78434,12.35278,120.9969,-74.78434,1,0,0,0,0,-7.407865,-5.031396,63.3463,0,-7.407865,-5.031396,-1,0,0,0,0,0,-11.49424,0,0,-10.17562,-5.839728,59.21891,0,-10.17562,-5.839728,-1,0,0,0,0,0,-5,0,0,1.441266,8.273629,0,97.28102,27.14081,0.5,0,0,0,0,-2.718982,0,0,292,0,0,77,2,229
09.39.11.634160, 120.9969,-74.78434,12.52064,120.9969,-74.78434,1,0,0,0,0,-7.407865,-5.031396,63.3463,0,-7.407865,-5.031396,-1,0,0,0,0,0,-11.49424,0,0,-10.17562,-5.839728,59.21891,0,-10.17562,-5.839728,-1,0,0,0,0,0,-5,0,0,1.441266,8.273629,0,97.28102,27.14081,0.5,0,0,0,0,-2.718982,0,0,292,0,0,78,2,229
09.39.11.737165, 120.9969,-74.78434,12.68682,120.9969,-74.78434,1,0,0,0,0,-7.407865,-5.031396,63.3463,0,-7.407865,-5.031396,-1,0,0,0,0,0,-11.49424,0,0,-10.17562,-5.839728,59.21891,0,-10.17562,-5.839728,-1,0,0,0,0,0,-5,0,0,1.441266,8.273629,0,97.28102,27.14081,0.5,0,0,0,0,-2.718982,0,0,292,0,0,79,2,229
09.39.11.835171, 120.9969,-74.78434,13.01421,120.9969,-74.78434,1,0,0,0,0,-7.407865,-5.031396,63.3463,0,-7.407865,-5.031396,-1,0,0,0,0,0,-11.49424,0,0,-10.17562,-5.839728,59.21891,0,-10.17562,-5.839728,-1,0,0,0,0,0,-5,0,0,1.441266,8.273629,0,97.28102,27.14081,0.5,0,0,0,0,-2.718982,0,0,292,0,0,80,2,229
09.39.11.934177, 120.9969,-74.78434,13.17546,120.9969,-74.78434,1,0,0,0,0,-7.407865,-5.031396,63.3463,0,-7.407865,-5.031396,-1,0,0,0,0,0,-11.49424,0,0,-10.17562,-5.839728,59.21891,0,-10.17562,-5.839728,-1,0,0,0,0,0,-5,0,0,1.441266,8.273629,0,97.28102,27.14081,0.5,0,0,0,0,-2.718982,0,0,292,0,0,81,2,229
09.39.12.035182, 120.9969,-74.78434,13.33509,120.9969,-74.78434,1,0,0,0,0,-7.407865,-5.031396,63.3463,0,-7.407865,-5.031396,-1,0,0,0,0,0,-11.49424,0,0,-10.17562,-5.839728,59.21891,0,-10.17562,-5.839728,-1,0,0,0,0,0,-5,0,0,1.441266,8.273629,0,97.28102,27.14081,0.5,0,0,0,0,-2.718982,0,0,292,0,0,82,2,229
09.39.12.133188, 120.9969,-74.78434,13.49312,120.9969,-74.78434,1,0,0,0,0,-7.407865,-5.031396,63.3463,0,-7.407865,-5.031396,-1,0,0,0,0,0,-11.49424,0,0,-10.17562,-5.839728,59.21891,0,-10.17562,-5.839728,-1,0,0,0,0,0,-5,0,0,1.441266,8.273629,0,97.28102,27.14081,0.5,0,0,0,0,-2.718982,0,0,292,0,0,83,2,229
09.39.12.236194, 120.9969,-74.78434,13.80447,120.9969,-74.78434,1,0,0,0,0,-7.407865,-5.031396,63.3463,0,-7.407865,-5.031396,-1,0,0,0,0,0,-11.49424,0,0,-10.17562,-5.839728,59.21891,0,-10.17562,-5.839728,-1,0,0,0,0,0,-5,0,0,1.441266,8.273629,0,97.28102,27.14081,0.5,0,0,0,0,-2.718982,0,0,292,0,0,84,2,229
09.39.12.334200, 120.9969,-74.78434,13.95781,120.9969,-74.78434,1,0,0,0,0,-7.407865,-5.031396,63.3463,0,-7.407865,-5.031396,-1,0,0,0,0,0,-11.49424,0,0,-10.17562,-5.839728,59.21891,0,-10.17562,-5.839728,-1,0,0,0,0,0,-5,0,0,1.441266,8.273629,0,97.28102,27.14081,0.5,0,0,0,0,-2.718982,0,0,292,0,0,85,2,229
09.39.12.436205, 120.9969,-74.78434,14.10962,120.9969,-74.78434,1,0,0,0,0,-7.407865,-5.031396,63.3463,0,-7.407865,-5.031396,-1,0,0,0,0,0,-11.49424,0,0,-10.17562,-5.839728,59.21891,0,-10.17562,-5.839728,-1,0,0,0,0,0,-5,0,0,1.441266,8.273629,0,97.28102,27.14081,0.5,0,0,0,0,-2.718982,0,0,292,0,0,86,2,229
09.39.12.534211, 120.9969,-74.78434,14.25991,120.9969,-74.78434,1,0,0,0,0,-7.407865,-5.031396,63.3463,0,-7.407865,-5.031396,-1,0,0,0,0,0,-11.49424,0,0,-10.17562,-5.839728,59.21891,0,-10.17562,-5.839728,-1,0,0,0,0,0,-5,0,0,1.441266,8.273629,0,97.28102,27.14081,0.5,0,0,0,0,-2.718982,0,0,292,0,0,87,2,229
09.39.12.634217, 120.9969,-74.78434,14.55599,120.9969,-74.78434,1,0,0,0,0,-7.407865,-5.031396,63.3463,0,-7.407865,-5.031396,-1,0,0,0,0,0,-11.49424,0,0,-10.17562,-5.839728,59.21891,0,-10.17562,-5.839728,-1,0,0,0,0,0,-5,0,0,1.441266,8.273629,0,97.28102,27.14081,0.5,0,0,0,0,-2.718982,0,0,292,0,0,88,2,229
09.39.12.735223, 120.9969,-74.78434,14.70182,120.9969,-74.78434,1,0,0,0,0,-7.407865,-5.031396,63.3463,0,-7.407865,-5.031396,-1,0,0,0,0,0,-11.49424,0,0,-10.17562,-5.839728,59.21891,0,-10.17562,-5.839728,-1,0,0,0,0,0,-5,0,0,1.441266,8.273629,0,97.28102,27.14081,0.5,0,0,0,0,-2.718982,0,0,292,0,0,89,2,229
09.39.12.833228, 120.9969,-74.78434,14.84619,120.9969,-74.78434,1,0,0,0,0,-7.407865,-5.031396,63.3463,0,-7.407865,-5.031396,-1,0,0,0,0,0,-11.49424,0,0,-10.17562,-5.839728,59.21891,0,-10.17562,-5.839728,-1,0,0,0,0,0,-5,0,0,1.441266,8.273629,0,97.28102,27.14081,0.5,0,0,0,0,-2.718982,0,0,292,0,0,90,2,229
09.39.12.935234, 120.9969,-74.78434,14.98911,120.9969,-74.78434,1,0,0,0,0,-7.407865,-5.031396,63.3463,0,-7.407865,-5.031396,-1,0,0,0,0,0,-11.49424,0,0,-10.17562,-5.839728,59.21891,0,-10.17562,-5.839728,-1,0,0,0,0,0,-5,0,0,1.441266,8.273629,0,97.28102,27.14081,0.5,0,0,0,0,-2.718982,0,0,292,0,0,91,2,229
09.39.13.033240, 120.9969,-74.78434,15.27069,120.9969,-74.78434,1,0,0,0,0,-7.407865,-5.031396,63.3463,0,-7.407865,-5.031396,-1,0,0,0,0,0,-11.49424,0,0,-10.17562,-5.839728,59.21891,0,-10.17562,-5.839728,-1,0,0,0,0,0,-5,0,0,1.441266,8.273629,0,97.28102,27.14081,0.5,0,0,0,0,-2.718982,0,0,292,0,0,92,2,229
09.39.13.136245, 120.9969,-74.78434,15.40936,120.9969,-74.78434,1,0,0,0,0,-7.407865,-5.031396,63.3463,0,-7.407865,-5.031396,-1,0,0,0,0,0,-11.49424,0,0,-10.17562,-5.839728,59.21891,0,-10.17562,-5.839728,-1,0,0,0,0,0,-5,0,0,1.441266,8.273629,0,97.28102,27.14081,0.5,0,0,0,0,-2.718982,0,0,292,0,0,93,2,229
09.39.13.234251, 120.9969,-74.78434,15.54666,120.9969,-74.78434,1,0,0,0,0,-7.407865,-5.031396,63.3463,0,-7.407865,-5.031396,-1,0,0,0,0,0,-11.49424,0,0,-10.17562,-5.839728,59.21891,0,-10.17562,-5.839728,-1,0,0,0,0,0,-5,0,0,1.441266,8.273629,0,97.28102,27.14081,0.5,0,0,0,0,-2.718982,0,0,292,0,0,94,2,229
09.39.13.336257, 120.9969,-74.78434,15.68258,120.9969,-74.78434,1,0,0,0,0,-7.407865,-5.031396,63.3463,0,-7.407865,-5.031396,-1,0,0,0,0,0,-11.49424,0,0,-10.17562,-5.839728,59.21891,0,-10.17562,-5.839728,-1,0,0,0,0,0,-5,0,0,1.441266,8.273629,0,97.28102,27.14081,0.5,0,0,0,0,-2.718982,0,0,292,0,0,95,2,229
09.39.13.435263, 120.9969,-74.78434,15.95035,120.9969,-74.78434,1,0,0,0,0,-7.407865,-5.031396,63.3463,0,-7.407865,-5.031396,-1,0,0,0,0,0,-11.49424,0,0,-10.17562,-5.839728,59.21891,0,-10.17562,-5.839728,-1,0,0,0,0,0,-5,0,0,1.441266,8.273629,0,97.28102,27.14081,0.5,0,0,0,0,-2.718982,0,0,292,0,0,96,2,229
09.39.13.537268, 154.0443,-26.65733,16.08223,120.9969,-74.78434,1,0,0,0,0,-7.407865,0.0004665071,1.178782,0,-7.407865,-5.031396,-1,0,0,0,0,0,-11.49424,0,0,-10.17562,-0.07798351,-0.1260285,0,-10.17562,-5.839728,-1,0,0,0,0,0,-5,0,0,0.2280883,-1.654176,0,97.28102,27.14081,0.5,0,0,0,0,-2.718982,0,0,292,0,0,97,2,229
09.39.13.664276, 154.0443,-26.65733,16.29542,154.0443,-26.65733,1,0,0,0,0,0.455552,0.0004665071,1.178782,0,-7.407865,0.0004665071,-0.1028824,0,0,0,0,0,-2.140006,0,0,-1.880408,-0.07798351,-0.1260285,0,-10.17562,-0.07798351,-0.4484054,0,0,0,0,0,-5,0,0,0.2280883,-1.654176,0,97.28102,-5.426361,0.5,0,0,0,0,-0.938903,0,0,293,0,0,98,2,229
09.39.13.733280, 141.8717,-90.79263,16.49956,154.0443,-26.65733,1,0,0,0,0,0.455552,-0.1626032,-2.30084,0,0.455552,0.0004665071,-0.03243407,0,0,0,0,0,0.1325218,0,0,-1.880408,-0.05711878,-6.581558,0,-1.880408,-0.07798351,-0.2573518,0,0,0,0,0,-2.923331,0,0,1.342337,-1.910961,0,99.0611,-5.426361,0.5,0,0,0,0,-0.938903,0,0,293,0,0,99,2,229
09.39.13.835285, 131.9799,-115.8403,16.84451,141.8717,-90.79263,1,0,0,0,0,0.3685166,-0.2223692,-5.945401,0,0.3685166,-0.1626032,0.06603667,0,0,0,0,0,-0.1957781,0,0,-2.115092,0.05784879,-11.12966,0,-2.115092,-0.05711878,0.3420013,0,0,0,0,0,-3.201393,0,0,1.917616,-1.857423,0,97.62501,-6.268716,0.5,0,0,0,0,-2.374991,0,0,293,0,0,100,2,229
09.39.13.934291, 113.5464,-145.2549,16.99131,131.9799,-115.8403,1,0,0,0,0,0.7063097,-0.2520909,-12.03431,0,0.7063097,-0.2223692,0.1778203,0,0,0,0,0,-0.2092608,0,0,-2.115092,0.3498648,-15.44837,0,-2.115092,0.05784879,0.7594,0,0,0,0,0,-2.875311,0,0,2.731515,-1.70604,0,97.25637,-6.093091,0.5,0,0,0,0,-2.743631,0,0,293,0,0,101,2,229
09.39.14.036297, 94.77628,-160.1993,17.09282,113.5464,-145.2549,1,0,0,0,0,0.633954,-0.2670846,-16.99902,0,0.7063097,-0.2520909,0.3648638,0,0,0,0,0,-0.2645135,0,0,-2.060039,0.6495585,-14.14303,0,-2.115092,0.3498648,1,0,0,0,0,0,-2.047066,0,0,3.365492,-1.530694,0,97.25637,-5.596494,0.5,0,0,0,0,-3.4881,0,0,293,0,0,102,2,229
09.39.14.134303, 82.1291,-165.2213,17.15027,94.77628,-160.1993,1,0,0,0,0,0.71754,-0.2870192,-19.17302,0,0.633954,-0.2670846,0.5172575,0,0,0,0,0,-0.3132976,0,0,-2.138267,0.8408766,-10.11089,0,-2.060039,0.6495585,1,0,0,0,0,0,-1.117934,0,0,3.719988,-1.414597,0,96.5119,-5.02129,0.5,0,0,0,0,-4.089676,0,0,293,0,0,103,2,229
09.39.14.236308, 61.22248,-171.0397,17.21035,82.1291,-165.2213,1,0,0,0,0,0.71754,-0.3457596,-19.92312,0,0.71754,-0.2870192,0.5842513,0,0,0,0,0,-0.3261996,0,0,-2.138267,1.147254,0.6954497,0,-2.138267,0.8408766,0.8669327,0,0,0,0,0,-0.6877115,0,0,4.213408,-1.223346,0,95.91032,-4.640444,0.5,0,0,0,0,-4.089676,0,0,293,0,0,104,2,229
09.39.14.335314, 46.84179,-173.8718,17.18888,61.22248,-171.0397,1,0,0,0,0,0.645184,-0.4373437,-17.89147,0,0.645184,-0.3457596,0.6034711,0,0,0,0,0,-0.456309,0,0,-2.083214,1.360539,9.796101,0,-2.083214,1.147254,-0.04002663,0,0,0,0,0,0.2603776,0,0,4.506844,-1.087498,0,95.16586,-4.013063,0.5,0,0,0,0,-4.834145,0,0,293,0,0,105,2,229
09.39.14.434320, 26.20811,-175.4586,17.13563,46.84179,-173.8718,1,0,0,0,0,0.6540072,-0.6768107,-10.62138,0,0.645184,-0.4373437,0.5352122,0,0,0,0,0,-0.6265638,0,0,-0.9155619,1.734371,23.61546,0,-2.083214,1.360539,-0.821632,0,0,0,0,0,0.8653183,0,0,4.873407,-0.8142225,0,95.16586,-3.567428,0.5,0,0,0,0,-5.504227,0,0,293,0,0,106,2,229
09.39.14.535325, 13.37535,-174.3157,17.03403,26.20811,-175.4586,1,0,0,0,0,0.6540072,-0.8619492,-3.081949,0,0.6540072,-0.6768107,0.2961181,0,0,0,0,0,-1.069183,0,0,-0.9155619,2.014607,30.61449,0,-0.9155619,1.734371,-1,0,0,0,0,0,3.603533,0,0,5.063642,-0.6150672,0,94.49577,-2.670975,0.5,0,0,0,0,-5.504227,0,0,293,0,0,107,2,229
09.39.14.633331, 356.9745,-168.6677,16.78002,13.37535,-174.3157,1,0,0,0,0,0.6540072,-1.147098,9.379073,0,0.6540072,-0.8619492,0.05172639,0,0,0,0,0,-1.413355,0,0,-0.9155619,2.423941,32.94424,0,-0.9155619,2.014607,-1,0,0,0,0,0,4.398366,0,0,5.241192,-0.3242562,0,94.49577,-2.017667,0.5,0,0,0,0,-5.504227,0,0,293,0,0,108,2,229
09.39.14.735337, 346.5552,-162.6959,16.61508,-3.025452,-168.6677,1,0,0,0,0,0.3998001,-1.343283,17.53414,0,0.3998001,-1.147098,-0.3532756,0,0,0,0,0,-2.016913,0,0,-0.99379,2.70215,29.78358,0,-0.99379,2.423941,-1,0,0,0,0,0,5,0,0,5.289681,-0.10884,0,94.26284,-1.06369,0.5,0,0,0,0,-5.737163,0,0,293,0,0,109,2,229
09.39.14.834343, 329.1552,-153.8316,16.42868,-13.44482,-162.6959,1,0,0,0,0,-0.0103488,-1.685222,28.39478,0,0.3998001,-1.343283,-0.6173885,0,0,0,0,0,-2.381621,0,0,-0.9387367,3.115292,18.34883,0,-0.99379,2.70215,-1,0,0,0,0,0,5,0,0,5.267689,0.1747492,0,94.26284,-0.3570387,0.5,0,0,0,0,-6.112991,0,0,293,0,0,110,2,229
09.39.14.936348, 316.3199,-148.6846,16.20247,-30.84479,-153.8316,1,0,0,0,0,-0.183377,-1.947256,33.24302,0,-0.0103488,-1.685222,-0.9774486,0,0,0,0,0,-3.135819,0,0,0.0956341,3.350515,7.046171,0,-0.9387367,3.115292,-1,0,0,0,0,0,5,0,0,5.206257,0.2968215,0,93.88701,0.5732473,0.5,0,0,0,0,-6.271541,0,0,293,0,0,111,2,229
09.39.15.034354, 295.1765,-144.8009,15.70135,-43.68011,-148.6846,1,0,0,0,0,-0.183377,-2.440948,35.33802,0,-0.183377,-1.947256,-1,0,0,0,0,0,-3.672945,0,0,0.0956341,3.613949,-13.79872,0,0.0956341,3.350515,-0.1882477,0,0,0,0,0,5,0,0,5.067486,0.4383294,0,93.72846,0.9736931,0.5,0,0,0,0,-6.271541,0,0,293,0,0,112,2,229
09.39.15.134360, 281.3256,-146.22,15.40281,-64.82349,-144.8009,1,0,0,0,0,-0.183377,-2.839104,32.74467,0,-0.183377,-2.440948,-1,0,0,0,0,0,-4.590717,0,0,0.0956341,3.716845,-28.11573,0,0.0956341,3.613949,1,0,0,0,0,0,5,0,0,4.938646,0.5593884,0,93.72846,1.437896,0.5,0,0,0,0,-6.271541,0,0,293,0,0,113,2,229
09.39.15.235366, 268.4604,-151.478,15.07648,-78.67444,-146.22,1,0,0,0,0,-0.5935261,-3.248147,26.83379,0,-0.183377,-2.839104,-1,0,0,0,0,0,-5.33089,0,0,0.1506872,3.802747,-40.52795,0,0.0956341,3.716845,1,0,0,0,0,0,5,0,0,4.756477,0.7541618,0,93.72846,1.835018,0.5,0,0,0,0,-6.647369,0,0,293,0,0,114,2,229
09.39.15.333371, 252.4524,-168.0556,14.72383,-91.53958,-151.478,1,0,0,0,0,-1.286199,-3.838583,13.02226,0,-0.5935261,-3.248147,-1,0,0,0,0,0,-6.209835,0,0,1.051777,3.890583,-51.31512,0,0.1506872,3.802747,1,0,0,0,0,0,5,0,0,4.364131,1.096785,0,93.35263,2.473952,0.5,0,0,0,0,-5.925745,0,0,293,0,0,115,2,229
09.39.15.435377, 242.7454,-186.1104,13.95756,-107.5476,-168.0556,1,0,0,0,0,-1.952961,-4.208158,0.9831851,0,-1.952961,-3.838583,-0.6364268,0,0,0,0,0,-7.700332,0,0,2.219429,3.906347,-51.8029,0,2.219429,3.890583,1,0,0,0,0,0,5,0,0,4.016912,1.34234,0,94.14146,3.597893,0.5,0,0,0,0,-5.858546,0,0,293,0,0,116,2,229
09.39.15.533383, 231.818,-208.8789,13.55751,-117.2546,-186.1104,1,0,0,0,0,-1.542813,-4.598702,-13.48778,0,-1.542813,-4.208158,-0.2868127,0,0,0,0,0,-8.268839,0,0,2.164376,3.853079,-46.78219,0,2.164376,3.906347,1,0,0,0,0,0,5,0,0,3.587156,1.551118,0,94.51728,4.403412,0.5,0,0,0,0,-5.482718,0,0,293,0,0,117,2,229
09.39.15.636388, 201.7275,-251.2031,13.13623,-128.182,-208.8789,1,0,0,0,0,-2.218399,-5.437864,-39.75617,0,-1.542813,-4.598702,0.1392806,0,0,0,0,0,-8.99486,0,0,2.164376,3.444988,-20.82705,0,2.164376,3.853079,1,0,0,0,0,0,5,0,0,2.737917,1.723957,0,94.51728,5.088289,0.5,0,0,0,0,-4.745438,0,0,293,0,0,118,2,229
09.39.15.734394, 163.6044,-268.2879,12.64634,-158.2725,-251.2031,1,0,0,0,0,-2.740451,-6.142075,-48.12261,0,-2.218399,-5.437864,0.899188,0,0,0,0,0,-10.75011,0,0,3.221922,2.886901,16.66463,0,2.164376,3.444988,1,0,0,0,0,0,5,0,0,2.111877,1.875543,0,95.25456,5.655268,0.5,0,0,0,0,-3.189302,0,0,293,0,0,119,2,229
09.39.15.836400, 137.8175,-267.6154,13.23583,163.6044,-268.2879,1,0,0,0,0,-3.586658,-6.579378,-43.7804,0,-3.586658,-6.142075,1,0,0,0,0,0,-12.45466,0,0,3.065466,2.485586,42.33197,0,3.065466,2.886901,-1,0,0,0,0,0,5,0,0,1.66419,2.126764,0,96.71347,6.152532,0.5,0,0,0,0,-3.286532,0,0,293,0,0,120,2,229
09.39.15.934406, 108.8455,-242.4182,13.43225,137.8175,-267.6154,1,0,0,0,0,-4.262245,-7.165739,-23.46133,0,-4.262245,-6.579378,0.9541925,0,0,0,0,0,-13,0,0,3.065466,1.944363,72.31276,0,3.065466,2.485586,-1,0,0,0,0,0,5,0,0,0.6433734,2.982231,0,97.45074,6.976636,0.5,0,0,0,0,-2.549252,0,0,293,0,0,121,2,229
09.39.16.037411, 107.9431,270.0338,13.55903,108.8455,-242.4182,1,0,0,0,0,-5.275624,-7.598807,-33.63643,0,-4.262245,-7.165739,0.3243013,0,0,0,0,0,-13,0,0,3.065466,1.558609,93.07418,0,3.065466,1.944363,-1,0,0,0,0,0,5,0,0,-0.3833038,3.157917,0,97.45074,9.782912,0.5,0,0,0,0,-1.44333,0,0,293,0,0,122,2,229
09.39.16.135417, 4.235529,557.42,13.68723,107.9431,270.0338,1,0,0,0,0,-5.459883,-6.518367,-50.71318,0,-5.275624,-7.598807,0.6397291,0,0,0,0,0,-13,0,0,4.123012,0.06865349,-161.3265,0,3.065466,1.558609,-1,0,0,0,0,0,5,0,0,-0.7291537,-0.3467256,0,98.55667,10.35923,0.5,0,0,0,0,-0.2558351,0,0,293,0,0,123,2,229
09.39.16.233423, 340.1938,557.252,13.42159,4.235529,557.42,1,0,0,0,0,-6.207825,-6.038465,-2.061416,0,-6.207825,-6.518367,1,0,0,0,0,0,-13,0,0,4.178065,-0.2879474,-134.171,0,4.178065,0.06865349,1,0,0,0,0,0,5,0,0,-0.596162,-0.4204649,0,99.73698,-1.137399,0.5,0,0,0,0,-0.2630234,0,0,293,0,0,124,2,229
09.39.16.335428, 343.0871,64.92818,13.23781,-19.80618,557.252,1,0,0,0,0,-6.716239,-4.849593,32.70035,0,-6.716239,-6.038465,-0.3390961,0,0,0,0,0,-13,0,0,4.021609,-0.9175168,-105.014,0,4.021609,-0.2879474,1,0,0,0,0,0,4.962347,0,0,0.4682223,-5.00916,0,99.2711,-1.379293,0.5,0,0,0,0,-0.7288942,0,0,293,0,0,125,2,229
09.39.16.433434, 350.2079,91.94234,13.06754,-16.91287,64.92818,1,0,0,0,0,-7.773658,-4.821811,39.95685,0,-6.716239,-4.849593,-1,0,0,0,0,0,-10.95639,0,0,3.152397,-0.8863976,-73.71093,0,4.021609,-0.9175168,1,0,0,0,0,0,3.176699,0,0,1.585175,-4.223636,0,99.2711,-16.43205,0.5,0,0,0,0,-1.69783,0,0,293,0,0,126,2,229
09.39.16.536440, 6.434689,115.8996,12.92443,-9.792084,91.94234,1,0,0,0,0,-7.508221,-4.771654,46.99546,0,-7.773658,-4.821811,-1,0,0,0,0,0,-11.21033,0,0,3.20745,-0.8045897,-24.83327,0,3.152397,-0.8863976,1,0,0,0,0,0,2.015906,0,0,2.873242,-3.047759,0,98.30217,-13.85521,0.5,0,0,0,0,-2.810939,0,0,293,0,0,127,2,229
09.39.16.631445, 19.8248,121.948,12.71631,6.434689,115.8996,1,0,0,0,0,-8.582726,-4.727153,48.08476,0,-8.582726,-4.771654,-1,0,0,0,0,0,-11.35091,0,0,3.239328,-0.7617527,8.55158,0,3.239328,-0.8045897,1,0,0,0,0,0,2.372857,0,0,3.479065,-2.257089,0,96.20447,-9.997869,0.5,0,0,0,0,-3.795532,0,0,293,0,0,128,2,229
09.39.16.736451, 39.33351,114.9166,12.6456,19.8248,121.948,1,0,0,0,0,-9.247082,-4.641966,43.72805,0,-9.247082,-4.727153,-1,0,0,0,0,0,-11.46018,0,0,3.216153,-0.7340884,57.6139,0,3.216153,-0.7617527,-0.5603285,0,0,0,0,0,2.461053,0,0,4.034427,-1.01425,0,95.5957,-7.404156,0.5,0,0,0,0,-4.404296,0,0,293,0,0,129,2,229
09.39.16.834457, 48.79,103.0586,12.62178,39.33351,114.9166,1,0,0,0,0,-9.319437,-4.583148,37.70008,0,-9.247082,-4.641966,-1,0,0,0,0,0,-11.30182,0,0,3.271206,-0.7394733,85.71342,0,3.216153,-0.7340884,-1,0,0,0,0,0,2.539517,0,0,4.139016,-0.2115359,0,95.5957,-3.327145,0.5,0,0,0,0,-5.148764,0,0,293,0,0,130,2,229
09.39.16.937463, 57.89753,78.42886,12.61837,48.79,103.0586,1,0,0,0,0,-9.65723,-4.500561,25.75585,0,-9.319437,-4.583148,-1,0,0,0,0,0,-11.21339,0,0,3.271206,-0.7616125,122.7053,0,3.271206,-0.7394733,-1,0,0,0,0,0,2.603355,0,0,3.902541,0.9817841,0,94.85123,-0.6939222,0.5,0,0,0,0,-4.780124,0,0,293,0,0,131,2,229
09.39.17.035468, 61.33101,57.6797,12.65258,57.89753,78.42886,1,0,0,0,0,-9.911438,-4.45038,16.45753,0,-9.911438,-4.500561,-1,0,0,0,0,0,-11.23095,0,0,3.192978,-0.7799591,145.4917,0,3.192978,-0.7616125,-1,0,0,0,0,0,2.428149,0,0,3.461447,1.787368,0,94.98694,3.220645,0.5,0,0,0,0,-5.01306,0,0,293,0,0,132,2,229
09.39.17.133474, 62.94493,34.42288,12.67739,61.33101,57.6797,1,0,0,0,0,-10.24923,-4.40901,6.518719,0,-10.24923,-4.45038,-0.8584771,0,0,0,0,0,-11.23528,0,0,3.192978,-0.7969109,167.2977,0,3.192978,-0.7799591,-1,0,0,0,0,0,2.376112,0,0,2.783464,2.590625,0,95.35558,5.863281,0.5,0,0,0,0,-4.644419,0,0,293,0,0,133,2,229
09.39.17.235480, 62.93595,9.489674,12.70569,62.94493,34.42288,1,0,0,0,0,-10.67061,-4.380911,-3.800595,0,-10.24923,-4.40901,-0.54799,0,0,0,0,0,-11.15838,0,0,3.271206,-0.8078418,-171.2901,0,3.192978,-0.7969109,-1,0,0,0,0,0,2.328032,0,0,1.859444,3.393137,0,95.35558,8.498286,0.5,0,0,0,0,-3.674203,0,0,293,0,0,134,2,229
09.39.17.334486, 61.23296,-14.86007,12.73377,62.93595,9.489674,1,0,0,0,0,-11.3462,-4.367534,-14.03208,0,-10.67061,-4.380911,-0.2302471,0,0,0,0,0,-11.22792,0,0,3.271206,-0.8086003,-150.1268,0,3.271206,-0.8078418,1,0,0,0,0,0,2.409442,0,0,0.6991319,4.190727,0,96.3258,11.13085,0.5,0,0,0,0,-2.936922,0,0,293,0,0,135,2,229
09.39.17.436491, 54.37109,65.3574,12.78218,61.23296,-14.86007,1,0,0,0,0,-11.61163,-3.194039,-22.65438,0,-11.61163,-4.367534,0.08164743,0,0,0,0,0,-11.47501,0,0,3.216153,-0.5430756,-116.9289,0,3.216153,-0.8086003,1,0,0,0,0,0,2.328179,0,0,-0.6127057,-0.7175738,0,98.17619,13.74726,0.5,0,0,0,0,-1.823813,0,0,293,0,0,136,2,229
09.39.17.534497, 47.55351,99.40729,12.78922,54.37109,65.3574,1,0,0,0,0,-11.87707,-3.052175,-13.74561,0,-11.87707,-3.194039,0.4118099,0,0,0,0,0,-9.370192,0,0,3.1611,-0.3864838,-99.7751,0,3.1611,-0.5430756,1,0,0,0,0,0,3.002176,0,0,-0.3801203,-0.4642371,0,99.2893,-2.353929,0.5,0,0,0,0,-0.7107034,0,0,293,0,0,137,2,229
09.39.17.633503, 42.49623,115.8369,12.77908,47.55351,99.40729,1,0,0,0,0,-12.62501,-2.966617,-1.729993,0,-11.87707,-3.052175,0.1438135,0,0,0,0,0,-9.106466,0,0,3.216153,-0.260521,-96.69682,0,3.1611,-0.3864838,1,0,0,0,0,0,3.446317,0,0,-0.3434095,0.04867389,0,99.2893,-1.522883,0.5,0,0,0,0,-0.7178917,0,0,293,0,0,138,2,229
09.39.17.735509, 38.64397,103.3898,12.7571,42.49623,115.8369,1,0,0,0,0,-13.37296,-2.905351,6.458424,0,-12.62501,-2.966617,-0.2304409,0,0,0,0,0,-9.163569,0,0,3.271206,-0.1849516,-101.8708,0,3.216153,-0.260521,1,0,0,0,0,0,3.882697,0,0,-0.4250019,0.4066794,0,99.2821,0.1596698,0.5,0,0,0,0,-0.7250795,0,0,293,0,0,139,2,229
09.39.17.833514, 33.04667,-86.97268,12.69685,38.64397,103.3898,1,0,0,0,0,-13.37296,-2.732206,-0.1581391,0,-13.37296,-2.905351,-0.4874519,0,0,0,0,0,-9.265833,0,0,3.271206,-0.0364782,-112.781,0,3.271206,-0.1849516,1,0,0,0,0,0,4.176145,0,0,-0.5154335,0.3622677,0,99.27492,1.334071,0.5,0,0,0,0,-0.7250795,0,0,293,0,0,140,2,229
09.39.17.935520, 30.04261,-70.68401,12.65364,33.04667,-86.97268,1,0,0,0,0,-13.37296,-2.582144,-8.130871,0,-13.37296,-2.732206,-0.2723603,0,0,0,0,0,-8.943954,0,0,3.271206,0.0397912,-118.5734,0,3.271206,-0.0364782,1,0,0,0,0,0,4.59726,0,0,-0.6635218,0.4705889,0,99.27492,1.188383,0.5,0,0,0,0,-0.7250795,0,0,293,0,0,141,2,229
09.39.18.033526, 25.8386,-29.59335,12.60755,30.04261,-70.68401,1,0,0,0,0,-13.96496,-2.121955,-16.11328,0,-13.37296,-2.582144,-0.01655768,0,0,0,0,0,-8.664989,0,0,3.192978,0.267149,-120.1952,0,3.271206,0.0397912,1,0,0,0,0,0,4.813583,0,0,-0.6247267,-0.117576,0,99.27492,1.54372,0.5,0,0,0,0,-0.5893745,0,0,293,0,0,142,2,229
09.39.18.135531, 21.40528,6.087649,12.5517,25.8386,-29.59335,1,0,0,0,0,-13.96496,-1.832812,-19.33997,0,-13.96496,-2.121955,0.2521135,0,0,0,0,0,-7.980587,0,0,3.192978,0.384084,-120.01,0,3.192978,0.267149,1,0,0,0,0,0,5,0,0,-0.6063243,-0.01365064,0,99.41063,-0.3856962,0.5,0,0,0,0,-0.5893745,0,0,293,0,0,143,2,229
09.39.18.234537, 18.40248,26.18624,12.42002,21.40528,6.087649,1,0,0,0,0,-13.96496,-1.631977,-19.13716,0,-13.96496,-1.832812,0.368804,0,0,0,0,0,-7.44307,0,0,3.192978,0.4476768,-120.1243,0,3.192978,0.384084,1,0,0,0,0,0,5,0,0,-0.6089176,0.02257104,0,99.41063,-0.04477955,0.5,0,0,0,0,-0.5893745,0,0,293,0,0,144,2,229
09.39.18.336543, 13.71451,53.71803,12.34777,18.40248,26.18624,1,0,0,0,0,-13.96496,-1.298022,-15.59295,0,-13.96496,-1.631977,0.3740908,0,0,0,0,0,-7.069717,0,0,3.192978,0.5273201,-119.6405,0,3.192978,0.4476768,1,0,0,0,0,0,5,0,0,-0.6234334,0.04768139,0,99.41063,0.07404205,0.5,0,0,0,0,-0.5893745,0,0,293,0,0,145,2,229
09.39.18.434549, 10.77102,66.72678,12.26474,13.71451,53.71803,1,0,0,0,0,-13.96496,-1.089807,-11.57523,0,-13.96496,-1.298022,0.2834657,0,0,0,0,0,-6.448895,0,0,3.192978,0.5616162,-118.4466,0,3.192978,0.5273201,1,0,0,0,0,0,5,0,0,-0.6375937,0.0629613,0,99.41063,0.156414,0.5,0,0,0,0,-0.5893745,0,0,293,0,0,146,2,229
09.39.18.536554, 6.84976,75.83261,12.1756,10.77102,66.72678,1,0,0,0,0,-14.7129,-0.8443992,-3.879181,0,-13.96496,-1.089807,0.1709156,0,0,0,0,0,-6.061823,0,0,3.248031,0.5850359,-115.6124,0,3.192978,0.5616162,1,0,0,0,0,0,5,0,0,-0.6559566,0.02520053,0,99.41063,0.2065383,0.5,0,0,0,0,-0.5965629,0,0,293,0,0,147,2,229
09.39.18.635560, 4.651825,56.51093,11.98169,6.84976,75.83261,1,0,0,0,0,-14.7129,-0.7270441,0.5140113,0,-14.7129,-0.8443992,-0.06022012,0,0,0,0,0,-5.821765,0,0,3.248031,0.5819503,-114.8494,0,3.248031,0.5850359,1,0,0,0,0,0,5,0,0,-0.6414807,-0.006629132,0,99.40343,0.08266783,0.5,0,0,0,0,-0.5965629,0,0,293,0,0,148,2,229
09.39.18.733566, 2.230671,-2.487114,11.88097,4.651825,56.51093,1,0,0,0,0,-14.7129,-0.5885437,1.221166,0,-14.7129,-0.7270441,-0.189646,0,0,0,0,0,-5.603602,0,0,3.248031,0.5728006,-114.121,0,3.248031,0.5819503,1,0,0,0,0,0,5,0,0,-0.6305082,0.02223219,0,99.40343,-0.02174621,0.5,0,0,0,0,-0.5965629,0,0,293,0,0,149,2,229
09.39.18.835571, 0.8232403,-15.36106,11.77594,2.230671,-2.487114,1,0,0,0,0,-14.7129,-0.5038707,-0.5294316,0,-14.7129,-0.5885437,-0.2035862,0,0,0,0,0,-5.34613,0,0,3.248031,0.5714768,-114.8639,0,3.248031,0.5728006,1,0,0,0,0,0,5,0,0,-0.6428626,0.05640879,0,99.40343,0.07293047,0.5,0,0,0,0,-0.5965629,0,0,293,0,0,150,2,229
09.39.18.933577, 358.888,-16.0744,11.66987,0.8232403,-15.36106,1,0,0,0,0,-14.7129,-0.3793813,-3.700781,0,-14.7129,-0.5038707,-0.144438,0,0,0,0,0,-5.188723,0,0,3.248031,0.5548519,-115.7766,0,3.248031,0.5714768,1,0,0,0,0,0,5,0,0,-0.6550044,0.01831196,0,99.40343,0.1850434,0.5,0,0,0,0,-0.5965629,0,0,293,0,0,151,2,229
09.39.19.036583, 357.1657,-5.976718,11.45258,-1.11203,-16.0744,1,0,0,0,0,-14.7129,-0.2904627,-5.782371,0,-14.7129,-0.3793813,-0.038952,0,0,0,0,0,-4.957297,0,0,3.248031,0.5313215,-115.9439,0,3.248031,0.5548519,1,0,0,0,0,0,5,0,0,-0.6553776,-0.001107914,0,99.40343,0.06007054,0.5,0,0,0,0,-0.5965629,0,0,293,0,0,152,2,229
09.39.19.134589, 356.1082,1.834961,11.34144,-2.834259,-5.976718,1,0,0,0,0,-14.7129,-0.2486715,-6.292169,0,-14.7129,-0.2904627,0.03070155,0,0,0,0,0,-4.791998,0,0,3.248031,0.514213,-116.1109,0,3.248031,0.5313215,1,0,0,0,0,0,5,0,0,-0.6550019,0.001506068,0,99.40343,-0.003634402,0.5,0,0,0,0,-0.5965629,0,0,293,0,0,153,2,229
09.39.19.236594, 354.594,11.73577,11.22892,-3.891815,1.834961,1,0,0,0,0,-14.7129,-0.2015512,-5.926291,0,-14.7129,-0.2486715,0.0489137,0,0,0,0,0,-4.714308,0,0,3.248031,0.4858188,-116.1602,0,3.248031,0.514213,1,0,0,0,0,0,5,0,0,-0.6563232,0.007320805,0,99.40343,0.004940507,0.5,0,0,0,0,-0.5965629,0,0,293,0,0,154,2,229
09.39.19.334600, 353.2501,16.31242,11.11381,-5.405975,11.73577,1,0,0,0,0,-15.12305,-0.1703762,-4.743206,0,-14.7129,-0.2015512,0.040287,0,0,0,0,0,-4.626711,0,0,3.303084,0.4576406,-115.734,0,3.248031,0.4858188,1,0,0,0,0,0,5,0,0,-0.6579533,0.006516806,0,99.40343,0.02401517,0.5,0,0,0,0,-0.9723911,0,0,293,0,0,155,2,229
09.39.19.433606, 352.4288,15.51807,10.88073,-6.749908,16.31242,1,0,0,0,0,-15.12305,-0.1556441,-3.827868,0,-15.12305,-0.1703762,0.001733391,0,0,0,0,0,-4.68729,0,0,3.303084,0.4394045,-115.6188,0,3.303084,0.4576406,1,0,0,0,0,0,5,0,0,-0.6554933,-0.003143229,0,99.02761,0.02137773,0.5,0,0,0,0,-0.9723911,0,0,293,0,0,156,2,229
09.39.19.535611, 351.2769,10.25091,10.76398,-7.571167,15.51807,1,0,0,0,0,-15.12305,-0.135895,-2.812944,0,-15.12305,-0.1556441,-0.02579308,0,0,0,0,0,-4.659903,0,0,3.303084,0.4119806,-115.626,0,3.303084,0.4394045,1,0,0,0,0,0,5,0,0,-0.6549069,0.002313241,0,99.02761,-0.01031105,0.5,0,0,0,0,-0.9723911,0,0,293,0,0,157,2,229
09.39.19.633617, 350.2622,3.036777,10.64567,-8.723053,10.25091,1,0,0,0,0,-15.12305,-0.1171921,-2.613873,0,-15.12305,-0.135895,-0.0561176,0,0,0,0,0,-4.623189,0,0,3.303084,0.3859906,-115.6462,0,3.303084,0.4119806,1,0,0,0,0,0,5,0,0,-0.655143,0.002849611,0,99.02761,0.007588356,0.5,0,0,0,0,-0.9723911,0,0,293,0,0,158,2,229
09.39.19.735623, 349.3577,-0.5780976,10.52631,-9.737762,3.036777,1,0,0,0,0,-15.12305,-0.1001712,-3.00119,0,-15.12305,-0.1171921,-0.06121098,0,0,0,0,0,-4.588421,0,0,3.303084,0.3632949,-115.6815,0,3.303084,0.3859906,1,0,0,0,0,0,5,0,0,-0.6560456,0.005021257,0,99.02761,0.009347863,0.5,0,0,0,0,-0.9723911,0,0,293,0,0,159,2,229
09.39.19.833629, 348.7786,-1.394038,10.2875,-10.64227,-0.5780976,1,0,0,0,0,-15.12305,-0.08972579,-3.401715,0,-15.12305,-0.1001712,-0.04822326,0,0,0,0,0,-4.556779,0,0,3.303084,0.3488417,-115.7182,0,3.303084,0.3632949,1,0,0,0,0,0,5,0,0,-0.6566945,0.005259206,0,99.02761,0.01647173,0.5,0,0,0,0,-0.9723911,0,0,293,0,0,160,2,229
09.39.19.936634, 347.9194,-0.7735274,10.16854,-11.22137,-1.394038,1,0,0,0,0,-15.12305,-0.07615498,-3.955381,0,-15.12305,-0.08972579,-0.03520502,0,0,0,0,0,-4.537361,0,0,3.303084,0.3277234,-115.7727,0,3.303084,0.3488417,1,0,0,0,0,0,5,0,0,-0.6576534,0.003914978,0,99.02761,0.0172523,0.5,0,0,0,0,-0.9723911,0,0,293,0,0,161,2,229
09.39.20.034640, 347.0606,2.44713,10.04875,-12.08063,-0.7735274,1,0,0,0,0,-15.12305,-0.06571063,-4.207304,0,-15.12305,-0.07615498,-0.0172593,0,0,0,0,0,-4.512133,0,0,3.303084,0.3078828,-115.7821,0,3.303084,0.3277234,1,0,0,0,0,0,5,0,0,-0.6582434,0.003382658,0,99.02761,0.01284269,0.5,0,0,0,0,-0.9723911,0,0,293,0,0,162,2,229
09.39.20.133646, 346.4912,4.253937,9.92816,-12.93942,2.44713,1,0,0,0,0,-15.12305,-0.06045049,-4.191459,0,-15.12305,-0.06571063,-0.008847781,0,0,0,0,0,-4.492717,0,0,3.303084,0.295234,-115.7801,0,3.303084,0.3078828,1,0,0,0,0,0,5,0,0,-0.6583386,0.002512714,0,99.02761,0.01109647,0.5,0,0,0,0,-0.9723911,0,0,293,0,0,163,2,229
09.39.20.234651, 345.6022,5.278074,9.688032,-13.50882,4.253937,1,0,0,0,0,-15.14013,-0.05427298,-3.948992,0,-15.14013,-0.06045049,-0.009035853,0,0,0,0,0,-4.487876,0,0,4.204174,0.2761543,-115.7803,0,4.204174,0.295234,1,0,0,0,0,0,5,0,0,-0.6581067,-0.000539188,0,99.01196,0.008242709,0.5,0,0,0,0,-0.9880476,0,0,293,0,0,164,2,229
09.39.20.333657, 345.0296,5.501068,9.567582,-14.39777,5.278074,1,0,0,0,0,-15.14013,-0.05113532,-3.724528,0,-15.14013,-0.05427298,-0.01634938,0,0,0,0,0,-4.476392,0,0,4.204174,0.2647044,-115.7684,0,4.204174,0.2761543,1,0,0,0,0,0,5,0,0,-0.6579263,-0.0002601616,0,99.01196,-0.001768752,0.5,0,0,0,0,-0.9880476,0,0,293,0,0,165,2,229
09.39.20.435663, 344.1658,5.626856,9.447052,-14.97037,5.501068,1,0,0,0,0,-15.14013,-0.04679323,-3.419419,0,-15.14013,-0.05113532,-0.02312694,0,0,0,0,0,-4.470559,0,0,4.204174,0.2484917,-115.7464,0,4.204174,0.2647044,1,0,0,0,0,0,5,0,0,-0.6579416,0.002289239,0,99.01196,-0.000853434,0.5,0,0,0,0,-0.9880476,0,0,293,0,0,166,2,229
09.39.20.533669, 343.5767,4.777926,9.32567,-15.8342,5.626856,1,0,0,0,0,-15.14013,-0.04383846,-3.305038,0,-15.14013,-0.04679323,-0.0323351,0,0,0,0,0,-4.462487,0,0,4.204174,0.2378727,-115.7445,0,4.204174,0.2484917,1,0,0,0,0,0,5,0,0,-0.6579145,0.003047802,0,99.01196,0.00750962,0.5,0,0,0,0,-0.9880476,0,0,293,0,0,167,2,229
09.39.20.635674, 342.7386,2.703131,9.08404,-16.42334,4.777926,1,0,0,0,0,-15.14013,-0.03966531,-3.282308,0,-15.14013,-0.04383846,-0.03571064,0,0,0,0,0,-4.456994,0,0,4.204174,0.2234922,-115.7623,0,4.204174,0.2378727,1,0,0,0,0,0,5,0,0,-0.6579176,0.0004180403,0,99.01196,0.009998011,0.5,0,0,0,0,-0.9880476,0,0,293,0,0,168,2,229
09.39.20.734680, 341.9035,3.253086,8.962999,-17.26138,2.703131,1,0,0,0,0,-15.14013,-0.03559212,-3.314803,0,-15.14013,-0.03966531,-0.03617477,0,0,0,0,0,-4.449236,0,0,4.204174,0.2106593,-115.7633,0,4.204174,0.2234922,1,0,0,0,0,0,5,0,0,-0.6583913,0.003377233,0,99.01196,0.001371339,0.5,0,0,0,0,-0.9880476,0,0,293,0,0,169,2,229
09.39.20.836686, 341.3133,3.368197,8.841271,-18.09647,3.253086,1,0,0,0,0,-15.14013,-0.03296303,-3.362187,0,-15.14013,-0.03559212,-0.03493271,0,0,0,0,0,-4.441664,0,0,4.204174,0.2019905,-115.7742,0,4.204174,0.2106593,1,0,0,0,0,0,5,0,0,-0.6586168,0.003538601,0,99.01196,0.01107868,0.5,0,0,0,0,-0.9880476,0,0,293,0,0,170,2,229
09.39.20.934692, 340.4387,2.555609,8.719431,-18.68668,3.368197,1,0,0,0,0,-15.14013,-0.02977302,-3.416055,0,-15.14013,-0.03296303,-0.03331226,0,0,0,0,0,-4.436777,0,0,4.204174,0.1897296,-115.8065,0,4.204174,0.2019905,1,0,0,0,0,0,5,0,0,-0.6585034,-9.819891E-06,0,99.01196,0.01160803,0.5,0,0,0,0,-0.9880476,0,0,293,0,0,171,2,229
09.39.21.034697, 339.8525,2.866467,8.475429,-19.56128,2.555609,1,0,0,0,0,-15.14013,-0.02797702,-3.398536,0,-15.14013,-0.02977302,-0.03145852,0,0,0,0,0,-4.430846,0,0,4.204174,0.182093,-115.8167,0,4.204174,0.1897296,1,0,0,0,0,0,5,0,0,-0.658666,-0.0004700123,0,99.01196,-3.221317E-05,0.5,0,0,0,0,-0.9880476,0,0,293,0,0,172,2,229
09.39.21.135703, 338.9696,4.68109,8.353877,-20.14746,2.866467,1,0,0,0,0,-15.14013,-0.02560755,-3.298499,0,-15.14013,-0.02797702,-0.0318981,0,0,0,0,0,-4.427507,0,0,4.204174,0.1713873,-115.8282,0,4.204174,0.182093,1,0,0,0,0,0,5,0,0,-0.6589687,0.002651808,0,99.01196,-0.001541829,0.5,0,0,0,0,-0.9880476,0,0,293,0,0,173,2,229
09.39.21.233709, 338.1482,3.369944,8.231436,-21.0304,4.68109,1,0,0,0,0,-15.14013,-0.0239869,-3.21832,0,-15.14013,-0.02560755,-0.03486271,0,0,0,0,0,-4.423103,0,0,4.204174,0.1616934,-115.8502,0,4.204174,0.1713873,1,0,0,0,0,0,5,0,0,-0.6590254,0.0007125507,0,99.01196,0.008698992,0.5,0,0,0,0,-0.9880476,0,0,293,0,0,174,2,229
09.39.21.335714, 337.6031,3.221119,8.108299,-21.85184,3.369944,1,0,0,0,0,-15.14013,-0.02294235,-3.154342,0,-15.14013,-0.0239869,-0.03725487,0,0,0,0,0,-4.42009,0,0,4.204174,0.1557094,-115.8596,0,4.204174,0.1616934,1,0,0,0,0,0,5,0,0,-0.6591376,0.001353776,0,99.01196,0.002337451,0.5,0,0,0,0,-0.9880476,0,0,293,0,0,175,2,229
09.39.21.433720, 336.7535,4.37549,7.863443,-22.39691,3.221119,1,0,0,0,0,-15.14013,-0.02121653,-3.064605,0,-15.14013,-0.02294235,-0.03917797,0,0,0,0,0,-4.418148,0,0,4.204174,0.1468713,-115.8937,0,4.204174,0.1557094,1,0,0,0,0,0,5,0,0,-0.65928,0.0008626692,0,99.01196,0.004440926,0.5,0,0,0,0,-0.9880476,0,0,293,0,0,176,2,229
09.39.21.535726, 335.927,2.497509,7.740777,-23.24646,4.37549,1,0,0,0,0,-15.14013,-0.01980514,-3.074951,0,-15.14013,-0.02121653,-0.04186037,0,0,0,0,0,-4.41494,0,0,4.204174,0.1387643,-115.9081,0,4.204174,0.1468713,1,0,0,0,0,0,5,0,0,-0.6595782,0.00249108,0,99.01196,0.0028299,0.5,0,0,0,0,-0.9880476,0,0,293,0,0,177,2,229
09.39.21.634732, 335.3619,2.361715,7.617407,-24.07303,2.497509,1,0,0,0,0,-15.14013,-0.018808,-3.081816,0,-15.14013,-0.01980514,-0.04145832,0,0,0,0,0,-4.412316,0,0,4.204174,0.1335724,-115.9286,0,4.204174,0.1387643,1,0,0,0,0,0,5,0,0,-0.6596189,0.002415041,0,99.01196,0.008171737,0.5,0,0,0,0,-0.9880476,0,0,293,0,0,178,2,229
09.39.21.736737, 334.4747,3.729625,7.494043,-24.63812,2.361715,1,0,0,0,0,-15.14013,-0.01725558,-3.094886,0,-15.14013,-0.018808,-0.04118802,0,0,0,0,0,-4.410462,0,0,4.204174,0.125898,-115.979,0,4.204174,0.1335724,1,0,0,0,0,0,5,0,0,-0.6597084,-0.000517589,0,99.01196,0.007922299,0.5,0,0,0,0,-0.9880476,0,0,293,0,0,179,2,229
09.39.21.834743, 333.5929,2.27755,7.246943,-25.52533,3.729625,1,0,0,0,0,-15.14013,-0.01617106,-3.169713,0,-15.14013,-0.01725558,-0.04069341,0,0,0,0,0,-4.407577,0,0,4.204174,0.1189854,-115.9691,0,4.204174,0.125898,1,0,0,0,0,0,5,0,0,-0.6601487,0.002698288,0,99.01196,-0.001697899,0.5,0,0,0,0,-0.9880476,0,0,293,0,0,180,2,229
09.39.21.933749, 333.0103,2.386018,7.123108,-26.4071,2.27755,1,0,0,0,0,-15.14013,-0.015548,-3.194897,0,-15.14013,-0.01617106,-0.03831128,0,0,0,0,0,-4.40556,0,0,4.204174,0.1147233,-115.9728,0,4.204174,0.1189854,1,0,0,0,0,0,5,0,0,-0.6602188,0.00271771,0,99.01196,0.008851465,0.5,0,0,0,0,-0.9880476,0,0,293,0,0,181,2,229
09.39.22.035754, 332.1023,3.911741,6.999243,-26.98969,2.386018,1,0,0,0,0,-15.14013,-0.01467382,-3.208209,0,-15.14013,-0.015548,-0.03749467,0,0,0,0,0,-4.404402,0,0,4.204174,0.1085258,-116.0029,0,4.204174,0.1147233,1,0,0,0,0,0,5,0,0,-0.6600224,-0.0007821132,0,99.01196,0.008915177,0.5,0,0,0,0,-0.9880476,0,0,293,0,0,182,2,229
09.39.22.133760, 331.1949,2.681252,6.874452,-27.89771,3.911741,1,0,0,0,0,-15.14013,-0.01418208,-3.263578,0,-15.14013,-0.01467382,-0.03703161,0,0,0,0,0,-4.402777,0,0,4.204174,0.1029213,-115.9926,0,4.204174,0.1085258,1,0,0,0,0,0,5,0,0,-0.6603392,0.002413413,0,99.01196,-0.002565644,0.5,0,0,0,0,-0.9880476,0,0,293,0,0,183,2,229
09.39.22.235766, 330.3625,0,6.624558,-28.80505,2.681252,1,0,0,0,0,-15.14013,0,-3.400164,0,-15.14013,-0.01418208,-0.03528681,0,0,0,0,0,-4.401863,0,0,4.204174,0,-116.0179,0,4.204174,0.1029213,1,0,0,0,0,0,5,0,0,-0.6603055,-0.0001208445,0,99.01196,0.00791696,0.5,0,0,0,0,-0.9880476,0,0,293,0,0,184,2,229
09.39.22.333772, 329.8796,0,6.499495,-29.63745,0,1,0,0,0,0,-15.14013,0,-3.634688,0,-15.14013,0,-0.03023537,0,0,0,0,0,-4.375498,0,0,4.204174,0,-116.0598,0,4.204174,0,1,0,0,0,0,0,5,0,0,-0.6615423,0.003802701,0,99.01196,-0.0003964182,0.5,0,0,0,0,-0.9880476,0,0,293,0,0,185,2,229
