MagYaw,YawVelocityDegreesPerSecond,YawIntegral,YawProportional,YawDerivativeError,YawControl,YawIntegralGain,YawDerivativeGain,YawProportionalGain,YawAntiWindupGain,XNEDBodyFrame,XVelocityMetersPerSecond,ThetaPitchDegrees,XIntegral,XProportional,XDerivativeError,LongitudeControl,XIntegralGain,XDerivativeGain,XProportionalGain,XAntiWindupGain,LongitudeInnerLoopGain,XLongitudeOuterLoopSetpoint,PitchAngularVelocityRadsPerSecond,PitchAngularVelocityGain,YNEDBodyFrame,YVelocityMetersPerSecond,PhiRollDegrees,YIntegral,YProportional,YDerivativeError,LateralControl,YIntegralGain,YDerivativeGain,YProportionalGain,YAntiWindupGain,LateralInnerLoopGain,YLateralOuterLoopSetpoint,RollAngularVelocityRadsPerSecond,RollAngularVelocityGain,AltitudeFeetAgl,ZVelocityMetersPerSecond,ZIntegral,ZProportional,ZDerivativeError,MainRotorCollectiveControl,ZIntegralGain,ZDerivativeGain,ZProportionalGain,ZAntiWindupGain,ZNEDBodyFrame,LatitudeDegrees,LongitudeDegrees,Timeouts,UnrecognizedMsgTypes,ChecksumErrors,NumOfBlownFrames,MessageType,NumOfBytesInMsg
315.3949,49.48528,0,0,0,0,0,0,0,0,0,-0.02460403,0.1881324,0,0,0,0,0,0,0,0,0,0,0,0,0,0.02657459,0.09362315,0,0,0,0,0,0,0,0,0,0,0,0,0.09338144,-0.0002616877,0,0,0,0,0,0,0,0,0,0,0,24,0,0,0,2,229
315.3949,49.48528,-0.1115128,-44.60513,49.48528,-0.8531504,0,0,0,0,0,-0.02460403,0.1881324,0,0,-0.02460403,-0.007250011,0,0,0,0,0,-0.0457389,0,0,0,0.02657459,0.09362315,0,0,0.02657459,-0.001678968,0,0,0,0,0,0.0753735,0,0,0.09338144,-0.0002616877,0.09999999,100,-0.0008584402,1,0,0,0,0,0,0,0,24,0,0,1,2,229
317.8419,48.69704,-0.2230257,-44.60513,49.48528,-0.9646633,0,0,0,0,-0.352473,-0.02544179,0.1913887,0,0,-0.02460403,-0.007250011,0,0,0,0,0,-0.0457389,0,0,-0.2897371,0.02631475,0.1218753,0,0,0.02657459,-0.001678968,0,0,0,0,0,0.0753735,0,0,0.09330187,0.0004826935,0,100,-0.0008584402,1,0,0,0,0,-0.3229785,0,0,24,0,0,2,2,229
320.2484,47.88794,-0.3284208,-42.15805,48.69704,-1,0,0,0,0,-0.352473,-0.02624183,0.1929502,0,-0.352473,-0.02544179,-0.01055704,0,0,0,0,0,-0.149161,0,0,-0.2897371,0.02600443,0.1502075,0,-0.2897371,0.02631475,-0.04265038,0,0,0,0,0,-0.3417158,0,0,0.09335836,-0.0001649972,0,99.67702,0.001583428,1,0,0,0,0,-0.3229785,0,0,24,0,0,3,2,229
324.2302,79.24569,-0.5260955,-39.75165,47.88794,-1,0,0,0,0,-0.352473,-0.04164862,0.149695,0,-0.352473,-0.02624183,-0.01065155,0,0,0,0,0,-0.1506483,0,0,-0.2897371,-0.112524,-0.2390933,0,-0.2897371,0.02600443,-0.04533791,0,0,0,0,0,-0.3425959,0,0,0.6279651,-3.24371,0,99.67702,-0.000541257,1,0,0,0,0,-0.3229785,0,0,24,0,0,4,2,229
324.2302,79.24569,-0.6137127,-35.76984,79.24569,-1,0,0,0,0,-0.01467994,-0.04164862,0.149695,0,-0.01467994,-0.04164862,-0.007172232,0,0,0,0,0,-0.08166728,0,0,-0.2897371,-0.112524,-0.2390933,0,-0.2897371,-0.112524,-0.04566979,0,0,0,0,0,-0.735504,0,0,0.6279651,-3.24371,0,99.30838,-10.64067,1,0,0,0,0,-0.691619,0,0,24,0,0,5,2,229
329.3661,102.199,-0.7017105,-35.76984,79.24569,-1,0,0,0,0,-0.01467994,-0.06280274,0.4015772,0,-0.01467994,-0.04164862,-0.007172232,0,0,0,0,0,-0.08166728,0,0,-0.2897371,-0.213641,-0.8182762,0,-0.2897371,-0.112524,-0.04566979,0,0,0,0,0,-0.735504,0,0,1.293531,-4.039427,0,99.30838,-10.64067,1,0,0,0,0,-0.691619,0,0,24,0,0,6,2,229
335.3546,119.2414,-0.7759885,-30.63391,102.199,-1,0,0,0,0,-0.003450155,-0.07342182,0.8359815,0,-0.01467994,-0.06280274,-0.01619967,0,0,0,0,0,-0.1209928,0,0,-0.3129119,-0.2982637,-1.461622,0,-0.2897371,-0.213641,-0.01877041,0,0,0,0,0,-1.022302,0,0,2.04639,-4.56952,0,99.30838,-13.25094,1,0,0,0,0,-2.037664,0,0,24,0,0,7,2,229
335.3546,119.2414,-0.8965672,-24.64539,119.2414,-1,0,0,0,0,-0.4135991,-0.07342182,0.8359815,0,-0.4135991,-0.07342182,-0.03017756,0,0,0,0,0,-0.2560213,0,0,-0.2578588,-0.2982637,-1.461622,0,-0.2578588,-0.2982637,0.0152722,0,0,0,0,0,-1.216508,0,0,2.04639,-4.56952,0,97.58651,-14.98985,1,0,0,0,0,-2.413492,0,0,24,0,0,8,2,229
342.0166,132.7861,-0.956645,-24.64539,119.2414,-1,0,0,0,0,-0.4135991,-0.08303832,1.459684,0,-0.4135991,-0.07342182,-0.03385209,0,0,0,0,0,-0.2560213,0,0,-0.2578588,-0.3709918,-2.089018,0,-0.2578588,-0.2982637,0.02255044,0,0,0,0,0,-1.216508,0,0,2.85898,-4.931951,0,97.58651,-14.98985,1,0,0,0,0,-2.413492,0,0,24,0,0,9,2,229
349.2706,144.7448,-0.9994671,-17.98343,132.7861,-1,0,0,0,0,-0.2464277,-0.09288788,2.266763,0,-0.4135991,-0.08303832,-0.05374104,0,0,0,0,0,-0.2738984,0,0,-0.4143147,-0.4368691,-2.607063,0,-0.2578588,-0.3709918,0.06129327,0,0,0,0,0,-1.422787,0,0,3.713483,-5.186738,0,97.58651,-16.17877,1,0,0,0,0,-3.616644,0,0,24,0,0,10,2,229
357.078,155.9095,-1.025182,-10.72943,144.7448,-0.9827427,0,0,0,0,-0.162842,-0.1041979,3.238822,0,-0.2464277,-0.09288788,-0.07783045,0,0,0,0,0,-0.2438962,0,0,-0.4925426,-0.499017,-2.930261,0,-0.4143147,-0.4368691,0.07107927,0,0,0,0,0,-1.834462,0,0,4.598154,-5.370973,0,96.38335,-17.01457,1,0,0,0,0,-4.21822,0,0,24,0,0,11,2,229
5.420393,166.5985,-1.039791,-2.921967,155.9095,-0.8345808,0,0,0,0,-0.2351978,-0.1187125,4.352014,0,-0.2351978,-0.1041979,-0.1078672,0,0,0,0,0,-0.2616761,0,0,-0.4374895,-0.5622853,-3.022113,0,-0.4374895,-0.499017,0.07425459,0,0,0,0,0,-2.044034,0,0,5.505369,-5.507721,0,95.03731,-17.61894,1,0,0,0,0,-4.962689,0,0,24,0,0,12,2,229
14.29512,177.0424,-1.02624,5.420393,166.5985,-0.6491686,0,0,0,0,-0.3075538,-0.1364806,5.559909,0,-0.3075538,-0.1187125,-0.1445091,0,0,0,0,0,-0.3095696,0,0,-0.3824363,-0.6228489,-2.802911,0,-0.3824363,-0.5622853,0.08075229,0,0,0,0,0,-2.144371,0,0,6.429833,-5.613033,0,94.29284,-18.06753,1,0,0,0,0,-5.707158,0,0,24,0,0,13,2,229
23.68405,186.8468,-0.9905027,14.29512,177.0424,-0.432144,0,0,0,0,-0.2963238,-0.1581735,6.799627,0,-0.3075538,-0.1364806,-0.1829778,0,0,0,0,0,-0.3426005,0,0,-0.405611,-0.6836559,-2.246966,0,-0.3824363,-0.6228489,0.04478226,0,0,0,0,0,-2.316147,0,0,7.368075,-5.696551,0,94.29284,-18.41299,1,0,0,0,0,-7.053202,0,0,24,0,0,14,2,229
33.38281,192.3087,-0.9312925,23.68405,186.8468,-0.1832123,0,0,0,0,-0.36868,-0.1966901,7.987483,0,-0.2963238,-0.1581735,-0.2225586,0,0,0,0,0,-0.379682,0,0,-0.3505578,-0.7325539,-1.337097,0,-0.405611,-0.6836559,-0.02529545,0,0,0,0,0,-2.521916,0,0,8.317608,-5.766213,0,92.9468,-18.68697,1,0,0,0,0,-7.797671,0,0,24,0,0,15,2,229
43.18944,193.5593,-0.7643784,33.38281,192.3087,0.1719276,0,0,0,0,-0.1032424,-0.2572758,9.040947,0,-0.1032424,-0.1966901,-0.26225,0,0,0,0,0,-0.395484,0,0,-0.2955048,-0.7749356,-0.08447027,0,-0.2955048,-0.7325539,-0.1144845,0,0,0,0,0,-2.502383,0,0,9.277419,-5.828004,0,91.08922,-18.91549,1,0,0,0,0,-8.91078,0,0,24,0,0,16,2,229
52.93679,191.4392,-0.6564049,43.18944,193.5593,0.4631183,0,0,0,0,-0.4298058,-0.3362841,9.89212,0,-0.4298058,-0.2572758,-0.2989465,0,0,0,0,0,-0.6024895,0,0,-0.3186796,-0.8219222,1.413988,0,-0.3186796,-0.7749356,-0.2365708,0,0,0,0,0,-2.655892,0,0,10.2465,-5.884799,0,90.11182,-19.11819,1,0,0,0,0,-9.888185,0,0,24,0,0,17,2,229
62.44016,185.7969,-0.5240629,52.93679,191.4392,0.7719793,0,0,0,0,-0.09201241,-0.4327016,10.49852,0,-0.4298058,-0.3362841,-0.3298861,0,0,0,0,0,-0.749366,0,0,-0.3186796,-0.8790057,3.008502,0,-0.3186796,-0.8219222,-0.3866897,0,0,0,0,0,-2.78916,0,0,11.22422,-5.937856,0,90.11182,-19.30449,1,0,0,0,0,-10.25682,0,0,24,0,0,18,2,229
71.30332,172.6492,-0.3679625,62.44016,185.7969,1,0,0,0,0,-0.08078337,-0.5611721,10.86788,0,-0.09201241,-0.4327016,-0.3512147,0,0,0,0,0,-0.8309838,0,0,-0.3418541,-0.9478992,4.52599,0,-0.3186796,-0.8790057,-0.5482802,0,0,0,0,0,-2.951066,0,0,12.20995,-5.987026,0,89.74318,-19.47854,1,0,0,0,0,-11.60287,0,0,24,0,0,19,2,229
79.25412,154.4668,-0.01652229,71.30332,172.6492,1,0,0,0,0,-0.1531386,-0.7045449,11.05134,0,-0.1531386,-0.5611721,-0.3699677,0,0,0,0,0,-1.087476,0,0,-0.2868011,-1.036894,5.762859,0,-0.2868011,-0.9478992,-0.70893,0,0,0,0,0,-3.10066,0,0,13.20347,-6.034297,0,87.65266,-19.63984,1,0,0,0,0,-12.34734,0,0,24,0,0,20,2,229
86.00592,130.9014,0.1757377,79.25412,154.4668,1,0,0,0,0,0.1122985,-0.8565966,11.13674,0,0.1122985,-0.7045449,-0.3821876,0,0,0,0,0,-1.277295,0,0,-0.2317481,-1.147679,6.511055,0,-0.2317481,-1.036894,-0.8313878,0,0,0,0,0,-3.273964,0,0,14.20455,-6.080785,0,86.53955,-19.79491,1,0,0,0,0,-13.46045,0,0,24,0,0,21,2,229
91.43646,105.0845,0.3817883,86.00592,130.9014,1,0,0,0,0,-0.3125305,-0.9975266,11.2062,0,0.1122985,-0.8565966,-0.3935978,0,0,0,0,0,-1.559959,0,0,-0.4664316,-1.276396,6.588557,0,-0.2317481,-1.147679,-0.92913,0,0,0,0,0,-3.588183,0,0,15.21362,-6.130485,0,86.53955,-19.94741,1,0,0,0,0,-14.52789,0,0,24,0,0,22,2,229
99.28371,67.65662,0.5984993,91.43646,105.0845,1,0,0,0,0,-0.6390934,-1.14964,11.33422,0,-0.3125305,-0.9975266,-0.4076788,0,0,0,0,0,-1.944723,0,0,-0.4896064,-1.530719,4.288002,0,-0.4664316,-1.276396,-1,0,0,0,0,0,-4.290504,0,0,17.26295,-6.260899,0,85.47211,-20.11044,1,0,0,0,0,-15.5053,0,0,24,0,0,23,2,229
102.1201,55.09241,1.062513,99.28371,67.65662,1,0,0,0,0,-0.5183687,-1.167432,11.3759,0,-0.5183687,-1.14964,-0.423339,0,0,0,0,0,-2.28699,0,0,-0.3244472,-1.641559,1.978712,0,-0.3244472,-1.530719,-0.8586492,0,0,0,0,0,-4.807807,0,0,18.30663,-6.34174,0,81.89265,-20.53825,1,0,0,0,0,-18.10735,0,0,24,0,0,24,2,229
104.4852,46.08433,1.297724,102.1201,55.09241,1,0,0,0,0,-0.5071392,-1.140813,11.38448,0,-0.5071392,-1.167432,-0.4244741,0,0,0,0,0,-2.316818,0,0,-0.3476219,-1.729005,-0.9878886,0,-0.3476219,-1.641559,-0.6563463,0,0,0,0,0,-5.155488,0,0,19.36566,-6.435329,0,80.54661,-20.80344,1,0,0,0,0,-19.45339,0,0,24,0,0,25,2,229
106.539,40.03677,1.536181,104.4852,46.08433,1,0,0,0,0,-0.5794945,-1.066276,11.35963,0,-0.5071392,-1.140813,-0.4232063,0,0,0,0,0,-2.267334,0,0,-0.2925687,-1.786462,-4.519095,0,-0.3476219,-1.729005,-0.4062372,0,0,0,0,0,-5.403511,0,0,20.44228,-6.542153,0,80.54661,-21.11045,1,0,0,0,0,-20.19786,0,0,24,0,0,26,2,229
108.4368,36.82301,1.777102,106.539,40.03677,1,0,0,0,0,-0.1581163,-0.944276,11.3096,0,-0.5794945,-1.066276,-0.4187887,0,0,0,0,0,-2.14968,0,0,-0.3707967,-1.805049,-8.545585,0,-0.2925687,-1.786462,-0.08908065,0,0,0,0,0,-5.487363,0,0,21.53789,-6.657929,0,79.80214,-21.46088,1,0,0,0,0,-21.16808,0,0,24,0,0,27,2,229
110.3097,35.95475,2.260328,108.4368,36.82301,1,0,0,0,0,-0.7218008,-0.7875337,11.24817,0,-0.7218008,-0.944276,-0.406432,0,0,0,0,0,-1.964009,0,0,-1.373289,-1.790873,-12.82119,0,-1.373289,-1.805049,0.2661643,0,0,0,0,0,-7.093076,0,0,22.65366,-6.779559,0,77.63724,-21.84067,1,0,0,0,0,-22.36276,0,0,24,0,0,28,2,229
114.3767,39.81927,2.502857,110.3097,35.95475,1,0,0,0,0,-0.9760075,-0.3995817,11.27885,0,-0.9760075,-0.7875337,-0.4028221,0,0,0,0,0,-1.746091,0,0,-1.451517,-1.675082,-20.7424,0,-1.451517,-1.790873,0.5203435,0,0,0,0,0,-7.165281,0,0,24.94385,-7.013951,0,77.4043,-22.23967,1,0,0,0,0,-22.5957,0,0,24,0,0,29,2,229
116.6983,43.9428,2.752797,114.3767,39.81927,1,0,0,0,0,-0.7976055,-0.1875592,11.49663,0,-0.9760075,-0.3995817,-0.3814158,0,0,0,0,0,-1.024889,0,0,-1.631148,-1.584482,-23.64988,0,-1.451517,-1.675082,1,0,0,0,0,0,-6.836864,0,0,26.11485,-7.114027,0,77.4043,-23.00856,1,0,0,0,0,-25.14489,0,0,24,0,0,30,2,229
119.2476,48.94685,3.005226,116.6983,43.9428,1,0,0,0,0,-1.28011,0.02953462,11.91736,0,-0.7976055,-0.1875592,-0.3743502,0,0,0,0,0,-0.5791806,0,0,-1.521042,-1.475657,-25.53963,0,-1.631148,-1.584482,1,0,0,0,0,0,-6.838026,0,0,27.29982,-7.197537,0,74.85511,-23.33685,1,0,0,0,0,-26.26519,0,0,24,0,0,31,2,229
122.0217,54.35793,3.513676,119.2476,48.94685,1,0,0,0,0,-1.268881,0.2366835,12.5665,0,-1.268881,0.02953462,-0.3792047,0,0,0,0,0,-0.3118017,0,0,-1.544216,-1.368754,-26.21174,0,-1.544216,-1.475657,1,0,0,0,0,0,-6.404445,0,0,28.49541,-7.261945,0,72.38876,-23.6108,1,0,0,0,0,-27.61123,0,0,24,0,0,32,2,229
125.0071,59.66105,3.770754,122.0217,54.35793,1,0,0,0,0,-1.003445,0.448567,13.43111,0,-1.003445,0.2366835,-0.3849115,0,0,0,0,0,0.1499991,0,0,-1.489163,-1.249764,-25.82098,0,-1.489163,-1.368754,1,0,0,0,0,0,-6.022125,0,0,29.70084,-7.321088,0,71.27566,-23.82208,1,0,0,0,0,-28.72434,0,0,24,0,0,33,2,229
125.0071,59.66105,4.032122,125.0071,59.66105,1,0,0,0,0,-1.330008,0.448567,13.43111,0,-1.003445,0.448567,-0.3995038,0,0,0,0,0,0.5438905,0,0,-1.512338,-1.249764,-25.82098,0,-1.489163,-1.249764,1,0,0,0,0,0,-5.684633,0,0,29.70084,-7.321088,0,71.27566,-24.0161,1,0,0,0,0,-29.70175,0,0,24,0,0,34,2,229
128.1753,64.09389,4.290236,125.0071,59.66105,1,0,0,0,0,-1.330008,0.6455467,14.45629,0,-1.330008,0.448567,-0.4024295,0,0,0,0,0,0.4495138,0,0,-1.512338,-1.141883,-24.48647,0,-1.512338,-1.249764,1,0,0,0,0,0,-5.717935,0,0,30.91363,-7.365065,0,70.29825,-24.0161,1,0,0,0,0,-29.70175,0,0,24,0,0,35,2,229
131.5161,67.85632,4.813851,128.1753,64.09389,1,0,0,0,0,-1.136928,0.8225087,15.58516,0,-1.136928,0.6455467,-0.4228584,0,0,0,0,0,0.8714991,0,0,-1.402231,-1.057275,-22.30816,0,-1.402231,-1.141883,1,0,0,0,0,0,-5.253729,0,0,32.13067,-7.390885,0,68.44067,-24.16036,1,0,0,0,0,-31.55932,0,0,24,0,0,36,2,229
135.0093,70.65179,5.079762,131.5161,67.85632,1,0,0,0,0,-1.05334,0.9788922,16.75138,0,-1.05334,0.8225087,-0.4451766,0,0,0,0,0,1.224628,0,0,-1.480459,-1.004477,-19.36414,0,-1.480459,-1.057275,1,0,0,0,0,0,-5.126169,0,0,33.34945,-7.400812,0,67.8391,-24.24506,1,0,0,0,0,-32.1609,0,0,24,0,0,37,2,229
138.612,72.11225,5.351068,135.0093,70.65179,1,0,0,0,0,-0.5224667,1.119174,17.89088,0,-1.05334,0.9788922,-0.4723172,0,0,0,0,0,1.515345,0,0,-1.370353,-0.9913735,-15.7251,0,-1.480459,-1.004477,1,0,0,0,0,0,-4.976418,0,0,34.56775,-7.398499,0,67.8391,-24.27762,1,0,0,0,0,-34.38712,0,0,24,0,0,38,2,229
142.2455,71.62534,5.627975,138.612,72.11225,1,0,0,0,0,-0.4388809,1.243871,18.93521,0,-0.5224667,1.119174,-0.4948011,0,0,0,0,0,1.929551,0,0,-1.448582,-1.023595,-11.48081,0,-1.370353,-0.9913735,1,0,0,0,0,0,-4.78103,0,0,35.7832,-7.380608,0,65.61288,-24.27004,1,0,0,0,0,-34.98869,0,0,24,0,0,39,2,229
145.8403,69.56203,6.18955,142.2455,71.62534,1,0,0,0,0,-0.6818562,1.358238,19.82997,0,-0.6818562,1.243871,-0.5192404,0,0,0,0,0,2.115299,0,0,-1.549984,-1.103915,-6.699028,0,-1.549984,-1.023595,0.5976294,0,0,0,0,0,-5.130549,0,0,36.99399,-7.35302,0,63.43232,-24.21135,1,0,0,0,0,-36.56768,0,0,24,0,0,40,2,229
149.3166,65.95528,6.474791,145.8403,69.56203,1,0,0,0,0,-0.6706276,1.466871,20.53901,0,-0.6706276,1.358238,-0.5424632,0,0,0,0,0,2.331154,0,0,-1.573159,-1.234752,-1.452806,0,-1.573159,-1.103915,0.1202775,0,0,0,0,0,-5.391664,0,0,38.19864,-7.316284,0,62.08628,-24.12085,1,0,0,0,0,-37.91372,0,0,24,0,0,41,2,229
152.5888,60.88943,6.76524,149.3166,65.95528,1,0,0,0,0,-0.7429848,1.574674,21.05053,0,-0.6706276,1.466871,-0.5581833,0,0,0,0,0,2.533103,0,0,-1.518106,-1.418219,4.177999,0,-1.573159,-1.234752,-0.3965156,0,0,0,0,0,-5.762758,0,0,39.39571,-7.270921,0,62.08628,-24.00034,1,0,0,0,0,-38.65819,0,0,24,0,0,42,2,229
155.5688,54.42257,7.060383,152.5888,60.88943,1,0,0,0,0,-0.393961,1.689679,21.37325,0,-0.7429848,1.574674,-0.5684758,0,0,0,0,0,2.712596,0,0,-1.541281,-1.63368,9.859261,0,-1.518106,-1.418219,-0.9551451,0,0,0,0,0,-6.204013,0,0,40.5847,-7.222515,0,61.34181,-23.85153,1,0,0,0,0,-40.37287,0,0,24,0,0,43,2,229
158.1657,46.59723,7.655191,155.5688,54.42257,1,0,0,0,0,-0.4663162,1.813489,21.53472,0,-0.4663162,1.689679,-0.5687256,0,0,0,0,0,3.006349,0,0,-1.486227,-1.856997,14.95581,0,-1.486227,-1.63368,-1,0,0,0,0,0,-6.769316,0,0,41.76424,-7.165757,0,58.88266,-23.69274,1,0,0,0,0,-41.11734,0,0,24,0,0,44,2,229
160.294,37.7168,7.954414,158.1657,46.59723,1,0,0,0,0,-0.2820587,1.945988,21.56206,0,-0.2820587,1.813489,-0.5655937,0,0,0,0,0,3.28976,0,0,-2.543774,-2.090619,18.89191,0,-2.543774,-1.856997,-1,0,0,0,0,0,-8.922402,0,0,42.93436,-7.109817,0,57.69516,-23.50655,1,0,0,0,0,-42.30484,0,0,24,0,0,45,2,229
161.905,28.54839,8.255615,160.294,37.7168,1,0,0,0,0,-0.01662254,2.083663,21.48802,0,-0.2820587,1.945988,-0.5588055,0,0,0,0,0,3.536077,0,0,-2.48872,-2.332896,21.32047,0,-2.543774,-2.090619,-1,0,0,0,0,0,-9.585027,0,0,44.09467,-7.049911,0,57.69516,-23.32304,1,0,0,0,0,-43.41795,0,0,24,0,0,46,2,229
163.0137,20.12826,8.557587,161.905,28.54839,1,0,0,0,0,-0.08897781,2.219847,21.33772,0,-0.01662254,2.083663,-0.5461982,0,0,0,0,0,3.868726,0,0,-2.433666,-2.602605,22.47274,0,-2.48872,-2.332896,-1,0,0,0,0,0,-10,0,0,45.2421,-6.972791,0,56.58205,-23.12653,1,0,0,0,0,-44.16242,0,0,24,0,0,47,2,229
164.0696,8.321917,9.157663,163.0137,20.12826,1,0,0,0,0,-0.1760139,2.50366,20.86806,0,-0.1760139,2.219847,-0.5343389,0,0,0,0,0,4.075828,0,0,-2.668351,-3.105712,21.54974,0,-2.668351,-2.602605,-1,0,0,0,0,0,-10,0,0,47.50439,-6.847215,0,54.4015,-22.87354,1,0,0,0,0,-45.5985,0,0,24,0,0,48,2,229
164.2401,5.416904,9.455816,164.0696,8.321917,1,0,0,0,0,0.5108013,2.649434,20.52714,0,0.5108013,2.50366,-0.4980502,0,0,0,0,0,4.801926,0,0,-2.691525,-3.318221,19.73432,0,-2.691525,-3.105712,-1,0,0,0,0,0,-10,0,0,48.62574,-6.815228,0,52.31817,-22.4616,1,0,0,0,0,-47.68183,0,0,24,0,0,49,2,229
164.3364,4.584345,9.751415,164.2401,5.416904,1,0,0,0,0,0.3660908,2.796813,20.09256,0,0.5108013,2.649434,-0.4790807,0,0,0,0,0,5.072919,0,0,-2.581419,-3.494795,17.17157,0,-2.691525,-3.318221,-1,0,0,0,0,0,-10,0,0,49.74502,-6.803293,0,52.31817,-22.35667,1,0,0,0,0,-49.17077,0,0,24,0,0,50,2,229
164.4931,5.877912,10.04432,164.3364,4.584345,1,0,0,0,0,1.379469,2.948187,19.56315,0,0.3660908,2.796813,-0.4584119,0,0,0,0,0,5.305075,0,0,-2.581419,-3.629202,13.9643,0,-2.581419,-3.494795,-1,0,0,0,0,0,-10,0,0,50.86689,-6.819043,0,50.82923,-22.31752,1,0,0,0,0,-50.27669,0,0,24,0,0,51,2,229
164.8419,9.325007,10.62208,164.4931,5.877912,1,0,0,0,0,1.153578,3.100267,18.93631,0,1.153578,2.948187,-0.4241981,0,0,0,0,0,5.814064,0,0,-3.583911,-3.715192,10.20461,0,-3.583911,-3.629202,-1,0,0,0,0,0,-10,0,0,51.99691,-6.869053,0,48.15999,-22.36919,1,0,0,0,0,-51.84001,0,0,24,0,0,52,2,229
165.5115,14.8761,10.90748,164.8419,9.325007,1,0,0,0,0,0.8270149,3.253119,18.22699,0,0.8270149,3.100267,-0.4009511,0,0,0,0,0,6.002404,0,0,-3.607086,-3.746456,5.973651,0,-3.607086,-3.715192,-1,0,0,0,0,0,-10,0,0,53.1414,-6.957967,0,47.18258,-22.53324,1,0,0,0,0,-52.81742,0,0,24,0,0,53,2,229
166.6179,22.33176,11.19158,165.5115,14.8761,1,0,0,0,0,1.502602,3.406284,17.4778,0,0.8270149,3.253119,-0.3701536,0,0,0,0,0,6.286555,0,0,-3.607086,-3.716173,1.353687,0,-3.607086,-3.746456,-1,0,0,0,0,0,-10,0,0,54.30719,-7.08723,0,47.18258,-22.82492,1,0,0,0,0,-53.5547,0,0,24,0,0,54,2,229
168.2568,31.44321,11.47539,166.6179,22.33176,1,0,0,0,0,1.374975,3.555649,16.74281,0,1.502602,3.406284,-0.3320493,0,0,0,0,0,6.766533,0,0,-4.398069,-3.615393,-3.591923,0,-3.607086,-3.716173,-1,0,0,0,0,0,-10,0,0,55.50171,-7.262739,0,46.4453,-23.24895,1,0,0,0,0,-55.02798,0,0,24,0,0,55,2,229
170.5134,42.13395,12.04157,168.2568,31.44321,1,0,0,0,0,1.640413,3.696147,16.10139,0,1.640413,3.555649,-0.3018002,0,0,0,0,0,7.08403,0,0,-4.343017,-3.434076,-8.799537,0,-4.343017,-3.615393,-0.589543,0,0,0,0,0,-10,0,0,56.73231,-7.482831,0,43.85891,-23.82469,1,0,0,0,0,-56.14109,0,0,24,0,0,56,2,229
173.4686,54.45424,12.32584,170.5134,42.13395,1,0,0,0,0,1.963526,3.813965,15.63788,0,1.963526,3.696147,-0.2685467,0,0,0,0,0,7.438597,0,0,-4.632754,-3.162076,-14.19716,0,-4.632754,-3.434076,-0.1104426,0,0,0,0,0,-10,0,0,58.00568,-7.742435,0,42.79865,-24.54668,1,0,0,0,0,-57.20135,0,0,24,0,0,57,2,229
177.1825,68.24249,12.61406,173.4686,54.45424,1,0,0,0,0,1.818813,3.900359,15.47842,0,1.963526,3.813965,-0.247388,0,0,0,0,0,7.65762,0,0,-4.522648,-2.789847,-19.71603,0,-4.632754,-3.162076,0.3861387,0,0,0,0,0,-10,0,0,59.32656,-8.031185,0,42.79865,-25.39828,1,0,0,0,0,-58.69028,0,0,24,0,0,58,2,229
181.692,83.29221,12.90793,177.1825,68.24249,1,0,0,0,0,2.577986,3.943123,15.76045,0,1.818813,3.900359,-0.2387625,0,0,0,0,0,7.776404,0,0,-4.600876,-2.344532,-24.98932,0,-4.522648,-2.789847,0.8938749,0,0,0,0,0,-10,0,0,60.69548,-8.321379,0,41.30972,-26.3455,1,0,0,0,0,-60.02914,0,0,24,0,0,59,2,229
186.9967,99.27378,11.7819,-178.308,83.29221,1,0,0,0,0,2.095482,3.94182,16.62848,0,2.095482,3.943123,-0.2382395,0,0,0,0,0,7.935859,0,0,-4.490768,-1.87155,-29.3303,0,-4.490768,-2.344532,1,0,0,0,0,0,-10,0,0,62.10723,-8.580529,0,38.85056,-27.29745,1,0,0,0,0,-61.14944,0,0,24,0,0,60,2,229
193.0664,115.7155,11.27313,-173.0033,99.27378,1,0,0,0,0,2.444504,3.899518,18.17841,0,2.444504,3.94182,-0.2664193,0,0,0,0,0,8.034306,0,0,-4.513945,-1.393415,-32.11052,0,-4.513945,-1.87155,1,0,0,0,0,0,-10,0,0,63.55515,-8.799309,0,37.13587,-28.14757,1,0,0,0,0,-62.86413,0,0,24,0,0,61,2,229
199.8817,132.0869,10.78337,-166.9336,115.7155,1,0,0,0,0,2.455734,3.826256,20.40337,0,2.444504,3.899518,-0.3169051,0,0,0,0,0,7.955665,0,0,-4.537119,-0.9316874,-32.88998,0,-4.513945,-1.393415,1,0,0,0,0,0,-10,0,0,65.03219,-8.973547,0,37.13587,-28.86525,1,0,0,0,0,-64.21017,0,0,24,0,0,62,2,229
207.4694,147.7699,10.31415,-160.1183,132.0869,1,0,0,0,0,3.058964,3.714536,23.17623,0,2.455734,3.826256,-0.3900003,0,0,0,0,0,7.822717,0,0,-4.482065,-0.4642092,-31.78465,0,-4.537119,-0.9316874,1,0,0,0,0,0,-9.162385,0,0,66.53393,-9.120984,0,35.78983,-29.43682,1,0,0,0,0,-65.69193,0,0,24,0,0,63,2,229
215.9176,162.0354,9.42278,-152.5306,147.7699,1,0,0,0,0,2.914251,3.591297,26.25116,0,2.914251,3.714536,-0.4769929,0,0,0,0,0,7.747541,0,0,-4.37196,-0.03178443,-28.8422,0,-4.37196,-0.4642092,1,0,0,0,0,0,-7.599143,0,0,68.05451,-9.233473,0,32.81915,-29.92048,1,0,0,0,0,-67.18085,0,0,24,0,0,64,2,229
225.2637,173.2006,9.004064,-144.0824,162.0354,1,0,0,0,0,3.673428,3.481056,29.28895,0,3.673428,3.591297,-0.5739129,0,0,0,0,0,7.737843,0,0,-4.450188,0.3458029,-24.11919,0,-4.450188,-0.03178443,1,0,0,0,0,0,-6.48507,0,0,69.58702,-9.303905,0,31.48029,-30.28949,1,0,0,0,0,-68.51971,0,0,24,0,0,65,2,229
235.5141,181.4415,8.611102,-134.7363,173.2006,1,0,0,0,0,3.430443,3.404791,31.91782,0,3.673428,3.481056,-0.6744375,0,0,0,0,0,7.532904,0,0,-4.55159,0.6650003,-17.71196,0,-4.450188,0.3458029,1,0,0,0,0,0,-5.414119,0,0,71.12406,-9.329673,0,31.48029,-30.52053,1,0,0,0,0,-70.09869,0,0,24,0,0,66,2,229
246.5516,186.8884,8.245785,-124.4859,181.4415,1,0,0,0,0,3.441677,3.376996,33.77837,0,3.430443,3.404791,-0.7625043,0,0,0,0,0,7.320905,0,0,-4.574764,0.9355555,-9.804197,0,-4.55159,0.6650003,1,0,0,0,0,0,-4.654495,0,0,72.65834,-9.311653,0,29.90131,-30.60506,1,0,0,0,0,-71.44473,0,0,24,0,0,67,2,229
257.984,188.1112,7.574814,-113.4484,186.8884,1,0,0,0,0,3.790699,3.411838,34.55304,0,3.790699,3.376996,-0.8216827,0,0,0,0,0,7.373347,0,0,-4.59794,1.176218,-0.7889035,0,-4.59794,0.9355555,0.5413074,0,0,0,0,0,-3.953725,0,0,74.18294,-9.251133,0,26.84058,-30.54595,1,0,0,0,0,-73.15942,0,0,24,0,0,68,2,229
269.1954,184.3492,7.271875,-102.016,188.1112,1,0,0,0,0,3.645985,3.515808,34.08126,0,3.645985,3.411838,-0.8418589,0,0,0,0,0,7.396297,0,0,-4.487833,1.410337,8.757401,0,-4.487833,1.176218,-0.2138085,0,0,0,0,0,-3.112909,0,0,75.69093,-9.149364,0.001818318,25.35164,-30.34742,1,0,0,0,0,-74.64836,0,0,24,0,0,69,2,229
279.5015,174.8588,6.997861,-90.8046,184.3492,1,0,0,0,0,3.657219,3.685993,32.44461,0,3.645985,3.515808,-0.8212423,0,0,0,0,0,7.589577,0,0,-4.511009,1.661745,18.20431,0,-4.487833,1.410337,-1,0,0,0,0,0,-2.448876,0,0,77.17505,-9.003745,0.01201451,25.35164,-30.01358,1,0,0,0,0,-75.9944,0,0,24,0,0,70,2,229
288.4789,161.2746,6.750344,-80.49854,174.8588,1,0,0,0,0,3.512505,3.881085,29.93077,0,3.657219,3.685993,-0.7605977,0,0,0,0,0,7.909196,0,0,-4.400902,1.955632,26.79624,0,-4.511009,1.661745,-1,0,0,0,0,0,-1.769113,0,0,78.6324,-8.840169,0.01946413,24.0056,-29.53588,1,0,0,0,0,-77.48335,0,0,24,0,0,71,2,229
295.9442,144.0196,6.302467,-71.52109,161.2746,1,0,0,0,0,3.523735,4.050248,26.92507,0,3.523735,3.881085,-0.6727221,0,0,0,0,0,8.233296,0,0,-4.424076,2.283431,33.40586,0,-4.424076,1.955632,-1,0,0,0,0,0,-0.810638,0,0,80.06532,-8.689494,0.05025802,21.17061,-28.99929,0.9686537,0,0,0,0,-78.82939,0,0,24,0,0,72,2,229
301.9118,124.3539,6.099833,-64.05585,144.0196,1,0,0,0,0,4.874908,4.220715,23.79125,0,4.874908,4.050248,-0.5575913,0,0,0,0,0,8.938259,0,0,-4.424076,2.63214,37.5529,0,-4.424076,2.283431,-1,0,0,0,0,0,0.1190963,0,0,81.47046,-8.519153,0.06995406,19.69604,-28.50502,0.9069754,0,0,0,0,-80.30396,0,0,24,0,0,73,2,229
306.5573,104.3614,5.913051,-58.08823,124.3539,1,0,0,0,0,4.886139,4.416427,20.81272,0,4.874908,4.220715,-0.450619,0,0,0,0,0,9.255157,0,0,-4.44725,3.021034,39.76505,0,-4.424076,2.63214,-1,0,0,0,0,0,1.10814,0,0,82.84098,-8.306195,0.0896501,19.69604,-27.94623,0.9330473,0,0,0,0,-81.64999,0,0,24,0,0,74,2,229
310.1432,85.36253,5.738976,-53.44272,104.3614,1,0,0,0,0,4.980953,4.578673,18.19785,0,4.886139,4.416427,-0.3469051,0,0,0,0,0,9.622231,0,0,-4.548655,3.370571,40.5347,0,-4.44725,3.021034,-1,0,0,0,0,0,2.17786,0,0,84.16338,-8.011764,0.1080001,18.35001,-27.24764,0.8799385,0,0,0,0,-83.59762,0,0,24,0,0,75,2,229
310.1432,85.36253,5.412478,-49.85678,85.36253,1,0,0,0,0,5.402332,4.578673,18.19785,0,5.402332,4.578673,-0.2556448,0,0,0,0,0,10.07303,0,0,-4.626883,3.370571,40.5347,0,-4.626883,3.370571,-1,0,0,0,0,0,2.911119,0,0,84.16338,-8.011764,0.1398347,15.43217,-26.28179,0.7506115,0,0,0,0,-84.56783,0,0,24,0,0,76,2,229
312.982,68.7384,5.251501,-49.85678,85.36253,1,0,0,0,0,5.402332,4.686086,16.07752,0,5.402332,4.578673,-0.2518696,0,0,0,0,0,10.07303,0,0,-4.626883,3.682911,40.21379,0,-4.626883,3.370571,-1,0,0,0,0,0,2.911119,0,0,85.43082,-7.675925,0.1552668,15.43217,-26.28179,0.7660437,0,0,0,0,-84.56783,0,0,24,0,0,77,2,229
315.2705,54.78403,5.099231,-47.01801,68.7384,1,0,0,0,0,5.578327,4.755546,14.44157,0,5.402332,4.686086,-0.1799491,0,0,0,0,0,10.27271,0,0,-3.615686,3.909802,39.07111,0,-4.626883,3.682911,-1,0,0,0,0,0,3.79701,0,0,86.63351,-7.280659,0.170699,15.43217,-25.1801,0.7940462,0,0,0,0,-86.44107,0,0,24,0,0,78,2,229
315.2705,54.78403,4.953957,-44.72952,54.78403,1,0,0,0,0,5.661911,4.755546,14.44157,0,5.578327,4.755546,-0.1236551,0,0,0,0,0,10.4527,0,0,-3.693914,3.909802,39.07111,0,-3.615686,3.909802,-1,0,0,0,0,0,5.893631,0,0,86.63351,-7.280659,0.1842579,13.55893,-23.88347,0.7118599,0,0,0,0,-87.04264,0,0,24,0,0,79,2,229
317.1704,43.45778,4.667372,-44.72952,54.78403,1,0,0,0,0,5.661911,4.769337,13.26097,0,5.661911,4.755546,-0.1229063,0,0,0,0,0,10.47685,0,0,-3.693914,3.933816,37.37558,0,-3.693914,3.909802,-1,0,0,0,0,0,5.781218,0,0,87.73481,-6.663818,0.2101726,12.95736,-23.88347,0.702276,0,0,0,0,-87.04264,0,0,24,0,0,80,2,229
318.7584,34.44171,4.530975,-42.82959,43.45778,1,0,0,0,0,5.927349,4.791823,12.4453,0,5.927349,4.769337,-0.08313476,0,0,0,0,0,10.5792,0,0,-3.638859,4.116147,35.02374,0,-3.638859,3.933816,-1,0,0,0,0,0,5.928443,0,0,88.78026,-6.321962,0.2220169,11.84425,-21.85999,0.6715237,0,0,0,0,-88.15575,0,0,24,0,0,81,2,229
320.1589,28.14195,4.39975,-41.24158,34.44171,1,0,0,0,0,6.767704,4.788389,11.94042,0,5.927349,4.791823,-0.05655329,0,0,0,0,0,10.621,0,0,-2.604488,4.180073,32.17308,0,-3.638859,4.116147,-1,0,0,0,0,0,6.445586,0,0,89.74955,-5.858202,0.2338611,11.84425,-20.73856,0.6961635,0,0,0,0,-89.42023,0,0,24,0,0,82,2,229
320.1589,28.14195,4.273195,-39.84106,28.14195,1,0,0,0,0,6.357555,4.788389,11.94042,0,6.767704,4.788389,-0.0335712,0,0,0,0,0,10.85748,0,0,-2.549437,4.180073,32.17308,0,-2.604488,4.180073,-1,0,0,0,0,0,8.113292,0,0,89.74955,-5.858202,0.2444409,10.57977,-19.21725,0.6494845,0,0,0,0,-89.79605,0,0,24,0,0,83,2,229
321.4529,24.2393,4.023563,-39.84106,28.14195,1,0,0,0,0,6.357555,4.773587,11.67005,0,6.357555,4.788389,-0.03724573,0,0,0,0,0,10.73895,0,0,-2.549437,4.232305,28.86278,0,-2.549437,4.180073,-1,0,0,0,0,0,8.192402,0,0,90.64794,-5.426157,0.2648488,10.20395,-19.21725,0.647715,0,0,0,0,-89.79605,0,0,24,0,0,84,2,229
322.7082,22.42867,3.903851,-38.54712,24.2393,1,0,0,0,0,7.116722,4.75061,11.56811,0,7.116722,4.773587,-0.02291587,0,0,0,0,0,10.93083,0,0,-2.627665,4.374749,25.08088,0,-2.627665,4.232305,-1,0,0,0,0,0,8.228132,0,0,91.51109,-5.210076,0.2737139,8.865097,-17.79997,0.5937457,0,0,0,0,-91.1349,0,0,24,0,0,85,2,229
322.7082,22.42867,3.7883,-37.29181,22.42867,1,0,0,0,0,6.634216,4.75061,11.56811,0,7.116722,4.75061,-0.02107977,0,0,0,0,0,10.88812,0,0,-2.517557,4.374749,25.08088,0,-2.627665,4.374749,-1,0,0,0,0,0,8.632145,0,0,91.51109,-5.210076,0.282579,8.865097,-17.09114,0.6106985,0,0,0,0,-92.2552,0,0,24,0,0,86,2,229
323.9831,22.19182,3.673702,-37.29181,22.42867,1,0,0,0,0,6.634216,4.71504,11.60638,0,6.634216,4.75061,-0.02540252,0,0,0,0,0,10.74867,0,0,-2.517557,4.46512,20.90713,0,-2.517557,4.374749,-1,0,0,0,0,0,8.790369,0,0,92.33346,-4.960727,0.2903238,7.744797,-17.09114,0.5523344,0,0,0,0,-92.2552,0,0,24,0,0,87,2,229
325.3161,23.21093,3.454045,-36.01694,22.19182,1,0,0,0,0,7.309803,4.670198,11.75429,0,7.309803,4.71504,-0.02863873,0,0,0,0,0,10.87779,0,0,-2.517557,4.514099,16.41456,0,-2.517557,4.46512,-1,0,0,0,0,0,9.04669,0,0,93.11048,-4.684527,0.3050761,7.007515,-16.27317,0.5329127,0,0,0,0,-92.99249,0,0,24,0,0,88,2,229
325.3161,23.21093,3.349079,-34.6839,23.21093,1,0,0,0,0,6.882572,4.670198,11.75429,0,6.882572,4.670198,-0.03358321,0,0,0,0,0,10.67096,0,0,-1.561415,4.514099,16.41456,0,-1.561415,4.514099,-0.5901394,0,0,0,0,0,10,0,0,93.11048,-4.684527,0.3116921,6.616028,-15.36712,0.526765,0,0,0,0,-93.38397,0,0,24,0,0,89,2,229
326.7469,25.44445,3.244899,-34.6839,23.21093,1,0,0,0,0,6.882572,4.615419,11.98044,0,6.882572,4.670198,-0.03358321,0,0,0,0,0,10.67096,0,0,-1.561415,4.546164,11.66489,0,-1.561415,4.514099,-0.5901394,0,0,0,0,0,10,0,0,93.84739,-4.439914,0.3183081,6.616028,-15.36712,0.5333811,0,0,0,0,-93.38397,0,0,24,0,0,90,2,229
328.3039,28.51756,3.145338,-33.25311,25.44445,1,0,0,0,0,7.89595,4.539305,12.26306,0,6.882572,4.615419,-0.04375067,0,0,0,0,0,10.56913,0,0,-1.561415,4.580462,6.716349,0,-1.561415,4.546164,-0.1531695,0,0,0,0,0,10,0,0,94.56329,-4.311342,0.3249242,6.616028,-14.5647,0.5491528,0,0,0,0,-94.4899,0,0,24,0,0,91,2,229
328.3039,28.51756,2.956,-31.69611,28.51756,1,0,0,0,0,7.485798,4.539305,12.26306,0,7.485798,4.539305,-0.0478195,0,0,0,0,0,10.60196,0,0,-1.506361,4.580462,6.716349,0,-1.506361,4.580462,0.3020959,0,0,0,0,0,10,0,0,94.56329,-4.311342,0.3355685,5.134277,-14.14293,0.4771715,0,0,0,0,-94.86572,0,0,24,0,0,92,2,229
330.0101,32.12242,2.86258,-31.69611,28.51756,1,0,0,0,0,7.485798,4.436857,12.605,0,7.485798,4.539305,-0.05149405,0,0,0,0,0,10.60196,0,0,-1.506361,4.617839,1.901787,0,-1.506361,4.580462,0.3020959,0,0,0,0,0,10,0,0,95.27967,-4.313657,0.3407028,5.134277,-14.14293,0.4823057,0,0,0,0,-94.86572,0,0,24,0,0,93,2,229
331.8784,35.94256,2.77436,-29.98987,32.12242,1,0,0,0,0,8.089031,4.3082,13.02724,0,7.485798,4.436857,-0.06799813,0,0,0,0,0,10.41151,0,0,-1.451307,4.65008,-2.195631,0,-1.506361,4.617839,0.7450356,0,0,0,0,0,10,0,0,96.01517,-4.42897,0.3458371,5.134277,-14.15052,0.4873534,0,0,0,0,-96.34747,0,0,24,0,0,94,2,229
331.8784,35.94256,2.691318,-28.12164,35.94256,1,0,0,0,0,8.426823,4.3082,13.02724,0,8.089031,4.3082,-0.08309754,0,0,0,0,0,10.34667,0,0,-1.451307,4.65008,-2.195631,0,-1.451307,4.65008,1,0,0,0,0,0,10,0,0,96.01517,-4.42897,0.3494896,3.652527,-14.5288,0.3992516,0,0,0,0,-96.71611,0,0,24,0,0,95,2,229
333.901,39.54531,2.526903,-28.12164,35.94256,1,0,0,0,0,8.426823,4.216206,13.57202,0,8.426823,4.3082,-0.08007129,0,0,0,0,0,10.4443,0,0,-1.451307,4.65362,-5.131658,0,-1.451307,4.65008,1,0,0,0,0,0,10,0,0,96.73242,-4.318317,0.3560574,3.28389,-14.5288,0.3840662,0,0,0,0,-96.71611,0,0,24,0,0,96,2,229
336.0339,42.17487,2.450983,-26.099,39.54531,1,0,0,0,0,8.845798,4.102562,14.21883,0,8.845798,4.216206,-0.0985074,0,0,0,0,0,10.39436,0,0,-0.3387089,4.663483,-6.495336,0,-0.3387089,4.65362,1,0,0,0,0,0,10,0,0,97.44652,-4.299131,0.3590471,2.989639,-14.16581,0.3738338,0,0,0,0,-97.01036,0,0,24,0,0,97,2,229
336.0339,42.17487,2.380722,-23.96613,42.17487,1,0,0,0,0,8.519234,4.102562,14.21883,0,8.845798,4.102562,-0.1251078,0,0,0,0,0,10.1831,0,0,-0.3618851,4.663483,-6.495336,0,-0.3387089,4.663483,1,0,0,0,0,0,10,0,0,97.44652,-4.299131,0.3620367,2.989639,-14.10287,0.3775415,0,0,0,0,-97.98777,0,0,24,0,0,98,2,229
338.2228,43.54722,2.310725,-23.96613,42.17487,1,0,0,0,0,8.519234,4.038287,14.96426,0,8.519234,4.102562,-0.1280335,0,0,0,0,0,10.08872,0,0,-0.3618851,4.65611,-6.635067,0,-0.3618851,4.663483,1,0,0,0,0,0,10,0,0,98.1159,-4.028424,0.3640489,2.01223,-14.10287,0.3218769,0,0,0,0,-97.98777,0,0,24,0,0,99,2,229
340.3812,42.89811,2.183287,-21.77716,43.54722,1,0,0,0,0,9.19482,3.967981,15.73324,0,9.19482,4.038287,-0.1548458,0,0,0,0,0,10.16448,0,0,-0.3618851,4.660689,-5.724317,0,-0.3618851,4.65611,1,0,0,0,0,0,10,0,0,98.74395,-3.777792,0.3673361,1.274948,-13.21484,0.2917894,0,0,0,0,-98.72505,0,0,24,0,0,100,2,229
340.3812,42.89811,2.125705,-19.61884,42.89811,1,0,0,0,0,8.784672,3.967981,15.73324,0,8.784672,3.967981,-0.1803577,0,0,0,0,0,9.915246,0,0,-0.3068295,4.660689,-5.724317,0,-0.3068295,4.660689,1,0,0,0,0,0,10,0,0,98.74395,-3.777792,0.3682352,0.8991241,-12.39267,0.2798922,0,0,0,0,-99.10088,0,0,24,0,0,101,2,229
342.4409,40.64351,2.068312,-19.61884,42.89811,1,0,0,0,0,8.784672,3.874158,16.47057,0,8.784672,3.967981,-0.1803577,0,0,0,0,0,9.915246,0,0,-0.3068295,4.678388,-3.904571,0,-0.3068295,4.660689,1,0,0,0,0,0,10,0,0,99.34462,-3.612809,0.3691344,0.8991241,-12.39267,0.2807913,0,0,0,0,-99.10088,0,0,24,0,0,102,2,229
344.339,37.00058,2.016642,-17.55908,40.64351,1,0,0,0,0,9.05011,3.844682,17.15429,0,8.784672,3.874158,-0.2086221,0,0,0,0,0,9.740829,0,0,-0.2517776,4.713584,-1.441085,0,-0.3068295,4.678388,1,0,0,0,0,0,10,0,0,99.87456,-3.184441,0.3700335,0.8991241,-11.85146,0.2878657,0,0,0,0,-100.214,0,0,24,0,0,103,2,229
344.339,37.00058,1.923317,-15.66101,37.00058,1,0,0,0,0,9.21487,3.844682,17.15429,0,9.21487,3.844682,-0.2291379,0,0,0,0,0,9.810362,0,0,0.7825928,4.713584,-1.441085,0,0.7825928,4.713584,1,0,0,0,0,0,10,0,0,99.87456,-3.184441,0.3690783,-0.7411804,-10.44624,0.2061497,0,0,0,0,-100.7412,0,0,24,0,0,104,2,229
346.0066,31.9508,1.877209,-15.66101,37.00058,1,0,0,0,0,9.21487,3.798869,17.74521,0,9.21487,3.844682,-0.2276618,0,0,0,0,0,9.810362,0,0,0.7825928,4.761349,1.554365,0,0.7825928,4.713584,1,0,0,0,0,0,10,0,0,100.3421,-2.808083,0.3683372,-0.7411804,-10.44624,0.2054085,0,0,0,0,-100.7412,0,0,24,0,0,105,2,229
347.3925,25.9625,1.835731,-13.99344,31.9508,1,0,0,0,0,9.552666,3.72612,18.24641,0,9.21487,3.798869,-0.2486204,0,0,0,0,0,9.725195,0,0,0.7825928,4.823767,4.979238,0,0.7825928,4.761349,0.7769984,0,0,0,0,0,10,0,0,100.7619,-2.518741,0.367596,-0.7411804,-9.211637,0.2187541,0,0,0,0,-101.1098,0,0,24,0,0,106,2,229
347.3925,25.9625,1.797909,-12.60745,25.9625,1,0,0,0,0,9.636253,3.72612,18.24641,0,9.552666,3.72612,-0.2653239,0,0,0,0,0,9.687577,0,0,0.7043648,4.823767,4.979238,0,0.7825928,4.823767,0.4619102,0,0,0,0,0,10,0,0,100.7619,-2.518741,0.3664862,-1.109818,-8.262479,0.2067209,0,0,0,0,-101.7114,0,0,24,0,0,107,2,229
348.4657,19.41248,1.723084,-12.60745,25.9625,1,0,0,0,0,9.636253,3.725662,18.69452,0,9.636253,3.72612,-0.2645751,0,0,0,0,0,9.711734,0,0,0.7043648,4.875771,8.688824,0,0.7043648,4.823767,0.4619102,0,0,0,0,0,10,0,0,101.0913,-1.971559,0.3630634,-1.711395,-8.262479,0.1677991,0,0,0,0,-101.7114,0,0,24,0,0,108,2,229
349.2018,12.51721,1.688914,-11.53433,19.41248,1,0,0,0,0,9.890457,3.684081,19.09019,0,9.890457,3.725662,-0.2762155,0,0,0,0,0,9.784347,0,0,0.7825928,4.94439,12.58674,0,0.7825928,4.875771,0.1206282,0,0,0,0,0,10,0,0,101.352,-1.557317,0.3615849,-1.478455,-6.467504,0.2005471,0,0,0,0,-101.4785,0,0,24,0,0,109,2,229
349.5955,5.608368,1.656837,-10.79816,12.51721,1,0,0,0,0,9.974045,3.63149,19.46039,0,9.890457,3.684081,-0.2908775,0,0,0,0,0,9.707048,0,0,0.7043648,5.014654,16.24633,0,0.7825928,4.94439,-0.2379801,0,0,0,0,0,10,0,0,101.5496,-1.17609,0.3601064,-1.478455,-5.108622,0.2145735,0,0,0,0,-102.08,0,0,24,0,0,110,2,229
349.5955,5.608368,1.626044,-10.40451,5.608368,1,0,0,0,0,9.801014,3.63149,19.46039,0,9.974045,3.63149,-0.3046355,0,0,0,0,0,9.633439,0,0,1.738735,5.014654,16.24633,0,0.7043648,5.014654,-0.5746622,0,0,0,0,0,10,0,0,101.5496,-1.17609,0.3580264,-2.080032,-3.858045,0.1912634,0,0,0,0,-102.2386,0,0,24,0,0,111,2,229
349.6558,-0.9880388,1.565463,-10.40451,5.608368,1,0,0,0,0,9.801014,3.613583,19.83041,0,9.801014,3.63149,-0.3061857,0,0,0,0,0,9.583433,0,0,1.738735,5.068507,19.67399,0,1.738735,5.014654,-0.5746622,0,0,0,0,0,10,0,0,101.6663,-0.6867759,0.3535493,-2.238586,-3.858045,0.17743,0,0,0,0,-102.2386,0,0,24,0,0,112,2,229
349.3876,-7.082353,1.535776,-10.34424,-0.9880388,1,0,0,0,0,9.801014,3.496167,20.17883,0,9.801014,3.613583,-0.3186883,0,0,0,0,0,9.550143,0,0,1.738735,5.185519,22.09665,0,1.738735,5.068507,-0.8900069,0,0,0,0,0,10,0,0,101.7501,-0.488855,0.3513107,-2.238586,-2.2529,0.1935061,0,0,0,0,-102.2386,0,0,24,0,0,113,2,229
349.3876,-7.082353,1.505814,-10.61243,-7.082353,1,0,0,0,0,10.21999,3.496167,20.17883,0,9.801014,3.496167,-0.3362559,0,0,0,0,0,9.331868,0,0,2.851336,5.185519,22.09665,0,1.738735,5.185519,-1,0,0,0,0,0,10,0,0,101.7501,-0.488855,0.3490721,-2.238586,-1.60364,0.1986756,0,0,0,0,-102.5328,0,0,24,0,0,114,2,229
348.8054,-12.63825,1.476303,-10.61243,-7.082353,1,0,0,0,0,10.21999,3.400758,20.51679,0,10.21999,3.496167,-0.3325023,0,0,0,0,0,9.452951,0,0,2.851336,5.2816,23.20312,0,2.851336,5.185519,-1,0,0,0,0,0,10,0,0,101.7911,-0.2299434,0.3465393,-2.532837,-1.60364,0.1787791,0,0,0,0,-102.5328,0,0,24,0,0,115,2,229
347.9254,-17.46334,1.415466,-11.19461,-12.63825,1,0,0,0,0,10.55778,3.287894,20.81489,0,10.55778,3.400758,-0.3484774,0,0,0,0,0,9.373208,0,0,2.851336,5.385969,22.90557,0,2.851336,5.2816,-1,0,0,0,0,0,10,0,0,101.7978,-0.02183239,0.341105,-2.901474,-0.7543064,0.1612824,0,0,0,0,-102.9015,0,0,24,0,0,116,2,229
347.9254,-17.46334,1.383403,-12.07462,-17.46334,1,0,0,0,0,10.55778,3.287894,20.81489,0,10.55778,3.287894,-0.3611965,0,0,0,0,0,9.163395,0,0,2.851336,5.385969,22.90557,0,2.851336,5.385969,-1,0,0,0,0,0,10,0,0,101.7978,-0.02183239,0.3382035,-2.901474,-0.07161897,0.1661704,0,0,0,0,-102.9015,0,0,24,0,0,117,2,229
346.7762,-21.57881,1.351903,-12.07462,-17.46334,1,0,0,0,0,10.55778,3.184865,21.04861,0,10.55778,3.287894,-0.3611965,0,0,0,0,0,9.163395,0,0,2.851336,5.478715,21.48675,0,2.851336,5.385969,-1,0,0,0,0,0,10,0,0,101.7659,0.2107598,0.3353021,-2.901474,-0.07161897,0.1632689,0,0,0,0,-102.9015,0,0,24,0,0,118,2,229
345.3894,-25.057,1.317845,-13.22382,-21.57881,1,0,0,0,0,10.55778,3.084883,21.18344,0,10.55778,3.184865,-0.3743792,0,0,0,0,0,8.971862,0,0,2.851336,5.562891,19.19087,0,2.851336,5.478715,-1,0,0,0,0,0,10,0,0,101.6953,0.4472996,0.3324006,-2.901474,0.6913766,0.1690732,0,0,0,0,-102.9015,0,0,24,0,0,119,2,229
345.3894,-25.057,1.244415,-14.6106,-25.057,0.9328882,0,0,0,0,11.0232,3.084883,21.18344,0,11.0232,3.084883,-0.3843207,0,0,0,0,0,8.920502,0,0,3.642319,5.562891,19.19087,0,3.642319,5.562891,-0.8455601,0,0,0,0,0,10,0,0,101.6953,0.4472996,0.3277023,-1.796837,1.467322,0.2384131,0,0,0,0,-101.7968,0,0,24,0,0,120,2,229
343.7923,-28.08091,1.207889,-14.6106,-25.057,0.8963618,0,0,0,0,11.0232,2.955664,21.17518,0,11.0232,3.084883,-0.3801511,0,0,0,0,0,8.920502,0,0,3.642319,5.659067,16.16266,0,3.642319,5.562891,-0.8455601,0,0,0,0,0,10,0,0,101.6005,0.5951146,0.3259054,-1.796837,1.467322,0.2366162,0,0,0,0,-101.7968,0,0,24,0,0,121,2,229
343.7923,-28.08091,1.167369,-16.20773,-28.08091,0.8213148,0,0,0,0,11.0232,2.955664,21.17518,0,11.0232,2.955664,-0.3873419,0,0,0,0,0,8.680284,0,0,3.642319,5.659067,16.16266,0,3.642319,5.659067,-0.5669649,0,0,0,0,0,10,0,0,101.6005,0.5951146,0.3241086,-1.796837,1.952214,0.240352,0,0,0,0,-101.7968,0,0,24,0,0,122,2,229
342.0138,-30.83621,1.12685,-16.20773,-28.08091,0.7807955,0,0,0,0,11.0232,2.798939,20.98568,0,11.0232,2.955664,-0.3873419,0,0,0,0,0,8.680284,0,0,3.642319,5.758639,12.53666,0,3.642319,5.659067,-0.5669649,0,0,0,0,0,10,0,0,101.4965,0.653149,0.3223118,-1.796837,1.952214,0.2385552,0,0,0,0,-101.7968,0,0,24,0,0,123,2,229
340.322,-28.85473,1.036919,-17.98621,-30.83621,0.6534339,0,0,0,0,11.953,2.545799,20.51554,0,11.953,2.798939,-0.3904992,0,0,0,0,0,8.657642,0,0,3.720547,5.868453,8.405583,0,3.720547,5.758639,-0.2333726,0,0,0,0,0,10,0,0,101.4338,0.4057927,0.3182137,-2.301178,2.14259,0.2068682,0,0,0,0,-102.3012,0,0,24,0,0,124,2,229
340.322,-28.85473,0.9877238,-19.67801,-28.85473,0.5762835,0,0,0,0,11.953,2.545799,20.51554,0,11.953,2.545799,-0.3821829,0,0,0,0,0,8.187056,0,0,3.720547,5.868453,8.405583,0,3.720547,5.868453,0.1466863,0,0,0,0,0,10,0,0,101.4338,0.4057927,0.3159125,-2.301178,1.331162,0.1953086,0,0,0,0,-102.3012,0,0,24,0,0,125,2,229
338.9034,-24.17411,0.9385288,-19.67801,-28.85473,0.5270884,0,0,0,0,11.953,2.312588,19.77528,0,11.953,2.545799,-0.3821829,0,0,0,0,0,8.187056,0,0,3.720547,5.920662,4.233078,0,3.720547,5.868453,0.1466863,0,0,0,0,0,10,0,0,101.4066,0.194083,0.3136114,-2.301178,1.331162,0.1930074,0,0,0,0,-102.3012,0,0,24,0,0,126,2,229
338.1465,-12.743,0.8857871,-21.09665,-24.17411,0.4559241,0,0,0,0,11.93591,2.138321,18.79136,0,11.953,2.312588,-0.3726746,0,0,0,0,0,7.753518,0,0,4.621637,5.905897,0.6445345,0,3.720547,5.920662,0.5305568,0,0,0,0,0,10,0,0,101.3881,0.1442874,0.3113102,-2.301178,0.6366699,0.1827821,0,0,0,0,-102.3168,0,0,24,0,0,127,2,229
338.1465,-12.743,0.7765199,-21.85345,-12.743,0.3516809,0,0,0,0,11.93591,2.138321,18.79136,0,11.93591,2.138321,-0.3523689,0,0,0,0,0,7.424616,0,0,4.621637,5.905897,0.6445345,0,4.621637,5.905897,0.8607029,0,0,0,0,0,10,0,0,101.3881,0.1442874,0.3066765,-2.316841,0.4733204,0.1753603,0,0,0,0,-102.3168,0,0,24,0,0,128,2,229
338.145,0.3186319,0.7218863,-21.85345,-12.743,0.2970473,0,0,0,0,11.93591,1.987905,17.63845,0,11.93591,2.138321,-0.3523689,0,0,0,0,0,7.424616,0,0,4.621637,5.868363,-1.892414,0,4.621637,5.905897,0.8607029,0,0,0,0,0,10,0,0,101.3699,0.1470462,0.3043597,-2.316841,0.4733204,0.1730435,0,0,0,0,-102.3168,0,0,24,0,0,129,2,229
339.0416,16.43803,0.6672487,-21.85504,0.3186319,0.2640938,0,0,0,0,11.93591,1.863254,16.39774,0,11.93591,1.987905,-0.3252973,0,0,0,0,0,7.144992,0,0,4.621637,5.810086,-3.040994,0,4.621637,5.868363,1,0,0,0,0,0,10,0,0,101.3414,0.2121427,0.3020428,-2.316841,0.4823704,0.1708299,0,0,0,0,-102.3168,0,0,24,0,0,130,2,229
339.0416,16.43803,0.6148525,-20.95844,16.43803,0.2550557,0,0,0,0,11.93591,1.863254,16.39774,0,11.93591,1.863254,-0.2940186,0,0,0,0,0,6.913265,0,0,4.621637,5.810086,-3.040994,0,4.621637,5.810086,1,0,0,0,0,0,10,0,0,101.3414,0.2121427,0.299726,-2.316841,0.6959128,0.1709496,0,0,0,0,-102.3168,0,0,24,0,0,131,2,229
341.0163,36.74627,0.5100604,-20.95844,16.43803,0.1502636,0,0,0,0,11.93591,1.758833,15.13167,0,11.93591,1.863254,-0.2940186,0,0,0,0,0,6.913265,0,0,4.621637,5.732504,-2.705337,0,4.621637,5.810086,1,0,0,0,0,0,10,0,0,101.2953,0.3224035,0.2950923,-2.316841,0.6959128,0.1663159,0,0,0,0,-102.3168,0,0,24,0,0,132,2,229
343.8878,54.45211,0.4626011,-18.98373,36.74627,0.1730392,0,0,0,0,12.01709,1.662368,13.84635,0,12.01709,1.758833,-0.2600608,0,0,0,0,0,6.742609,0,0,5.734236,5.664413,-1.189909,0,5.734236,5.732504,1,0,0,0,0,0,10,0,0,101.2322,0.4262243,0.2928499,-2.242455,1.057612,0.17259,0,0,0,0,-102.2425,0,0,24,0,0,133,2,229
343.8878,54.45211,0.4223206,-16.11218,54.45211,0.2152331,0,0,0,0,12.5255,1.662368,13.84635,0,12.01709,1.662368,-0.225775,0,0,0,0,0,6.563281,0,0,5.890692,5.664413,-1.189909,0,5.734236,5.664413,1,0,0,0,0,0,10,0,0,101.2322,0.4262243,0.2906075,-2.242455,1.398186,0.1742335,0,0,0,0,-101.7766,0,0,24,0,0,134,2,229
347.7047,73.83952,0.3820402,-16.11218,54.45211,0.1749527,0,0,0,0,12.5255,1.582643,12.51359,0,12.5255,1.662368,-0.2212202,0,0,0,0,0,6.710212,0,0,5.890692,5.58805,1.20437,0,5.890692,5.664413,1,0,0,0,0,0,10,0,0,101.1475,0.5589496,0.2888309,-1.776581,1.398186,0.1999481,0,0,0,0,-101.7766,0,0,24,0,0,135,2,229
352.1905,88.41038,0.3205639,-12.29526,73.83952,0.2162082,0,0,0,0,12.5255,1.509781,11.07843,0,12.5255,1.582643,-0.1844991,0,0,0,0,0,6.562004,0,0,5.890692,5.538073,4.230956,0,5.890692,5.58805,0.8091979,0,0,0,0,0,10,0,0,101.042,0.6851457,0.2852777,-1.776581,1.833578,0.2013628,0,0,0,0,-101.7766,0,0,24,0,0,136,2,229
357.0764,98.10143,0.3010401,-7.809509,88.41038,0.3037632,0,0,0,0,12.93565,1.447395,9.506919,0,12.93565,1.509781,-0.1405338,0,0,0,0,0,6.545088,0,0,5.835638,5.517528,7.690133,0,5.835638,5.538073,0.5307521,0,0,0,0,0,10,0,0,100.911,0.8402632,0.283877,-1.400757,2.247552,0.2268629,0,0,0,0,-101.4008,0,0,24,0,0,137,2,229
2.319275,107.2106,0.2937312,-2.923584,98.10143,0.4028125,0,0,0,0,12.76262,1.378215,7.749034,0,12.93565,1.447395,-0.09541203,0,0,0,0,0,6.429111,0,0,6.87001,5.521874,11.44121,0,5.835638,5.517528,0.2125078,0,0,0,0,0,10,0,0,100.7641,0.9350411,0.2824762,-1.400757,2.7564,0.231268,0,0,0,0,-101.5593,0,0,24,0,0,138,2,229
7.70476,112.1177,0.2995293,2.319275,107.2106,0.5205944,0,0,0,0,12.76262,1.315483,5.817859,0,12.76262,1.378215,-0.04645459,0,0,0,0,0,6.250499,0,0,6.87001,5.554644,15.35552,0,6.87001,5.521874,-0.1325911,0,0,0,0,0,10,0,0,100.5927,1.083108,0.2809169,-1.559303,3.067309,0.2239004,0,0,0,0,-101.5593,0,0,24,0,0,139,2,229
12.76815,107.1896,0.3380531,7.70476,112.1177,0.666751,0,0,0,0,12.99974,1.208039,3.861367,0,12.99974,1.315483,0.009796709,0,0,0,0,0,6.20241,0,0,7.849327,5.660791,18.90675,0,7.849327,5.554644,-0.4927075,0,0,0,0,0,10,0,0,100.4175,1.10332,0.2780155,-1.342026,3.553029,0.2393627,0,0,0,0,-101.342,0,0,24,0,0,140,2,229
17.30059,96.96937,0.3699735,12.76815,107.1896,0.7840049,0,0,0,0,12.99974,1.101949,2.034362,0,12.99974,1.208039,0.06638039,0,0,0,0,0,6.00267,0,0,7.849327,5.77468,21.52561,0,7.849327,5.660791,-0.8194212,0,0,0,0,0,10,0,0,100.2269,1.195576,0.2766735,-1.342026,3.619332,0.2387771,0,0,0,0,-101.342,0,0,24,0,0,141,2,229
17.30059,96.96937,0.413225,17.30059,96.96937,0.8939852,0,0,0,0,12.91616,1.101949,2.034362,0,12.99974,1.101949,0.1169037,0,0,0,0,0,5.805449,0,0,7.927555,5.77468,21.52561,0,7.849327,5.77468,-1,0,0,0,0,0,10,0,0,100.2269,1.195576,0.2753315,-1.342026,3.921968,0.2408882,0,0,0,0,-100.7404,0,0,24,0,0,142,2,229
21.08343,80.99198,0.4564765,17.30059,96.96937,0.9372365,0,0,0,0,12.91616,0.973933,0.5210875,0,12.91616,1.101949,0.1161548,0,0,0,0,0,5.781292,0,0,7.927555,5.915072,22.86543,0,7.927555,5.77468,-1,0,0,0,0,0,10,0,0,100.0275,1.245787,0.274591,-0.740448,3.921968,0.2756468,0,0,0,0,-100.7404,0,0,24,0,0,143,2,229
23.9847,61.21262,0.561561,21.08343,80.99198,1,0,0,0,0,12.91616,0.8400263,-0.5238216,0,12.91616,0.973933,0.1556889,0,0,0,0,0,5.543311,0,0,7.927555,6.058954,22.80848,0,7.927555,5.915072,-1,0,0,0,0,0,10,0,0,99.81831,1.302497,0.2731102,-0.740448,4.08668,0.2760453,0,0,0,0,-100.7404,0,0,24,0,0,144,2,229
25.92506,39.35418,0.6206664,23.9847,61.21262,1,0,0,0,0,13.30922,0.7005479,-1.016447,0,13.30922,0.8400263,0.1838856,0,0,0,0,0,5.407973,0,0,8.773592,6.203813,21.65725,0,8.773592,6.058954,-1,0,0,0,0,0,10,0,0,99.59901,1.361252,0.2727299,-0.3802795,4.27271,0.2990412,0,0,0,0,-100.3803,0,0,24,0,0,145,2,229
26.94646,18.74001,0.6838247,25.92506,39.35418,1,0,0,0,0,13.38158,0.5406182,-0.9963506,0,13.30922,0.7005479,0.191119,0,0,0,0,0,5.148683,0,0,8.718538,6.368331,19.63624,0,8.773592,6.203813,-1,0,0,0,0,0,10,0,0,99.39172,1.28657,0.2723496,-0.3802795,4.465452,0.3008601,0,0,0,0,-99.6358,0,0,24,0,0,146,2,229
27.04605,-1.415565,0.7489098,26.94646,18.74001,1,0,0,0,0,13.38158,0.3870933,-0.5001047,0,13.38158,0.5406182,0.1819277,0,0,0,0,0,4.872285,0,0,8.718538,6.520957,17.01323,0,8.718538,6.368331,-0.8865339,0,0,0,0,0,10,0,0,99.1981,1.201921,0.2727138,0.3641968,4.220463,0.3423605,0,0,0,0,-99.6358,0,0,24,0,0,147,2,229
26.35571,-18.10995,0.8782524,27.04605,-1.415565,1,0,0,0,0,13.04378,0.2378013,0.3650853,0,13.04378,0.3870933,0.1576966,0,0,0,0,0,4.489259,0,0,8.718538,6.662549,13.89628,0,8.718538,6.520957,-0.6452173,0,0,0,0,0,10,0,0,99.03604,1.011057,0.2738108,0.7328339,3.94278,0.3620425,0,0,0,0,-99.26717,0,0,24,0,0,148,2,229
24.98515,-31.78642,0.9403871,26.35571,-18.10995,1,0,0,0,0,12.87075,0.1124696,1.49374,0,12.87075,0.2378013,0.1176957,0,0,0,0,0,4.161721,0,0,9.752909,6.769037,10.37354,0,9.752909,6.662549,-0.3584578,0,0,0,0,0,10,0,0,98.90931,0.7979317,0.2743851,0.5742798,3.316673,0.3461166,0,0,0,0,-99.42572,0,0,24,0,0,149,2,229
23.02938,-42.77056,0.998879,24.98515,-31.78642,1,0,0,0,0,12.87075,-0.001656737,2.776992,0,12.87075,0.1124696,0.07548467,0,0,0,0,0,3.928729,0,0,9.752909,6.84619,6.453367,0,9.752909,6.769037,-0.03436523,0,0,0,0,0,10,0,0,98.84552,0.4191413,0.2749594,0.5742798,2.617535,0.3387137,0,0,0,0,-99.42572,0,0,24,0,0,150,2,229
20.56812,-51.44837,1.052377,23.02938,-42.77056,1,0,0,0,0,12.87075,-0.08599747,4.094327,0,12.87075,-0.001656737,0.02912688,0,0,0,0,0,3.716568,0,0,9.752909,6.877362,2.664429,0,9.752909,6.84619,0.3262902,0,0,0,0,0,10,0,0,98.83506,0.09991117,0.2755337,0.5742798,1.374951,0.3251101,0,0,0,0,-99.42572,0,0,24,0,0,151,2,229
20.56812,-51.44837,1.14721,20.56812,-51.44837,1,0,0,0,0,12.79599,-0.08599747,4.094327,0,12.79599,-0.08599747,-0.016571,0,0,0,0,0,3.538172,0,0,10.99879,6.877362,2.664429,0,10.99879,6.877362,0.6748725,0,0,0,0,0,10,0,0,98.83506,0.09991117,0.2766137,0.5057831,0.3277486,0.3101996,0,0,0,0,-99.49422,0,0,24,0,0,152,2,229
17.68699,-58.16241,1.194214,20.56812,-51.44837,1,0,0,0,0,12.79599,-0.1560884,5.33743,0,12.79599,-0.08599747,-0.01724082,0,0,0,0,0,3.538172,0,0,10.99879,6.881884,-0.5417486,0,10.99879,6.877362,0.6748725,0,0,0,0,0,10,0,0,98.86781,-0.1580299,0.2771195,0.5057831,0.3277486,0.3107054,0,0,0,0,-99.49422,0,0,24,0,0,153,2,229
14.47956,-63.23232,1.233546,17.68699,-58.16241,1,0,0,0,0,12.79599,-0.2147606,6.437863,0,12.79599,-0.1560884,-0.05981627,0,0,0,0,0,3.407873,0,0,10.99879,6.865295,-2.821355,0,10.99879,6.881884,0.9698409,0,0,0,0,0,10,0,0,98.92962,-0.328794,0.2776253,0.5057831,-0.5184014,0.3015566,0,0,0,0,-99.49422,0,0,24,0,0,154,2,229
11.03435,-67.04234,1.265109,14.47956,-63.23232,1,0,0,0,0,12.79599,-0.2684279,7.365245,0,12.79599,-0.2147606,-0.09731092,0,0,0,0,0,3.298801,0,0,10.99879,6.839589,-3.941363,0,10.99879,6.865295,1,0,0,0,0,0,10,0,0,99.0048,-0.4062368,0.2781311,0.5057831,-1.078576,0.2956708,0,0,0,0,-99.49422,0,0,24,0,0,155,2,229
7.4417,-69.6178,1.312198,11.03435,-67.04234,1,0,0,0,0,12.79599,-0.3254808,8.130158,0,12.79599,-0.2684279,-0.1291526,0,0,0,0,0,3.199034,0,0,10.99879,6.80252,-4.056443,0,10.99879,6.839589,1,0,0,0,0,0,10,0,0,99.09418,-0.4888033,0.2791426,0.5057831,-1.332619,0.2937837,0,0,0,0,-99.49422,0,0,24,0,0,156,2,229
3.755814,-71.50184,1.326757,7.4417,-69.6178,1,0,0,0,0,12.7789,-0.379898,8.757005,0,12.7789,-0.3254808,-0.1563058,0,0,0,0,0,3.088035,0,0,11.89988,6.764729,-3.324164,0,11.89988,6.80252,1,0,0,0,0,0,10,0,0,99.18372,-0.4873417,0.2796327,0.4901199,-1.60347,0.2902591,0,0,0,0,-99.50988,0,0,24,0,0,157,2,229
0.01497841,-72.85341,1.332662,3.755814,-71.50184,1,0,0,0,0,12.76182,-0.4339817,9.262098,0,12.7789,-0.379898,-0.1788741,0,0,0,0,0,2.986873,0,0,12.80097,6.731778,-1.949085,0,11.89988,6.764729,1,0,0,0,0,0,10,0,0,99.26385,-0.429608,0.2801229,0.4901199,-1.598676,0.2908039,0,0,0,0,-99.52554,0,0,24,0,0,158,2,229
356.2415,-73.82162,1.329867,0.01497841,-72.85341,1,0,0,0,0,13.09961,-0.486048,9.659,0,12.76182,-0.4339817,-0.1978018,0,0,0,0,0,2.881393,0,0,12.80097,6.708542,-0.1061788,0,12.80097,6.731778,1,0,0,0,0,0,10,0,0,99.32444,-0.3118381,0.2805973,0.4744644,-1.409286,0.2925155,0,0,0,0,-99.89418,0,0,24,0,0,159,2,229
356.2415,-73.82162,1.307722,-3.758545,-73.82162,1,0,0,0,0,12.84541,-0.486048,9.659,0,12.84541,-0.486048,-0.21008,0,0,0,0,0,2.80876,0,0,12.72274,6.708542,-0.1061788,0,12.72274,6.708542,0.9297685,0,0,0,0,0,10,0,0,99.32444,-0.3118381,0.2805761,-0.1271133,-1.022954,0.2614032,0,0,0,0,-100.1271,0,0,24,0,0,160,2,229
352.4428,-74.56375,1.29717,-3.758545,-73.82162,1,0,0,0,0,12.84541,-0.538197,9.968282,0,12.84541,-0.486048,-0.2123574,0,0,0,0,0,2.80876,0,0,12.72274,6.697484,2.082513,0,12.72274,6.708542,0.9297685,0,0,0,0,0,10,0,0,99.35925,-0.1571205,0.2804489,-0.1271133,-1.022954,0.2612761,0,0,0,0,-100.1271,0,0,24,0,0,161,2,229
348.6155,-75.22435,1.277227,-7.55722,-74.56375,1,0,0,0,0,12.84541,-0.5878159,10.20815,0,12.84541,-0.538197,-0.2249505,0,0,0,0,0,2.711815,0,0,12.72274,6.699955,4.534257,0,12.72274,6.697484,0.7284088,0,0,0,0,0,10,0,0,99.36135,0.03762225,0.2803218,-0.1271133,-0.5154181,0.26694,0,0,0,0,-100.1271,0,0,24,0,0,162,2,229
344.7595,-75.77679,1.248629,-11.38452,-75.22435,0.913293,0,0,0,0,12.92659,-0.6174039,10.45308,0,12.84541,-0.5878159,-0.2352459,0,0,0,0,0,2.619574,0,0,13.83534,6.707766,7.167491,0,12.72274,6.699955,0.5028483,0,0,0,0,0,10,0,0,99.30775,0.3719338,0.2801947,-0.1271133,0.123416,0.274102,0,0,0,0,-100.0527,0,0,24,0,0,163,2,229
344.7595,-75.77679,1.172426,-15.24048,-75.77679,0.7649488,0,0,0,0,12.92659,-0.6174039,10.45308,0,12.92659,-0.6174039,-0.2438165,0,0,0,0,0,2.58803,0,0,13.83534,6.707766,7.167491,0,13.83534,6.707766,0.2605908,0,0,0,0,0,10,0,0,99.30775,0.3719338,0.2800893,-0.05271912,1.220092,0.2908996,0,0,0,0,-100.0527,0,0,24,0,0,164,2,229
340.8617,-76.53815,1.134325,-15.24048,-75.77679,0.7268476,0,0,0,0,12.92659,-0.6469004,10.74672,0,12.92659,-0.6174039,-0.2438165,0,0,0,0,0,2.58803,0,0,13.83534,6.7269,9.871474,0,13.83534,6.707766,0.2605908,0,0,0,0,0,10,0,0,99.20173,0.6856366,0.2800366,-0.05271912,1.220092,0.2908469,0,0,0,0,-100.0527,0,0,24,0,0,165,2,229
337.0943,-73.82045,1.086479,-19.13828,-76.53815,0.6057401,0,0,0,0,12.58879,-0.6793296,11.07368,0,12.92659,-0.6469004,-0.2546193,0,0,0,0,0,2.533195,0,0,13.83534,6.744764,12.41025,0,13.83534,6.7269,0.01182437,0,0,0,0,0,10,0,0,99.05159,0.9502764,0.2799838,-0.05271912,2.249162,0.3025358,0,0,0,0,-99.68408,0,0,24,0,0,166,2,229
337.0943,-73.82045,1.029215,-22.90567,-73.82045,0.4834062,0,0,0,0,12.66997,-0.6793296,11.07368,0,12.58879,-0.6793296,-0.26965,0,0,0,0,0,2.375287,0,0,14.94794,6.744764,12.41025,0,13.83534,6.744764,-0.2217426,0,0,0,0,0,10,0,0,99.05159,0.9502764,0.2802998,0.315918,3.117287,0.3345103,0,0,0,0,-99.6097,0,0,24,0,0,167,2,229
333.7984,-64.21891,0.9146868,-22.90567,-73.82045,0.3688778,0,0,0,0,12.66997,-0.7205256,11.35738,0,12.66997,-0.6793296,-0.2689227,0,0,0,0,0,2.398748,0,0,14.94794,6.755651,14.56784,0,14.94794,6.744764,-0.2217426,0,0,0,0,0,10,0,0,98.8698,1.138562,0.2810803,0.3903046,3.117287,0.3396804,0,0,0,0,-99.6097,0,0,24,0,0,168,2,229
331.1369,-51.22309,0.8491828,-26.2016,-64.21891,0.2584562,0,0,0,0,12.66997,-0.7676315,11.52465,0,12.66997,-0.7205256,-0.2800916,0,0,0,0,0,2.322165,0,0,14.94794,6.769926,16.16652,0,14.94794,6.755651,-0.4202411,0,0,0,0,0,10,0,0,98.66563,1.271959,0.2814706,0.3903046,3.73494,0.3471181,0,0,0,0,-99.6097,0,0,24,0,0,169,2,229
331.1369,-51.22309,0.777025,-28.86313,-51.22309,0.1587414,0,0,0,0,12.92418,-0.7676315,11.52465,0,12.66997,-0.7676315,-0.2879917,0,0,0,0,0,2.234595,0,0,15.02617,6.769926,16.16652,0,14.94794,6.769926,-0.5673203,0,0,0,0,0,10,0,0,98.66563,1.271959,0.2818609,0.3903046,4.172535,0.3525014,0,0,0,0,-99.37676,0,0,24,0,0,170,2,229
329.4383,-31.37956,0.7048672,-28.86313,-51.22309,0.08658355,0,0,0,0,12.92418,-0.833556,11.43239,0,12.92418,-0.7676315,-0.2857142,0,0,0,0,0,2.308061,0,0,15.02617,6.792363,17.04921,0,15.02617,6.769926,-0.5673203,0,0,0,0,0,10,0,0,98.46124,1.273149,0.2824841,0.6232376,4.172535,0.36687,0,0,0,0,-99.37676,0,0,24,0,0,171,2,229
328.7404,-10.67145,0.5520588,-30.56168,-31.37956,-0.06461105,0,0,0,0,13.00536,-0.8999549,11.03016,0,13.00536,-0.833556,-0.2866533,0,0,0,0,0,2.208968,0,0,16.13877,6.815952,17.14724,0,16.13877,6.792363,-0.6485271,0,0,0,0,0,10,0,0,98.26073,1.250349,0.283805,0.6976242,4.176436,0.3726249,0,0,0,0,-99.30238,0,0,24,0,0,172,2,229
328.7404,-10.67145,0.4739098,-31.25958,-10.67145,-0.1212261,0,0,0,0,13.00536,-0.8999549,11.03016,0,13.00536,-0.8999549,-0.2772835,0,0,0,0,0,2.085533,0,0,16.13877,6.815952,17.14724,0,16.13877,6.815952,-0.6575459,0,0,0,0,0,10,0,0,98.26073,1.250349,0.2845026,0.6976242,4.101646,0.3724692,0,0,0,0,-99.30238,0,0,24,0,0,173,2,229
329.074,10.68852,0.3957608,-31.25958,-10.67145,-0.1993751,0,0,0,0,13.00536,-0.9660487,10.28618,0,13.00536,-0.8999549,-0.2772835,0,0,0,0,0,2.085533,0,0,16.13877,6.836111,16.45624,0,16.13877,6.815952,-0.6575459,0,0,0,0,0,10,0,0,98.06834,1.202885,0.2852002,0.6976242,4.101646,0.3731668,0,0,0,0,-99.30238,0,0,24,0,0,174,2,229
330.6722,36.7601,0.3184458,-30.92599,10.68852,-0.2350197,0,0,0,0,13.06063,-1.039858,9.131146,0,13.00536,-0.9660487,-0.2580289,0,0,0,0,0,1.962665,0,0,16.9848,6.841926,15.01195,0,16.13877,6.836111,-0.5939739,0,0,0,0,0,10,0,0,97.89775,1.074979,0.2858978,0.6976242,3.945945,0.3720879,0,0,0,0,-98.57356,0,0,24,0,0,175,2,229
333.465,61.11303,0.171807,-29.32776,36.7601,-0.3087964,0,0,0,0,12.31269,-1.104856,7.626837,0,12.31269,-1.039858,-0.2259814,0,0,0,0,0,1.62527,0,0,17.03986,6.835787,12.93326,0,17.03986,6.841926,-0.4610996,0,0,0,0,0,10,0,0,97.7502,0.939993,0.2887435,1.41925,3.52636,0.4127292,0,0,0,0,-98.58075,0,0,24,0,0,176,2,229
333.465,61.11303,0.1054694,-26.53503,61.11303,-0.2830655,0,0,0,0,12.31269,-1.104856,7.626837,0,12.31269,-1.104856,-0.1897943,0,0,0,0,0,1.504439,0,0,17.03986,6.835787,12.93326,0,17.03986,6.835787,-0.2698604,0,0,0,0,0,10,0,0,97.7502,0.939993,0.2901627,1.41925,3.083553,0.4090961,0,0,0,0,-98.58075,0,0,24,0,0,177,2,229
337.5122,86.25816,0.03913185,-26.53503,61.11303,-0.3494031,0,0,0,0,12.31269,-1.160002,5.829239,0,12.31269,-1.104856,-0.1897943,0,0,0,0,0,1.504439,0,0,17.03986,6.806526,10.37822,0,17.03986,6.835787,-0.2698604,0,0,0,0,0,10,0,0,97.62825,0.7889717,0.291582,1.41925,3.083553,0.4105153,0,0,0,0,-98.58075,0,0,24,0,0,178,2,229
337.5122,86.25816,-0.01708771,-22.48782,86.25816,-0.2890656,0,0,0,0,12.80402,-1.160002,5.829239,0,12.31269,-1.160002,-0.1372468,0,0,0,0,0,1.401922,0,0,18.0974,6.806526,10.37822,0,17.03986,6.806526,-0.03479612,0,0,0,0,0,10,0,0,97.62825,0.7889717,0.2930012,1.41925,2.588143,0.4062819,0,0,0,0,-98.13054,0,0,24,0,0,179,2,229
342.7986,110.5371,-0.1295268,-22.48782,86.25816,-0.4015048,0,0,0,0,12.80402,-1.205851,3.839914,0,12.80402,-1.160002,-0.132845,0,0,0,0,0,1.543916,0,0,18.0974,6.776087,7.514669,0,18.0974,6.806526,-0.03479612,0,0,0,0,0,10,0,0,97.55251,0.5134912,0.2967402,1.869461,2.588143,0.4365878,0,0,0,0,-98.13054,0,0,24,0,0,180,2,229
349.244,132.5248,-0.1725304,-17.20142,110.5371,-0.3065019,0,0,0,0,12.80402,-1.227467,1.811379,0,12.80402,-1.205851,-0.07381815,0,0,0,0,0,1.458683,0,0,18.0974,6.724749,4.596623,0,18.0974,6.776087,0.2286504,0,0,0,0,0,10,0,0,97.5173,0.2719541,0.2986096,1.869461,1.684457,0.4281462,0,0,0,0,-98.13054,0,0,24,0,0,181,2,229
356.58,148.6623,-0.1994202,-10.75595,132.5248,-0.1777855,0,0,0,0,12.80402,-1.226274,-0.0947893,0,12.80402,-1.227467,-0.01217926,0,0,0,0,0,1.418499,0,0,18.0974,6.675522,1.893666,0,18.0974,6.724749,0.4971107,0,0,0,0,0,10,0,0,97.51488,0.07551736,0.3004791,1.869461,0.8921183,0.4209751,0,0,0,0,-98.13054,0,0,24,0,0,182,2,229
4.822897,165.017,-0.2079702,-3.419983,148.6623,-0.02400599,0,0,0,0,12.80402,-1.197071,-1.792655,0,12.80402,-1.226274,0.04698072,0,0,0,0,0,1.420718,0,0,18.0974,6.612276,-0.6114906,0,18.0974,6.675522,0.7457827,0,0,0,0,0,10,0,0,97.55982,-0.2101078,0.3023486,1.869461,0.2477271,0.4154921,0,0,0,0,-98.13054,0,0,24,0,0,183,2,229
13.55792,173.1966,-0.1838557,4.822897,165.017,0.1795507,0,0,0,0,12.63099,-1.151769,-3.174625,0,12.63099,-1.197071,0.1012975,0,0,0,0,0,1.425001,0,0,19.13177,6.566172,-2.72342,0,19.13177,6.612276,0.9762571,0,0,0,0,0,10,0,0,97.63586,-0.3992221,0.305929,1.710915,-0.6892375,0.3990258,0,0,0,0,-98.28909,0,0,24,0,0,184,2,229
22.33693,172.9071,-0.1499609,13.55792,173.1966,0.3883877,0,0,0,0,11.88304,-1.110749,-4.205031,0,11.88304,-1.151769,0.1384983,0,0,0,0,0,1.293061,0,0,19.18683,6.553613,-4.18813,0,19.18683,6.566172,1,0,0,0,0,0,10,0,0,97.72957,-0.5071659,0.3076327,1.703728,-1.309608,0.3932271,0,0,0,0,-98.29627,0,0,24,0,0,185,2,229
30.83499,166.8163,-0.09411858,22.33693,172.9071,0.6059059,0,0,0,0,11.88304,-1.083855,-4.903188,0,11.88304,-1.110749,0.1728048,0,0,0,0,0,1.369317,0,0,19.18683,6.567488,-4.81667,0,19.18683,6.553613,1,0,0,0,0,0,10,0,0,97.8298,-0.5484515,0.3093365,1.703728,-1.663707,0.3908905,0,0,0,0,-98.29627,0,0,24,0,0,186,2,229
38.38209,148.0797,-0.0170311,30.83499,166.8163,0.8298359,0,0,0,0,11.79361,-1.101308,-5.334869,0,11.88304,-1.083855,0.1959975,0,0,0,0,0,1.419313,0,0,20.14297,6.61627,-4.548618,0,19.18683,6.567488,1,0,0,0,0,0,10,0,0,97.92313,-0.5090845,0.3110402,1.703728,-1.79914,0.391049,0,0,0,0,-99.0564,0,0,24,0,0,187,2,229
44.90861,128.3589,0.1745389,38.38209,148.0797,1,0,0,0,0,11.79361,-1.13264,-5.549395,0,11.79361,-1.101308,0.2075726,0,0,0,0,0,1.361021,0,0,20.14297,6.66704,-3.497694,0,20.14297,6.61627,1,0,0,0,0,0,10,0,0,98.00552,-0.4464,0.3129274,0.9436035,-1.670001,0.3495547,0,0,0,0,-99.0564,0,0,24,0,0,188,2,229
50.17561,103.9747,0.2855138,44.90861,128.3589,1,0,0,0,0,11.79361,-1.195688,-5.587819,0,11.79361,-1.13264,0.2124173,0,0,0,0,0,1.302775,0,0,20.14297,6.726474,-1.719202,0,20.14297,6.66704,1,0,0,0,0,0,10,0,0,98.07462,-0.3687196,0.313871,0.9436035,-1.464371,0.3528446,0,0,0,0,-99.0564,0,0,24,0,0,189,2,229
54.33565,82.41909,0.4076688,50.17561,103.9747,1,0,0,0,0,11.79361,-1.267059,-5.450248,0,11.79361,-1.195688,0.209975,0,0,0,0,0,1.185568,0,0,20.14297,6.780265,0.6553323,0,20.14297,6.726474,1,0,0,0,0,0,10,0,0,98.128,-0.2771896,0.3148146,0.9436035,-1.209548,0.3566957,0,0,0,0,-99.0564,0,0,24,0,0,190,2,229
