MagYaw,YawVelocityDegreesPerSecond,YawIntegral,YawProportional,YawDerivativeError,YawControl,YawIntegralGain,YawDerivativeGain,YawProportionalGain,YawAntiWindupGain,XNEDBodyFrame,XVelocityMetersPerSecond,ThetaPitchDegrees,XIntegral,XProportional,XDerivativeError,LongitudeControl,XIntegralGain,XDerivativeGain,XProportionalGain,XAntiWindupGain,LongitudeInnerLoopGain,XLongitudeOuterLoopSetpoint,PitchAngularVelocityRadsPerSecond,PitchAngularVelocityGain,YNEDBodyFrame,YVelocityMetersPerSecond,PhiRollDegrees,YIntegral,YProportional,YDerivativeError,LateralControl,YIntegralGain,YDerivativeGain,YProportionalGain,YAntiWindupGain,LateralInnerLoopGain,YLateralOuterLoopSetpoint,RollAngularVelocityRadsPerSecond,RollAngularVelocityGain,AltitudeFeetAgl,ZVelocityMetersPerSecond,ZIntegral,ZProportional,ZDerivativeError,MainRotorCollectiveControl,ZIntegralGain,ZDerivativeGain,ZProportionalGain,ZAntiWindupGain,ZNEDBodyFrame,LatitudeDegrees,LongitudeDegrees,Timeouts,UnrecognizedMsgTypes,ChecksumErrors,NumOfBlownFrames,MessageType,NumOfBytesInMsg
166.6645,39.87456,0,0,0,0,0,0,0,0,0,-0.01743107,-1.689299,0,0,0,0,0,0,0,0,0,0,0,0,0,0.004667124,-0.3044333,0,0,0,0,0,0,0,0,0,0,0,0,0.09455357,5.265151E-05,0,0,0,0,0,0,0,0,0,0,0,19,0,0,0,2,229
170.6523,39.71244,0.4166613,166.6645,39.87456,1,0,0,0,0,0,-0.01678018,-1.657236,0,0,-0.01743107,0.05136373,0,0,0,0,0,-0.03240437,0,0,0,0.005303605,-0.3509021,0,0,0.004667124,0.0292257,0,0,0,0,0,0.01323736,0,0,0.09457158,-0.0003598907,0.09999999,100,0.000172718,0.5,0,0,0,0,0,0,0,19,0,0,1,2,229
174.6265,39.5385,0.8176779,170.6523,39.71244,1,0,0,0,0,-0.3118834,-0.01622579,-1.62122,0,0,-0.01678018,0.05040728,0,0,0,0,0,-0.03119436,0,0,0.2665623,0.005940894,-0.3985223,0,0,0.005303605,0.03366691,0,0,0,0,0,0.01504261,0,0,0.09460612,-0.0005536124,0,100,-0.001180585,0.5,0,0,0,0,-0.2857854,0,0,19,0,0,2,2,229
173.9553,-16.11773,1.223886,174.6265,39.5385,1,0,0,0,0,-0.3118834,-0.02305838,-1.504259,0,-0.3118834,-0.01622579,0.04652857,0,0,0,0,0,-0.1202981,0,0,0.2665623,-0.2160566,0.3254013,0,0.2665623,0.005940894,0.07345486,0,0,0,0,0,0.3999001,0,0,0.6424791,-1.803131,0,99.71422,-0.00181607,0.5,0,0,0,0,-0.2857854,0,0,19,0,0,3,2,229
172.4001,-30.97652,2.020412,173.9553,-16.11773,1,0,0,0,0,0.02590969,-0.02032208,-1.308992,0,0.02590969,-0.02305838,0.04250903,0,0,0,0,0,-0.03537762,0,0,0.2665623,-0.2923155,0.857979,0,0.2665623,-0.2160566,-0.05107404,0,0,0,0,0,-0.2297513,0,0,0.9474753,-1.853418,0,99.34557,-5.91499,0.5,0,0,0,0,-0.6544259,0,0,19,0,0,4,2,229
167.4303,-55.25097,2.409345,172.4001,-30.97652,1,0,0,0,0,0.1094955,-0.01480259,-0.6872358,0,0.1094955,-0.02032208,0.04038859,0,0,0,0,0,-0.006134555,0,0,0.1883342,-0.4421577,2.073192,0,0.1883342,-0.2923155,-0.1303122,0,0,0,0,0,-0.5584582,0,0,1.561834,-1.864726,0,98.744,-6.079954,0.5,0,0,0,0,-1.256002,0,0,19,0,0,5,2,229
160.4548,-74.17323,2.782498,167.4303,-55.25097,1,0,0,0,0,0.03713948,-0.01139067,0.2614641,0,0.1094955,-0.01480259,0.02143222,0,0,0,0,0,0.004126165,0,0,0.2433872,-0.5884038,3.263628,0,0.1883342,-0.4421577,-0.2812116,0,0,0,0,0,-0.9834557,0,0,2.165482,-1.823446,0,98.744,-6.117048,0.5,0,0,0,0,-2.000471,0,0,19,0,0,6,2,229
151.9005,-89.18178,3.135803,160.4548,-74.17323,1,0,0,0,0,0.03713948,-0.01041542,1.515416,0,0.03713948,-0.01139067,-0.008429086,0,0,0,0,0,-0.01044194,0,0,0.2433872,-0.7283764,3.803254,0,0.2433872,-0.5884038,-0.4216149,0,0,0,0,0,-1.319142,0,0,2.750198,-1.763507,0,97.99953,-5.981631,0.5,0,0,0,0,-2.000471,0,0,19,0,0,7,2,229
147.1529,-95.04422,3.79431,151.9005,-89.18178,1,0,0,0,0,-0.04989636,-0.009852301,2.216569,0,-0.04989636,-0.01041542,-0.04724539,0,0,0,0,0,-0.03378231,0,0,0.008702993,-0.7874879,3.58437,0,0.008702993,-0.7283764,-0.5077848,0,0,0,0,0,-2.053388,0,0,3.034945,-1.734158,0,96.56344,-5.785008,0.5,0,0,0,0,-3.436558,0,0,19,0,0,8,2,229
136.871,-105.0424,4.107674,147.1529,-95.04422,1,0,0,0,0,0.1231319,-0.003237405,3.620325,0,0.1231319,-0.009852301,-0.06817829,0,0,0,0,0,0.01726969,0,0,-1.025668,-0.8900876,2.008898,0,-1.025668,-0.7874879,-0.6708462,0,0,0,0,0,-3.707437,0,0,3.590465,-1.678999,0,96.72199,-5.688732,0.5,0,0,0,0,-3.278009,0,0,19,0,0,9,2,229
125.6558,-113.3559,4.393174,136.871,-105.0424,1,0,0,0,0,0.460925,0.02319635,4.763191,0,0.1231319,-0.003237405,-0.1113135,0,0,0,0,0,0.02956678,0,0,-1.025668,-0.9554124,-1.250241,0,-1.025668,-0.8900876,-0.5526751,0,0,0,0,0,-3.99844,0,0,4.130757,-1.636679,0,96.72199,-5.507788,0.5,0,0,0,0,-3.64665,0,0,19,0,0,10,2,229
113.7261,-120.5556,4.649846,125.6558,-113.3559,1,0,0,0,0,0.050776,0.09898379,5.258143,0,0.460925,0.02319635,-0.1421927,0,0,0,0,0,0.1763293,0,0,-0.9706149,-0.9628959,-6.406221,0,-1.025668,-0.9554124,-0.2698802,0,0,0,0,0,-4.183721,0,0,4.656294,-1.60822,0,96.35335,-5.368963,0.5,0,0,0,0,-4.022478,0,0,19,0,0,11,2,229
101.6257,-126.8489,5.102887,113.7261,-120.5556,1,0,0,0,0,-0.02157998,0.2302773,4.786018,0,-0.02157998,0.09898379,-0.1568432,0,0,0,0,0,0.1777743,0,0,-0.9155619,-0.9335026,-12.5972,0,-0.9155619,-0.9628959,0.2097955,0,0,0,0,0,-4.046724,0,0,5.151803,-1.576335,0,95.23306,-5.275605,0.5,0,0,0,0,-4.766947,0,0,19,0,0,12,2,229
89.38626,-132.9212,5.29692,101.6257,-126.8489,1,0,0,0,0,0.3162131,0.4165766,3.173566,0,0.3162131,0.2302773,-0.1322629,0,0,0,0,0,0.519471,0,0,-0.9155619,-0.8833992,-18.67992,0,-0.9155619,-0.9335026,0.7943138,0,0,0,0,0,-3.963356,0,0,5.620886,-1.529734,0,94.86441,-5.171011,0.5,0,0,0,0,-5.135587,0,0,19,0,0,13,2,229
89.38626,-132.9212,5.460753,89.38626,-132.9212,1,0,0,0,0,0.06200576,0.4165766,3.173566,0,0.3162131,0.4165766,-0.0715407,0,0,0,0,0,0.8658015,0,0,-0.99379,-0.8833992,-18.67992,0,-0.9155619,-0.8833992,1,0,0,0,0,0,-3.821248,0,0,5.620886,-1.529734,0,94.86441,-5.018141,0.5,0,0,0,0,-5.368523,0,0,19,0,0,14,2,229
69.94725,-142.6884,5.62531,89.38626,-132.9212,1,0,0,0,0,0.06200576,0.6794083,-1.362455,0,0.06200576,0.4165766,-0.07381815,0,0,0,0,0,0.7923356,0,0,-0.99379,-0.8301193,-21.75719,0,-0.99379,-0.8833992,1,0,0,0,0,0,-3.933661,0,0,6.305653,-1.44422,0,94.63148,-5.018141,0.5,0,0,0,0,-5.368523,0,0,19,0,0,15,2,229
57.02236,-150.1719,5.856548,69.94725,-142.6884,1,0,0,0,0,0.3274431,0.8318117,-4.700269,0,0.3274431,0.6794083,0.08194524,0,0,0,0,0,1.357651,0,0,-0.9387367,-0.7957027,-18.44758,0,-0.9387367,-0.8301193,1,0,0,0,0,0,-3.703432,0,0,6.714113,-1.383969,0,93.51837,-4.737619,0.5,0,0,0,0,-6.481632,0,0,19,0,0,16,2,229
43.45509,-159.3,5.939991,57.02236,-150.1719,1,0,0,0,0,0.3274431,0.9335303,-7.683487,0,0.3274431,0.8318117,0.1965784,0,0,0,0,0,1.640969,0,0,-0.9387367,-0.7311286,-12.17784,0,-0.9387367,-0.7957027,1,0,0,0,0,0,-3.605816,0,0,7.101643,-1.343498,0,93.51837,-4.539971,0.5,0,0,0,0,-6.481632,0,0,19,0,0,17,2,229
21.64012,-172.3904,5.991192,43.45509,-159.3,1,0,0,0,0,0.2550871,0.9795145,-10.19575,0,0.3274431,0.9335303,0.2949201,0,0,0,0,0,1.830064,0,0,-0.8836837,-0.51798,0.8264474,0,-0.9387367,-0.7311286,0.8054761,0,0,0,0,0,-3.422665,0,0,7.663838,-1.338994,0,93.51837,-4.40721,0.5,0,0,0,0,-7.2261,0,0,19,0,0,18,2,229
6.232328,-178.6183,5.990003,21.64012,-172.3904,1,0,0,0,0,0.2550871,0.9546725,-9.621088,0,0.2550871,0.9795145,0.3748019,0,0,0,0,0,1.894638,0,0,-0.8836837,-0.2576608,10.81105,0,-0.8836837,-0.51798,-0.3280212,0,0,0,0,0,-2.739,0,0,8.039735,-1.342097,0,92.7739,-4.392437,0.5,0,0,0,0,-7.2261,0,0,19,0,0,19,2,229
350.6746,-182.3593,5.922405,6.232328,-178.6183,1,0,0,0,0,0.1827312,0.9172817,-6.749866,0,0.1827312,0.9546725,0.3555559,0,0,0,0,0,1.827545,0,0,-0.8286307,0.1182186,20.96368,0,-0.8286307,-0.2576608,-1,0,0,0,0,0,-1.921546,0,0,8.411532,-1.304514,0,92.02943,-4.402616,0.5,0,0,0,0,-7.97057,0,0,19,0,0,20,2,229
328.8637,-181.8056,5.851686,-9.325378,-182.3593,1,0,0,0,0,0.5205245,0.9241646,1.4517,0,0.5205245,0.9172817,0.2667712,0,0,0,0,0,1.855658,0,0,-0.8286307,0.7589824,32.47459,0,-0.8286307,0.1182186,-1,0,0,0,0,0,-0.8554389,0,0,8.912003,-1.128517,0,91.66079,-4.279326,0.5,0,0,0,0,-8.339211,0,0,19,0,0,21,2,229
315.5093,-178.8993,5.730082,-31.13629,-181.8056,1,0,0,0,0,0.6041098,0.9749414,8.395895,0,0.5205245,0.9241646,0.01291936,0,0,0,0,0,1.868454,0,0,-0.9068587,1.176616,34.44014,0,-0.8286307,0.7589824,-1,0,0,0,0,0,0.9619595,0,0,9.18891,-0.9582949,0,91.66079,-3.701988,0.5,0,0,0,0,-8.940786,0,0,19,0,0,22,2,229
295.7242,-171.9759,5.580328,-44.49072,-178.8993,1,0,0,0,0,0.6041098,1.100358,19.03437,0,0.6041098,0.9749414,-0.1986756,0,0,0,0,0,1.987004,0,0,-0.9068587,1.796076,29.40096,0,-0.9068587,1.176616,-1,0,0,0,0,0,2.03408,0,0,9.503854,-0.6450047,0,91.05921,-3.14359,0.5,0,0,0,0,-8.940786,0,0,19,0,0,23,2,229
281.7866,-166.9517,5.195219,-64.27576,-171.9759,1,0,0,0,0,0.9419026,1.190994,25.03605,0,0.9419026,1.100358,-0.5212408,0,0,0,0,0,2.317776,0,0,-0.9068587,2.182125,21.33334,0,-0.9068587,1.796076,-1,0,0,0,0,0,3.791054,0,0,9.649378,-0.4627228,0,90.69057,-2.115874,0.5,0,0,0,0,-9.309426,0,0,19,0,0,24,2,229
266.6772,-162.1189,4.972465,-78.21338,-166.9517,1,0,0,0,0,0.9419026,1.246493,29.13079,0,0.9419026,1.190994,-0.6990433,0,0,0,0,0,2.486268,0,0,-0.9068587,2.561856,9.881513,0,-0.9068587,2.182125,-1,0,0,0,0,0,4.886004,0,0,9.758028,-0.3354892,0,90.69057,-1.517916,0.5,0,0,0,0,-9.309426,0,0,19,0,0,25,2,229
250.3394,-158.757,4.716655,-93.32281,-162.1189,1,0,0,0,0,0.8695469,1.232303,30.29046,0,0.9419026,1.246493,-0.8227819,0,0,0,0,0,2.589439,0,0,-0.8518057,2.943537,-4.312161,0,-0.9068587,2.561856,-0.4490992,0,0,0,0,0,5,0,0,9.849198,-0.2762466,0,90.69057,-1.100539,0.5,0,0,0,0,-10.0539,0,0,19,0,0,26,2,229
234.1259,-158.8788,4.42527,-109.6606,-158.757,1,0,0,0,0,0.6965189,1.10945,27.83465,0,0.8695469,1.232303,-0.8601976,0,0,0,0,0,2.542151,0,0,0.1825652,3.33264,-19.29962,0,-0.8518057,2.943537,0.8567188,0,0,0,0,0,5,0,0,9.927158,-0.2291546,0,89.94611,-0.9061995,0.5,0,0,0,0,-10.21244,0,0,19,0,0,27,2,229
212.7578,-167.7403,3.77944,-125.8741,-158.8788,1,0,0,0,0,1.444461,0.7573935,17.33357,0,1.444461,1.10945,-0.7926975,0,0,0,0,0,2.479917,0,0,0.1275122,3.903633,-38.46425,0,0.1275122,3.33264,1,0,0,0,0,0,5,0,0,10.00251,-0.08331995,0,89.79474,-0.7517188,0.5,0,0,0,0,-10.20526,0,0,19,0,0,28,2,229
200.6098,-178.7662,3.409431,-147.2422,-167.7403,0.4108712,0,0,0,0,1.444461,0.511661,6.466238,0,1.444461,0.7573935,-0.480752,0,0,0,0,0,1.825444,0,0,0.1275122,4.249916,-44.10819,0,0.1275122,3.903633,1,0,0,0,0,0,5,0,0,10.01649,0.004399438,0,89.79474,-0.2733228,0.5,0,0,0,0,-10.20526,0,0,19,0,0,29,2,229
188.923,-194.1099,3.010956,-159.3902,-178.7662,-0.2303192,0,0,0,0,1.427375,0.220572,-6.358629,0,1.444461,0.511661,-0.158026,0,0,0,0,0,1.368627,0,0,1.028602,4.541445,-42.71516,0,0.1275122,4.249916,1,0,0,0,0,0,5,0,0,9.989636,0.1492873,0,89.79474,0.01443192,0.5,0,0,0,0,-10.22091,0,0,19,0,0,30,2,229
171.6072,-177.6198,2.583264,-171.077,-194.1099,-0.8993854,0,0,0,0,1.508554,-0.3320854,-23.7906,0,1.427375,0.220572,0.2226167,0,0,0,0,0,0.8225546,0,0,2.141201,5.007909,-31.17781,0,1.028602,4.541445,1,0,0,0,0,0,5,0,0,9.852453,0.4026478,0,89.77908,0.489722,0.5,0,0,0,0,-10.14653,0,0,19,0,0,31,2,229
156.1335,-128.4512,3.392432,171.6072,-177.6198,1,0,0,0,0,1.508554,-0.9684236,-34.52065,0,1.508554,-0.3320854,0.731886,0,0,0,0,0,-0.1813746,0,0,2.141201,5.469857,-14.78207,0,2.141201,5.007909,1,0,0,0,0,0,5,0,0,9.672043,0.5056375,0,89.85347,1.320846,0.5,0,0,0,0,-10.14653,0,0,19,0,0,32,2,229
148.9219,-75.27642,3.730097,156.1335,-128.4512,1,0,0,0,0,1.745675,-1.426622,-38.22333,0,1.745675,-0.9684236,1,0,0,0,0,0,-1.295799,0,0,3.120519,5.781051,-4.445729,0,3.120519,5.469857,1,0,0,0,0,0,5,0,0,9.557462,0.4885922,0,90.07076,1.658693,0.5,0,0,0,0,-9.929249,0,0,19,0,0,33,2,229
138.4284,-96.5155,4.048396,148.9219,-75.27642,1,0,0,0,0,1.745675,-2.334662,-40.25885,0,1.745675,-1.426622,1,0,0,0,0,0,-2.14759,0,0,3.120519,5.666159,12.52903,0,3.120519,5.781051,0.869007,0,0,0,0,0,5,0,0,9.419257,0.3590181,0,90.07076,1.602778,0.5,0,0,0,0,-9.929249,0,0,19,0,0,34,2,229
121.5451,-148.6468,4.337727,138.4284,-96.5155,1,0,0,0,0,0.6428523,-3.414032,-35.41389,0,1.745675,-2.334662,1,0,0,0,0,0,-3.835637,0,0,4.076662,5.169435,35.31879,0,3.120519,5.666159,-0.6926705,0,0,0,0,0,5,0,0,9.325798,0.2835307,0,90.07076,1.177723,0.5,0,0,0,0,-9.583452,0,0,19,0,0,35,2,229
106.9821,-176.8367,4.832288,121.5451,-148.6468,1,0,0,0,0,0.0508523,-4.51735,-22.92246,0,0.0508523,-3.414032,0.9068428,0,0,0,0,0,-6.33199,0,0,3.998434,4.539843,55.5421,0,3.998434,5.169435,-1,0,0,0,0,0,5,0,0,9.202121,0.4885116,0,90.55225,0.930094,0.5,0,0,0,0,-9.447748,0,0,19,0,0,36,2,229
100.2661,-181.4046,5.041441,106.9821,-176.8367,1,0,0,0,0,0.0508523,-5.150189,-11.83244,0,0.0508523,-4.51735,0.4507214,0,0,0,0,0,-8.383058,0,0,3.998434,4.191619,64.49751,0,3.998434,4.539843,-1,0,0,0,0,0,5,0,0,9.053127,0.7530985,0,90.55225,1.602513,0.5,0,0,0,0,-9.447748,0,0,19,0,0,37,2,229
93.3305,-172.8382,5.234871,100.2661,-181.4046,1,0,0,0,0,-0.5435548,-6.024181,7.435728,0,0.0508523,-5.150189,0.07046086,0,0,0,0,0,-9.559505,0,0,5.111033,3.676665,70.36245,0,3.998434,4.191619,-1,0,0,0,0,0,5,0,0,8.630585,1.38703,0,90.55225,2.470464,0.5,0,0,0,0,-8.636081,0,0,19,0,0,38,2,229
90.18015,-155.0102,5.410344,93.3305,-172.8382,1,0,0,0,0,-0.5288751,-6.480188,20.22466,0,-0.5435548,-6.024181,-0.5825447,0,0,0,0,0,-11.35604,0,0,5.40077,3.406342,70.02196,0,5.111033,3.676665,-1,0,0,0,0,0,5,0,0,8.167361,1.914023,0,91.36392,4.550014,0.5,0,0,0,0,-7.944461,0,0,19,0,0,39,2,229
87.49581,-129.7269,5.742922,90.18015,-155.0102,1,0,0,0,0,-1.204461,-6.879213,31.77866,0,-1.204461,-6.480188,-1,0,0,0,0,0,-12.39476,0,0,5.40077,3.125517,66.66519,0,5.40077,3.406342,-1,0,0,0,0,0,5,0,0,7.534317,2.448443,0,92.79282,6.278762,0.5,0,0,0,0,-7.207181,0,0,19,0,0,40,2,229
83.53984,-84.7303,5.900152,87.49581,-129.7269,1,0,0,0,0,-1.96949,-7.581721,45.09711,0,-1.96949,-6.879213,-1,0,0,0,0,0,-13,0,0,6.356913,2.489748,56.26593,0,6.356913,3.125517,-1,0,0,0,0,0,5,0,0,6.294913,3.095059,0,92.76997,8.031872,0.5,0,0,0,0,-7.230025,0,0,19,0,0,41,2,229
80.26142,-56.60524,6.045995,83.53984,-84.7303,1,0,0,0,0,-2.982869,-8.125911,50.24145,0,-1.96949,-7.581721,-1,0,0,0,0,0,-13,0,0,6.356913,1.87339,46.36683,0,6.356913,2.489748,-1,0,0,0,0,0,5,0,0,5.389048,3.321794,0,92.76997,10.15303,0.5,0,0,0,0,-6.124104,0,0,19,0,0,42,2,229
75.81283,-19.38354,6.182167,80.26142,-56.60524,1,0,0,0,0,-3.759128,-8.920508,52.92788,0,-2.982869,-8.125911,-1,0,0,0,0,0,-13,0,0,7.336231,0.6153891,29.99297,0,6.356913,1.87339,-1,0,0,0,0,0,5,0,0,4.047666,3.329506,0,93.8759,10.89681,0.5,0,0,0,0,-4.800903,0,0,19,0,0,43,2,229
74.7177,2.616432,6.428784,75.81283,-19.38354,1,0,0,0,0,-4.518299,-9.322532,52.06606,0,-4.518299,-8.920508,-1,0,0,0,0,0,-13,0,0,7.414459,-0.4160561,20.06569,0,7.414459,0.6153891,-1,0,0,0,0,0,5,0,0,3.211515,3.121946,0,96.53796,10.92211,0.5,0,0,0,0,-3.462047,0,0,19,0,0,44,2,229
77.31734,31.78147,6.54761,74.7177,2.616432,1,0,0,0,0,-5.531679,-9.584305,47.93586,0,-5.531679,-9.322532,-1,0,0,0,0,0,-13,0,0,7.414459,-2.184992,8.208381,0,7.414459,-0.4160561,-1,0,0,0,0,0,5,0,0,2.133145,2.487058,0,97.64388,10.24123,0.5,0,0,0,0,-2.356125,0,0,19,0,0,45,2,229
81.9968,49.18255,6.671583,77.31734,31.78147,1,0,0,0,0,-6.782179,-9.450124,43.65558,0,-5.531679,-9.584305,-1,0,0,0,0,0,-13,0,0,6.435142,-3.452549,2.083679,0,7.414459,-2.184992,-0.3451008,0,0,0,0,0,4.457285,0,0,1.583596,1.829277,0,97.64388,8.158545,0.5,0,0,0,0,-1.467482,0,0,19,0,0,46,2,229
90.19858,81.22481,6.805049,81.9968,49.18255,1,0,0,0,0,-7.374179,-8.98145,34.66022,0,-6.782179,-9.450124,-1,0,0,0,0,0,-13,0,0,6.356913,-4.554285,-1.607917,0,6.435142,-3.452549,-0.2418539,0,0,0,0,0,-0.545167,0,0,1.320709,0.7417591,0,98.53252,6.000759,0.5,0,0,0,0,-1.331778,0,0,19,0,0,47,2,229
99.38087,88.48608,7.104452,90.19858,81.22481,1,0,0,0,0,-7.63721,-8.434711,25.32255,0,-7.63721,-8.98145,-1,0,0,0,0,0,-13,0,0,5.111033,-5.395135,-4.866769,0,5.111033,-4.554285,-0.2000554,0,0,0,0,0,-5,0,0,1.282283,-0.1172975,0,99.10537,2.433267,0.5,0,0,0,0,-0.8946304,0,0,19,0,0,48,2,229
109.5041,96.60017,7.273849,99.38087,88.48608,1,0,0,0,0,-8.795301,-7.814263,16.24446,0,-8.795301,-8.434711,-1,0,0,0,0,0,-13,0,0,5.221139,-5.890458,-7.256847,0,5.221139,-5.395135,-0.01225722,0,0,0,0,0,-5,0,0,1.529106,-1.095443,0,98.72235,-0.3847829,0.5,0,0,0,0,-1.277647,0,0,19,0,0,49,2,229
120.4337,105.9675,7.465043,109.5041,96.60017,1,0,0,0,0,-9.725095,-7.290157,7.890224,0,-8.795301,-7.814263,-0.9065784,0,0,0,0,0,-13,0,0,5.142911,-5.976493,-9.337746,0,5.221139,-5.890458,0.2076299,0,0,0,0,0,-5,0,0,2.044453,-1.956755,0,98.72235,-3.593491,0.5,0,0,0,0,-0.7733011,0,0,19,0,0,50,2,229
132.2312,113.4982,7.679644,120.4337,105.9675,1,0,0,0,0,-10.62657,-6.983699,0.3031254,0,-9.725095,-7.290157,-0.647597,0,0,0,0,0,-13,0,0,4.140418,-5.783862,-11.63515,0,5.142911,-5.976493,0.3990726,0,0,0,0,0,-5,0,0,2.764661,-2.550248,0,99.2267,-6.418939,0.5,0,0,0,0,-1.599344,0,0,19,0,0,51,2,229
145.2442,117.3033,8.154491,132.2312,113.4982,1,0,0,0,0,-10.95314,-6.927824,-6.707548,0,-10.95314,-6.983699,-0.4123969,0,0,0,0,0,-13,0,0,4.117243,-5.490715,-14.02491,0,4.117243,-5.783862,0.6104341,0,0,0,0,0,-5,0,0,3.619345,-2.783535,0,97.42325,-8.365832,0.5,0,0,0,0,-2.576749,0,0,19,0,0,52,2,229
165.1921,110.5996,8.419745,145.2442,117.3033,1,0,0,0,0,-11.3462,-7.153302,-15.45878,0,-11.3462,-6.927824,-0.195066,0,0,0,0,0,-13,0,0,3.271206,-5.214948,-16.76212,0,3.271206,-5.490715,0.8302918,0,0,0,0,0,-5,0,0,4.836031,-2.405152,0,97.06308,-9.131107,0.5,0,0,0,0,-2.93692,0,0,19,0,0,53,2,229
176.2903,98.04427,8.72975,165.1921,110.5996,1,0,0,0,0,-12.4183,-7.308257,-19.63214,0,-11.3462,-7.153302,0.07622207,0,0,0,0,0,-13,0,0,2.112257,-5.234116,-17.14264,0,3.271206,-5.214948,1,0,0,0,0,0,-5,0,0,5.407731,-1.86392,0,97.06308,-7.889859,0.5,0,0,0,0,-4.597475,0,0,19,0,0,54,2,229
188.8519,73.40159,9.060826,176.2903,98.04427,1,0,0,0,0,-12.82845,-7.427797,-24.35377,0,-12.4183,-7.308257,0.2055963,0,0,0,0,0,-13,0,0,2.16731,-5.431053,-15.13688,0,2.112257,-5.234116,1,0,0,0,0,0,-5,0,0,5.888377,-0.9322527,0,95.40253,-6.114405,0.5,0,0,0,0,-4.973302,0,0,19,0,0,55,2,229
196.3674,40.22726,8.045497,-171.1481,73.40159,1,0,0,0,0,-13.90295,-7.447628,-28.07998,0,-13.90295,-7.427797,0.3519669,0,0,0,0,0,-13,0,0,2.199188,-5.720915,-9.531837,0,2.199188,-5.431053,0.9325927,0,0,0,0,0,-5,0,0,6.014721,-0.0945894,0,94.04211,-3.058162,0.5,0,0,0,0,-5.957895,0,0,19,0,0,56,2,229
198.4654,15.10289,7.596353,-163.6326,40.22726,1,0,0,0,0,-14.73207,-7.435193,-30.04112,0,-14.73207,-7.447628,0.4674793,0,0,0,0,0,-13,0,0,1.141642,-5.957243,-3.558833,0,1.141642,-5.720915,0.4169289,0,0,0,0,0,-5,0,0,5.946906,0.3884944,0,93.96053,-0.3102911,0.5,0,0,0,0,-6.03947,0,0,19,0,0,57,2,229
197.3496,-21.55144,7.156109,-161.5346,15.10289,1,0,0,0,0,-15.30699,-7.394032,-31.6434,0,-14.73207,-7.435193,0.5282747,0,0,0,0,0,-13,0,0,0.1623244,-6.370883,8.200401,0,1.141642,-5.957243,-0.1325874,0,0,0,0,0,-5,0,0,5.662588,0.998612,0,93.96053,1.274417,0.5,0,0,0,0,-5.888107,0,0,19,0,0,58,2,229
192.4905,-52.49856,6.717508,-162.6504,-21.55144,1,0,0,0,0,-15.98257,-7.350488,-30.77168,0,-15.30699,-7.394032,0.5779455,0,0,0,0,0,-13,0,0,0.1623244,-6.852788,21.98791,0,0.1623244,-6.370883,-1,0,0,0,0,0,-5,0,0,5.203327,1.498381,0,94.11189,3.275847,0.5,0,0,0,0,-5.150826,0,0,19,0,0,59,2,229
182.3124,-80.3202,5.832281,-167.5095,-52.49856,1,0,0,0,0,-16.89528,-7.293033,-22.58701,0,-16.89528,-7.350488,0.5509221,0,0,0,0,0,-13,0,0,-0.8169937,-7.767871,40.54025,0,-0.8169937,-6.852788,-1,0,0,0,0,0,-5,0,0,4.099324,2.195455,0,95.36918,4.915289,0.5,0,0,0,0,-4.630824,0,0,19,0,0,60,2,229
179.0182,-82.29952,5.371552,-177.6876,-80.3202,1,0,0,0,0,-18.0881,-7.275659,-17.20735,0,-18.0881,-7.293033,0.2971972,0,0,0,0,0,-13,0,0,-2.141102,-8.185654,43.57119,0,-2.141102,-7.767871,-1,0,0,0,0,0,-5,0,0,3.533002,2.402988,0,96.31067,7.20197,0.5,0,0,0,0,-3.689332,0,0,19,0,0,61,2,229
176.4129,-78.27201,5.809538,179.0182,-82.29952,1,0,0,0,0,-18.59066,-7.237147,-10.65765,0,-18.0881,-7.275659,0.1304278,0,0,0,0,0,-13,0,0,-3.175473,-8.674556,43.44485,0,-2.141102,-8.185654,-1,0,0,0,0,0,-5,0,0,2.864869,2.545339,0,96.31067,7.882763,0.5,0,0,0,0,-2.793502,0,0,19,0,0,62,2,229
174.8244,-63.47136,6.170777,176.4129,-78.27201,1,0,0,0,0,-18.92846,-7.181775,-3.546556,0,-18.59066,-7.237147,-0.07261299,0,0,0,0,0,-13,0,0,-3.175473,-9.217387,39.95248,0,-3.175473,-8.674556,-1,0,0,0,0,0,-5,0,0,2.112278,2.554771,0,97.2065,8.34973,0.5,0,0,0,0,-2.424862,0,0,19,0,0,63,2,229
174.683,-38.14181,6.875422,174.8244,-63.47136,1,0,0,0,0,-19.84116,-7.044594,3.045739,0,-19.84116,-7.181775,-0.2930568,0,0,0,0,0,-13,0,0,-4.15479,-9.855606,33.34643,0,-4.15479,-9.217387,-1,0,0,0,0,0,-5,0,0,1.388203,2.212206,0,98.09514,8.380672,0.5,0,0,0,0,-1.904859,0,0,19,0,0,64,2,229
175.2235,-22.74001,7.222138,174.683,-38.14181,1,0,0,0,0,-20.16187,-6.930385,5.85202,0,-20.16187,-7.044594,-0.4974179,0,0,0,0,0,-13,0,0,-5.055881,-10.18506,29.12225,0,-5.055881,-9.855606,-1,0,0,0,0,0,-5,0,0,1.084304,1.881769,0,98.47944,7.256919,0.5,0,0,0,0,-1.520562,0,0,19,0,0,65,2,229
177.5307,8.777713,7.566344,175.2235,-22.74001,1,0,0,0,0,-20.76269,-6.584631,10.11702,0,-20.16187,-6.930385,-0.5844126,0,0,0,0,0,-13,0,0,-6.301761,-10.79086,19.52558,0,-5.055881,-10.18506,-1,0,0,0,0,0,-5,0,0,0.7019024,0.8449382,0,98.47944,6.172956,0.5,0,0,0,0,-0.7147751,0,0,19,0,0,66,2,229
181.3494,35.16704,7.91252,177.5307,8.777713,1,0,0,0,0,-21.42119,-6.144053,12.40714,0,-20.76269,-6.584631,-0.7166275,0,0,0,0,0,-13,0,0,-7.20285,-11.13548,9.328942,0,-6.301761,-10.79086,-1,0,0,0,0,0,-5,0,0,0.7369124,-0.5531768,0,99.28522,2.771735,0.5,0,0,0,0,0.03816319,0,0,19,0,0,67,2,229
186.3716,51.12897,6.885981,-178.6506,35.16704,1,0,0,0,0,-21.6754,-5.75316,12.90431,0,-21.6754,-6.144053,-0.7876214,0,0,0,0,0,-13,0,0,-7.281079,-11.08627,-0.8109465,0,-7.281079,-11.13548,-1,0,0,0,0,0,-5,0,0,1.259407,-2.05748,0,99.80523,-1.814641,0.5,0,0,0,0,-0.1947727,0,0,19,0,0,68,2,229
191.9468,54.16169,6.425464,-173.6284,51.12897,1,0,0,0,0,-22.14082,-5.548417,12.19315,0,-22.14082,-5.75316,-0.8030335,0,0,0,0,0,-13,0,0,-8.072062,-10.68125,-10.50787,0,-8.072062,-11.08627,-0.3853929,0,0,0,0,0,-5,0,0,2.229772,-3.358783,0,98.70059,-6.749357,0.5,0,0,0,0,-1.299412,0,0,19,0,0,69,2,229
197.3342,47.56379,5.982297,-168.0532,54.16169,1,0,0,0,0,-23.30533,-5.596095,10.80567,0,-22.14082,-5.548417,-0.7809876,0,0,0,0,0,-13,0,0,-10.32044,-10.0906,-19.7453,0,-8.072062,-10.68125,0.5067238,0,0,0,0,0,-5,0,0,3.50716,-4.265428,0,98.70059,-11.01815,0.5,0,0,0,0,-1.688309,0,0,19,0,0,70,2,229
202.2156,37.31494,5.55595,-162.6658,47.56379,1,0,0,0,0,-23.6148,-5.817582,9.126356,0,-23.30533,-5.596095,-0.7379756,0,0,0,0,0,-13,0,0,-11.2447,-9.531548,-27.58483,0,-10.32044,-10.0906,1,0,0,0,0,0,-5,0,0,4.932651,-4.689565,0,98.31169,-13.99231,0.5,0,0,0,0,-2.650056,0,0,19,0,0,71,2,229
206.2821,24.13692,4.737795,-157.7844,37.31494,1,0,0,0,0,-23.93896,-6.094645,7.288092,0,-23.93896,-5.817582,-0.685917,0,0,0,0,0,-13,0,0,-12.4587,-9.100201,-33.65887,0,-12.4587,-9.531548,1,0,0,0,0,0,-5,0,0,6.383979,-4.740903,0,95.69658,-15.38365,0.5,0,0,0,0,-4.303422,0,0,19,0,0,72,2,229
209.2155,9.150886,4.344647,-153.7179,24.13692,1,0,0,0,0,-24.33788,-6.340207,5.197442,0,-24.33788,-6.094645,-0.6289308,0,0,0,0,0,-13,0,0,-12.42682,-8.820423,-36.14297,0,-12.42682,-9.100201,1,0,0,0,0,0,-5,0,0,7.76099,-4.538916,0,93.9747,-15.55206,0.5,0,0,0,0,-6.025295,0,0,19,0,0,73,2,229
210.8624,-13.97552,3.962231,-150.7845,9.150886,1,0,0,0,0,-25.39289,-6.635265,1.368358,0,-24.33788,-6.340207,-0.5641207,0,0,0,0,0,-13,0,0,-14.48686,-8.579335,-33.22229,0,-12.42682,-8.820423,1,0,0,0,0,0,-5,0,0,9.632998,-3.995848,0,93.9747,-14.88946,0.5,0,0,0,0,-7.670195,0,0,19,0,0,74,2,229
210.0165,-28.73999,3.587464,-149.1376,-13.97552,0.8095109,0,0,0,0,-26.36672,-6.761635,-1.630365,0,-25.39289,-6.635265,-0.4454191,0,0,0,0,0,-13,0,0,-15.4343,-8.51393,-28.50142,0,-14.48686,-8.579335,1,0,0,0,0,0,-5,0,0,10.7025,-3.575447,0,92.3298,-13.10798,0.5,0,0,0,0,-9.240705,0,0,19,0,0,75,2,229
207.6957,-41.88622,2.837547,-149.9835,-28.73999,0.01942501,0,0,0,0,-26.69329,-6.844269,-4.822979,0,-26.69329,-6.761635,-0.3524587,0,0,0,0,0,-13,0,0,-15.45748,-8.506338,-22.23227,0,-15.45748,-8.51393,1,0,0,0,0,0,-5,0,0,11.62942,-3.136933,0,89.78189,-11.7289,0.5,0,0,0,0,-10.21811,0,0,19,0,0,76,2,229
204.784,-40.66468,2.456786,-152.3043,-41.88622,-0.4260575,0,0,0,0,-27.15871,-6.933614,-7.590905,0,-27.15871,-6.844269,-0.2534876,0,0,0,0,0,-13,0,0,-16.24846,-8.50845,-14.86265,0,-16.24846,-8.506338,1,0,0,0,0,0,-5,0,0,12.41531,-2.691285,0,88.67725,-10.29039,0.5,0,0,0,0,-11.32275,0,0,19,0,0,77,2,229
203.1665,8.056239,2.068746,-155.216,-40.66468,-0.8658496,0,0,0,0,-28.90639,-7.127733,-10.12379,0,-27.15871,-6.933614,-0.1676819,0,0,0,0,0,-13,0,0,-17.40741,-8.468645,-3.259661,0,-16.24846,-8.50845,0.9073639,0,0,0,0,0,-5,0,0,13.31234,-1.964882,0,88.67725,-8.82849,0.5,0,0,0,0,-12.24602,0,0,19,0,0,78,2,229
207.9908,65.91215,1.676662,-156.8335,8.056239,-1,0,0,0,0,-29.80787,-7.292442,-10.72602,0,-28.90639,-7.127733,-0.08916236,0,0,0,0,0,-13,0,0,-18.4099,-8.424913,3.437052,0,-17.40741,-8.468645,-0.1601112,0,0,0,0,0,-5,0,0,13.7411,-1.559029,0,87.75397,-6.445598,0.5,0,0,0,0,-13.07207,0,0,19,0,0,79,2,229
217.8183,121.5398,0.922679,-152.0092,65.91215,-1,0,0,0,0,-29.79078,-7.411547,-11.09734,0,-29.79078,-7.292442,-0.07049347,0,0,0,0,0,-13,0,0,-19.31099,-8.472447,8.937589,0,-19.31099,-8.424913,-0.7762089,0,0,0,0,0,-5,0,0,14.08179,-1.3312,0,86.94359,-5.114239,0.5,0,0,0,0,-13.05641,0,0,19,0,0,80,2,229
237.9221,165.2108,0.57498,-142.1817,121.5398,-1,0,0,0,0,-30.45514,-7.333052,-11.58105,0,-30.45514,-7.411547,-0.0589825,0,0,0,0,0,-13,0,0,-19.33417,-8.783218,14.14698,0,-19.33417,-8.472447,-1,0,0,0,0,0,-5,0,0,14.55923,-1.382732,0,86.33482,-4.366867,0.5,0,0,0,0,-13.66517,0,0,19,0,0,81,2,229
253.0267,172.285,0.2782774,-122.0779,165.2108,-1,0,0,0,0,-31.20067,-7.131321,-11.69307,0,-30.45514,-7.333052,-0.04398754,0,0,0,0,0,-13,0,0,-20.46994,-9.02313,12.80003,0,-19.33417,-8.783218,-1,0,0,0,0,0,-5,0,0,14.92814,-1.560746,0,86.33482,-4.535914,0.5,0,0,0,0,-14.34832,0,0,19,0,0,82,2,229
267.8642,166.4251,0.01786395,-106.9733,172.285,-1,0,0,0,0,-31.87385,-6.845547,-11.19959,0,-31.20067,-7.131321,-0.04051493,0,0,0,0,0,-13,0,0,-21.66077,-9.209327,7.844754,0,-20.46994,-9.02313,-1,0,0,0,0,0,-5,0,0,15.36037,-1.765501,0,85.65167,-5.119872,0.5,0,0,0,0,-14.287,0,0,19,0,0,83,2,229
288.028,147.6046,-0.4297892,-92.13577,166.4251,-1,0,0,0,0,-32.43754,-6.495895,-8.795336,0,-32.43754,-6.845547,-0.05581266,0,0,0,0,0,-13,0,0,-22.66326,-9.294438,-2.516653,0,-22.66326,-9.209327,-1,0,0,0,0,0,-5,0,0,16.0444,-1.739438,0,84.51831,-5.791549,0.5,0,0,0,0,-15.48169,0,0,19,0,0,84,2,229
299.5108,134.7929,-0.6011695,-71.97198,147.6046,-1,0,0,0,0,-33.1684,-6.380431,-6.093763,0,-33.1684,-6.495895,-0.1303446,0,0,0,0,0,-13,0,0,-23.5093,-9.263113,-9.580167,0,-23.5093,-9.294438,-0.2284679,0,0,0,0,0,-5,0,0,16.41004,-1.395367,0,84.52678,-5.706053,0.5,0,0,0,0,-15.47322,0,0,19,0,0,85,2,229
314.2236,122.7622,-0.7455407,-60.4892,134.7929,-1,0,0,0,0,-33.42019,-6.307652,-0.6566529,0,-33.1684,-6.380431,-0.2140933,0,0,0,0,0,-13,0,0,-24.77835,-9.191206,-19.56053,0,-23.5093,-9.263113,0.4213753,0,0,0,0,0,-5,0,0,16.66579,-0.5213985,0,84.52678,-4.577362,0.5,0,0,0,0,-16.38211,0,0,19,0,0,86,2,229
323.2248,117.8972,-0.853594,-45.77637,122.7622,-1,0,0,0,0,-34.48884,-6.265292,3.713001,0,-33.42019,-6.307652,-0.3826438,0,0,0,0,0,-13,0,0,-25.62439,-9.179175,-24.9581,0,-24.77835,-9.191206,1,0,0,0,0,0,-5,0,0,16.63911,0.005682934,0,83.61789,-1.710396,0.5,0,0,0,0,-16.00501,0,0,19,0,0,87,2,229
336.4934,116.5015,-1.028281,-36.77518,117.8972,-1,0,0,0,0,-35.47391,-6.222409,11.14058,0,-35.47391,-6.265292,-0.518103,0,0,0,0,0,-13,0,0,-26.54866,-9.255163,-28.0393,0,-26.54866,-9.179175,1,0,0,0,0,0,-5,0,0,16.36938,0.6272918,0,83.77052,0.0186423,0.5,0,0,0,0,-16.22948,0,0,19,0,0,88,2,229
345.9224,120.1787,-1.081932,-23.50662,116.5015,-1,0,0,0,0,-35.96523,-6.218085,16.32182,0,-35.96523,-6.222409,-0.748358,0,0,0,0,0,-13,0,0,-27.6062,-9.380965,-25.61794,0,-27.6062,-9.255163,1,0,0,0,0,0,-5,0,0,16.07361,0.8714473,0,83.32031,2.057768,0.5,0,0,0,0,-16.67969,0,0,19,0,0,89,2,229
356.7258,128.3666,-1.113901,-14.07758,120.1787,-1,0,0,0,0,-36.23067,-6.246654,21.12461,0,-35.96523,-6.218085,-0.9089763,0,0,0,0,0,-13,0,0,-27.66125,-9.545519,-19.52064,0,-27.6062,-9.380965,1,0,0,0,0,0,-5,0,0,15.72595,0.9988125,0,83.32031,2.858696,0.5,0,0,0,0,-15.56658,0,0,19,0,0,90,2,229
9.762442,142.9109,-1.120345,-3.274231,128.3666,-0.9674283,0,0,0,0,-37.04271,-6.337032,24.5882,0,-36.23067,-6.246654,-1,0,0,0,0,0,-13,0,0,-29.61989,-9.739567,-10.10914,0,-27.66125,-9.545519,1,0,0,0,0,0,-5,0,0,15.16494,0.9271504,0,84.43342,3.276505,0.5,0,0,0,0,-15.6325,0,0,19,0,0,91,2,229
26.01742,167.1598,-1.071533,9.762442,142.9109,-0.6536375,0,0,0,0,-37.71829,-6.509477,25.5322,0,-37.71829,-6.337032,-1,0,0,0,0,0,-13,0,0,-29.61989,-9.917061,2.185422,0,-29.61989,-9.739567,0.4700407,0,0,0,0,0,-5,0,0,15.1599,0.7743375,0,85.10478,3.041424,0.5,0,0,0,0,-14.89522,0,0,19,0,0,92,2,229
45.33675,199.9495,-1.00649,26.01742,167.1598,-0.248037,0,0,0,0,-37.88306,-6.746087,22.38175,0,-37.88306,-6.509477,-1,0,0,0,0,0,-13,0,0,-30.65426,-10.03986,15.90003,0,-30.65426,-9.917061,-0.6610588,0,0,0,0,0,-5,0,0,14.67781,0.6490788,0,85.63197,2.540137,0.5,0,0,0,0,-14.36802,0,0,19,0,0,93,2,229
66.10891,233.9588,-0.8931478,45.33675,199.9495,0.2766615,0,0,0,0,-38.89403,-6.985487,13.98312,0,-37.88306,-6.746087,-1,0,0,0,0,0,-13,0,0,-31.84509,-10.09374,27.622,0,-30.65426,-10.03986,-1,0,0,0,0,0,-5,0,0,14.42575,0.6655678,0,85.63197,2.129238,0.5,0,0,0,0,-13.93807,0,0,19,0,0,94,2,229
99.90891,304.362,-0.7278755,66.10891,233.9588,0.882153,0,0,0,0,-39.62489,-7.235263,-7.962569,0,-38.89403,-6.985487,-0.8364768,0,0,0,0,0,-13,0,0,-32.69112,-9.967273,32.26059,0,-31.84509,-10.09374,-1,0,0,0,0,0,-5,0,0,14.06423,0.7560435,0,86.06194,2.183329,0.5,0,0,0,0,-13.9296,0,0,19,0,0,95,2,229
137.6955,334.59,-0.2370637,99.90891,304.362,1,0,0,0,0,-40.87298,-7.658047,-28.7062,0,-40.87298,-7.235263,-0.1561604,0,0,0,0,0,-13,0,0,-34.86127,-9.680271,13.55469,0,-34.86127,-9.967273,-1,0,0,0,0,0,-5,0,0,13.80303,0.9179093,0,86.28308,2.480125,0.5,0,0,0,0,-13.71692,0,0,19,0,0,96,2,229
165.809,318.0236,0.09603187,137.6955,334.59,1,0,0,0,0,-41.39022,-8.092141,-34.89851,0,-41.39022,-7.658047,0.4868921,0,0,0,0,0,-13,0,0,-36.18538,-9.547446,-7.643026,0,-36.18538,-9.680271,-1,0,0,0,0,0,-5,0,0,13.27145,1.000345,0,86.48729,3.01111,0.5,0,0,0,0,-13.51271,0,0,19,0,0,97,2,229
213.0627,247.9628,0.4885983,165.809,318.0236,1,0,0,0,0,-41.39022,-8.906523,-27.89963,0,-41.39022,-8.092141,0.6788537,0,0,0,0,0,-13,0,0,-36.18538,-9.373584,-45.7734,0,-36.18538,-9.547446,0.2431584,0,0,0,0,0,-5,0,0,12.70648,1.410588,0,86.48729,3.281532,0.5,0,0,0,0,-13.51271,0,0,19,0,0,98,2,229
227.9649,190.0911,0.09045549,-146.9373,247.9628,-1,0,0,0,0,-43.13445,-9.14066,-20.43083,0,-41.39022,-8.906523,0.4618884,0,0,0,0,0,-13,0,0,-37.03142,-9.384216,-57.56758,0,-36.18538,-9.373584,1,0,0,0,0,0,-5,0,0,12.01018,1.739745,0,86.48729,4.627293,0.5,0,0,0,0,-12.39832,0,0,19,0,0,99,2,229
241.8694,90.76475,-0.5441024,-132.0351,190.0911,-1,0,0,0,0,-44.03008,-9.013428,-11.70649,0,-44.03008,-9.14066,0.2303557,0,0,0,0,0,-13,0,0,-38.91182,-9.602283,-67.27155,0,-38.91182,-9.384216,1,0,0,0,0,0,-5,0,0,11.22055,2.439142,0,88.13734,5.707059,0.5,0,0,0,0,-11.86266,0,0,19,0,0,100,2,229
248.8436,119.2428,-0.8227597,-118.1306,90.76475,-1,0,0,0,0,-44.78925,-8.815412,-4.745272,0,-44.78925,-9.013428,-0.04009888,0,0,0,0,0,-13,0,0,-38.8336,-9.697977,-69.80453,0,-38.8336,-9.602283,1,0,0,0,0,0,-5,0,0,10.32716,3.380836,0,89.4762,8.001362,0.5,0,0,0,0,-10.5238,0,0,19,0,0,101,2,229
255.2183,133.56,-1.082112,-111.1564,119.2428,-1,0,0,0,0,-45.54601,-8.500526,4.402838,0,-44.78925,-8.815412,-0.2558966,0,0,0,0,0,-13,0,0,-39.9462,-9.790917,-69.58038,0,-38.8336,-9.697977,1,0,0,0,0,0,-5,0,0,9.303323,4.281621,0,89.4762,11.0905,0.5,0,0,0,0,-9.860905,0,0,19,0,0,102,2,229
261.0247,130.8211,-1.324696,-104.7817,133.56,-1,0,0,0,0,-46.20451,-8.233164,14.08206,0,-45.54601,-8.500526,-0.539488,0,0,0,0,0,-13,0,0,-40.84728,-9.824751,-66.6139,0,-39.9462,-9.790917,1,0,0,0,0,0,-5,0,0,7.911389,5.022755,0,90.1391,14.04543,0.5,0,0,0,0,-9.107969,0,0,19,0,0,103,2,229
268.6164,104.0797,-1.777567,-98.97531,130.8211,-1,0,0,0,0,-46.98719,-8.345357,27.12457,0,-46.98719,-8.233164,-0.8395438,0,0,0,0,0,-13,0,0,-42.22645,-9.688832,-57.24338,0,-42.22645,-9.824751,1,0,0,0,0,0,-5,0,0,5.525271,5.742691,0,92.20935,16.47665,0.5,0,0,0,0,-7.790648,0,0,19,0,0,104,2,229
272.8337,79.15765,-1.982144,-91.38364,104.0797,-1,0,0,0,0,-47.7405,-8.833894,33.57079,0,-47.7405,-8.345357,-1,0,0,0,0,0,-13,0,0,-43.02613,-9.496275,-48.59006,0,-43.02613,-9.688832,1,0,0,0,0,0,-5,0,0,3.732444,5.884939,0,94.90991,18.83832,0.5,0,0,0,0,-5.090088,0,0,19,0,0,105,2,229
277.8268,46.41818,-2.175089,-87.16629,79.15765,-1,0,0,0,0,-48.1707,-10.0478,39.54526,0,-47.7405,-8.833894,-1,0,0,0,0,0,-13,0,0,-44.11555,-8.997815,-34.36588,0,-43.02613,-9.496275,1,0,0,0,0,0,-5,0,0,1.242661,5.512328,0,94.90991,19.30495,0.5,0,0,0,0,-3.449789,0,0,19,0,0,106,2,229
274.7675,-186.6827,-2.353986,-82.17316,46.41818,-1,0,0,0,0,-49.61428,-10.1469,18.20723,0,-48.1707,-10.0478,-1,0,0,0,0,0,-13,0,0,-45.20498,-7.913688,-29.76672,0,-44.11555,-8.997815,1,0,0,0,0,0,-5,0,0,0.4255259,2.753246,0,96.55021,18.08264,0.5,0,0,0,0,-0.7035675,0,0,19,0,0,107,2,229
269.8674,-162.6725,-2.717964,-85.23248,-186.6827,-1,0,0,0,0,-50.79829,-9.583945,-3.500163,0,-50.79829,-10.1469,-0.9674241,0,0,0,0,0,-13,0,0,-45.36144,-7.165187,-29.36888,0,-45.36144,-7.913688,1,0,0,0,0,0,-5,0,0,0.06887843,-0.3602856,0,99.56784,9.031747,0.5,0,0,0,0,-0.4321594,0,0,19,0,0,108,2,229
262.4312,-137.7222,-2.907269,-90.1326,-162.6725,-1,0,0,0,0,-51.45679,-8.945212,-30.31719,0,-51.45679,-9.583945,-0.294495,0,0,0,0,0,-13,0,0,-46.26253,-7.128165,-25.54389,0,-46.26253,-7.165187,1,0,0,0,0,0,-5,0,0,0.3193386,0.2136919,0,100.3208,-1.181881,0.5,0,0,0,0,0.3207798,0,0,19,0,0,109,2,229
252.8945,-112.0396,-3.112766,-97.56882,-137.7222,-1,0,0,0,0,-52.69606,-8.168118,-51.42483,0,-51.45679,-8.945212,0.536833,0,0,0,0,0,-13,0,0,-47.26502,-6.995319,-16.48607,0,-46.26253,-7.128165,1,0,0,0,0,0,-5,0,0,0.2064421,0.2222186,0,100.3208,0.700995,0.5,0,0,0,0,-0.1366253,0,0,19,0,0,110,2,229
226.8505,-87.64585,-3.33909,-107.1055,-112.0396,-1,0,0,0,0,-53.86297,-7.269964,-73.63562,0,-52.69606,-8.168118,1,0,0,0,0,0,-13,0,0,-48.32257,-6.624131,5.449882,0,-47.26502,-6.995319,1,0,0,0,0,0,-5,0,0,-0.3581202,0.2822742,0,99.86337,0.7289658,0.5,0,0,0,0,0.1504421,0,0,19,0,0,111,2,229
162.7333,-24.31834,-3.907481,-133.1495,-87.64585,-1,0,0,0,0,-54.52147,-6.209747,-84.84987,0,-54.52147,-7.269964,1,0,0,0,0,0,-13,0,0,-49.22366,-6.620505,67.79925,0,-49.22366,-6.624131,-0.9613891,0,0,0,0,0,-5,0,0,-0.1333513,-0.4561534,0,100.9034,0.9259722,0.5,0,0,0,0,0.9033813,0,0,19,0,0,112,2,229
74.13609,-12.82003,-3.445522,162.7333,-24.31834,-0.480101,0,0,0,0,-55.34177,-5.807444,-74.34352,0,-55.34177,-6.209747,1,0,0,0,0,0,-13,0,0,-49.11355,-6.446095,150.5802,0,-49.11355,-6.620505,-1,0,0,0,0,0,-5,0,0,-0.3597592,0.4685759,0,100.1517,-1.496366,0.5,0,0,0,0,0.1517239,0,0,19,0,0,113,2,229
63.65477,7.438936,-3.260181,74.13609,-12.82003,-1,0,0,0,0,-56.09853,-5.264822,-67.72504,0,-55.34177,-5.807444,1,0,0,0,0,0,-13,0,0,-50.22615,-6.435502,158.7279,0,-49.11355,-6.446095,-1,0,0,0,0,0,-5,0,0,-0.6802456,0.6672806,0,100.1517,1.537116,0.5,0,0,0,0,0.8146191,0,0,19,0,0,114,2,229
48.18269,45.82614,-3.091923,63.65477,7.438936,-1,0,0,0,0,-56.09853,-3.612017,-52.91539,0,-56.09853,-5.264822,1,0,0,0,0,0,-13,0,0,-50.22615,-5.51059,179.1442,0,-50.22615,-6.435502,-1,0,0,0,0,0,-5,0,0,-0.6857774,0.4112134,0,100.8146,2.188947,0.5,0,0,0,0,0.8146191,0,0,19,0,0,115,2,229
41.78233,75.42963,-2.832009,48.18269,45.82614,-1,0,0,0,0,-57.02592,-2.387323,-36.39762,0,-57.02592,-3.612017,1,0,0,0,0,0,-13,0,0,-51.4952,-4.204978,-163.3736,0,-51.4952,-5.51059,-1,0,0,0,0,0,-5,0,0,-0.7978802,-0.01671994,0,100.643,1.348944,0.5,0,0,0,0,0.6430016,0,0,19,0,0,116,2,229
41.64915,130.6371,-2.718895,41.78233,75.42963,-1,0,0,0,0,-56.95356,-1.38909,-10.36456,0,-56.95356,-2.387323,0.7253261,0,0,0,0,0,-13,0,0,-51.55025,-2.594442,-133.3452,0,-51.55025,-4.204978,1,0,0,0,0,0,-5,0,0,-0.7509091,-0.6164858,0,101.3875,-0.0548481,0.5,0,0,0,0,1.387472,0,0,19,0,0,117,2,229
46.63334,137.6745,-2.606555,41.64915,130.6371,-1,0,0,0,0,-57.19068,-0.8526642,7.742548,0,-56.95356,-1.38909,-0.08169851,0,0,0,0,0,-13,0,0,-52.52958,-1.750979,-112.2445,0,-51.55025,-2.594442,1,0,0,0,0,0,-5,0,0,-0.5180619,-1.465642,0,101.3875,-2.02232,0.5,0,0,0,0,1.170193,0,0,19,0,0,118,2,229
53.68748,-38.87732,-2.483771,46.63334,137.6745,-1,0,0,0,0,-58.01098,-0.591442,6.209714,0,-57.19068,-0.8526642,-0.643019,0,0,0,0,0,-13,0,0,-52.41947,-1.291119,-99.15988,0,-52.52958,-1.750979,1,0,0,0,0,0,-5,0,0,0.01721876,-1.669709,0,101.1702,-4.807891,0.5,0,0,0,0,0.4185352,0,0,19,0,0,119,2,229
60.69419,-27.36837,-2.207212,53.68748,-38.87732,-1,0,0,0,0,-57.67319,-0.5977691,4.120531,0,-57.67319,-0.591442,-0.5955011,0,0,0,0,0,-13,0,0,-52.41947,-1.290515,-85.93927,0,-52.41947,-1.291119,1,0,0,0,0,0,-5,0,0,0.3227498,-0.7760393,0,100.0499,-5.477314,0.5,0,0,0,0,0.04989433,0,0,19,0,0,120,2,229
67.41402,-16.35906,-2.052675,60.69419,-27.36837,-0.977089,0,0,0,0,-57.92739,-0.6044849,1.474033,0,-57.92739,-0.5977691,-0.5307364,0,0,0,0,0,-13,0,0,-52.4977,-1.292517,-73.07522,0,-52.4977,-1.290515,1,0,0,0,0,0,-5,0,0,0.3692806,0.1180648,0,99.81696,-2.545719,0.5,0,0,0,0,-0.1830406,0,0,19,0,0,121,2,229
76.17749,30.53701,-1.88414,67.41402,-16.35906,-0.6661304,0,0,0,0,-57.91031,-0.77379,-1.485984,0,-57.92739,-0.6044849,-0.448695,0,0,0,0,0,-13,0,0,-53.39879,-0.8732332,-60.013,0,-52.4977,-1.292517,1,0,0,0,0,0,-5,0,0,0.1227602,0.2306542,0,99.81696,0.3872999,0.5,0,0,0,0,-0.1673851,0,0,19,0,0,122,2,229
79.67055,61.35184,-1.693696,76.17749,30.53701,-0.2358569,0,0,0,0,-57.6561,-0.7217427,2.347003,0,-57.91031,-0.77379,-0.3569345,0,0,0,0,0,-13,0,0,-53.32056,-0.3369133,-61.37403,0,-53.39879,-0.8732332,1,0,0,0,0,0,-5,0,0,0.06350396,0.1709612,0,99.83261,0.7566379,0.5,0,0,0,0,0.06555176,0,0,19,0,0,123,2,229
82.5174,61.74023,-1.295343,79.67055,61.35184,0.2782422,0,0,0,0,-57.6561,-0.5792221,6.944799,0,-57.6561,-0.7217427,-0.4757571,0,0,0,0,0,-13,0,0,-53.32056,-0.2587002,-65.14306,0,-53.32056,-0.3369133,1,0,0,0,0,0,-5,0,0,0.005549178,0.1789916,0,100.0656,0.5608212,0.5,0,0,0,0,0.06555176,0,0,19,0,0,124,2,229
84.87833,58.70117,-1.08905,82.5174,61.74023,0.5377655,0,0,0,0,-57.6561,-0.4659984,11.74203,0,-57.6561,-0.5792221,-0.6182888,0,0,0,0,0,-13,0,0,-53.32056,-0.2172927,-72.09666,0,-53.32056,-0.2587002,1,0,0,0,0,0,-5,0,0,-0.07283978,0.2854168,0,100.0656,0.587164,0.5,0,0,0,0,0.06555176,0,0,19,0,0,125,2,229
84.95561,-145.6411,-0.8768539,84.87833,58.70117,0.788518,0,0,0,0,-57.6561,-0.5349664,-8.02777,0,-57.6561,-0.4659984,-0.7670031,0,0,0,0,0,-13,0,0,-53.32056,-0.2309742,-89.60045,0,-53.32056,-0.2172927,1,0,0,0,0,0,-5,0,0,-0.07455975,0.4253682,0,100.0656,0.9362812,0.5,0,0,0,0,0.06555176,0,0,19,0,0,126,2,229
86.47717,-135.358,-0.6644648,84.95561,-145.6411,0.6626381,0,0,0,0,-58.2481,-0.546182,-19.92007,0,-57.6561,-0.5349664,-0.1541391,0,0,0,0,0,-13,0,0,-53.39879,-0.1701691,-102.2768,0,-53.32056,-0.2309742,1,0,0,0,0,0,-5,0,0,-0.3413269,1.063279,0,100.0656,1.395378,0.5,0,0,0,0,0.2012558,0,0,19,0,0,127,2,229
90.23695,-46.85286,-0.2320789,86.47717,-135.358,1,0,0,0,0,-58.33169,-0.0846187,-30.04476,0,-58.33169,-0.546182,0.2145221,0,0,0,0,0,-13,0,0,-53.32056,0.1257766,-127.565,0,-53.32056,-0.1701691,1,0,0,0,0,0,-5,0,0,-0.56483,-0.3471369,0,100.8028,3.487981,0.5,0,0,0,0,0.8028316,0,0,19,0,0,128,2,229
91.34752,-29.51127,-0.007888783,90.23695,-46.85286,1,0,0,0,0,-58.33169,-0.078644,-32.80179,0,-58.33169,-0.0846187,0.5283875,0,0,0,0,0,-13,0,0,-53.32056,0.1428164,-136.5348,0,-53.32056,0.1257766,1,0,0,0,0,0,-5,0,0,-0.5302123,-0.08353956,0,100.8028,-1.138748,0.5,0,0,0,0,0.8028316,0,0,19,0,0,129,2,229
91.60689,-5.163067,0.2146701,91.34752,-29.51127,1,0,0,0,0,-58.33169,-0.01881567,-34.9916,0,-58.33169,-0.078644,0.6138555,0,0,0,0,0,-13,0,0,-53.32056,0.1268545,-143.9304,0,-53.32056,0.1428164,1,0,0,0,0,0,-5,0,0,-0.5268589,-0.001003807,0,100.8028,-0.2740432,0.5,0,0,0,0,0.8028316,0,0,19,0,0,130,2,229
90.6283,7.986515,0.4351585,91.60689,-5.163067,1,0,0,0,0,-58.33169,-0.006813986,-35.45981,0,-58.33169,-0.01881567,0.6817397,0,0,0,0,0,-13,0,0,-53.32056,0.0901066,-144.8313,0,-53.32056,0.1268545,1,0,0,0,0,0,-5,0,0,-0.5302567,0.01236812,0,100.8028,-0.003292887,0.5,0,0,0,0,0.8028316,0,0,19,0,0,131,2,229
87.68587,25.94073,0.8637354,90.6283,7.986515,1,0,0,0,0,-58.33169,-0.0232986,-34.79584,0,-58.33169,-0.006813986,0.6962541,0,0,0,0,0,-13,0,0,-53.32056,0.02809297,-141.2145,0,-53.32056,0.0901066,1,0,0,0,0,0,-5,0,0,-0.5430862,0.04292642,0,100.8028,0.0405724,0.5,0,0,0,0,0.8028316,0,0,19,0,0,132,2,229
83.17786,46.88861,1.06744,87.68587,25.94073,1,0,0,0,0,-58.33169,-0.05448528,-32.09713,0,-58.33169,-0.0232986,0.675671,0,0,0,0,0,-13,0,0,-53.32056,-0.03054975,-132.093,0,-53.32056,0.02809297,1,0,0,0,0,0,-5,0,0,-0.5720679,0.1013465,0,100.8028,0.1408158,0.5,0,0,0,0,0.8028316,0,0,19,0,0,133,2,229
79.60255,63.77322,1.258083,83.17786,46.88861,1,0,0,0,0,-58.33169,-0.07376873,-28.78567,0,-58.33169,-0.05448528,0.5920112,0,0,0,0,0,-13,0,0,-53.32056,-0.06458663,-123.1723,0,-53.32056,-0.03054975,1,0,0,0,0,0,-5,0,0,-0.6077797,0.1638881,0,100.8028,0.332457,0.5,0,0,0,0,0.8028316,0,0,19,0,0,134,2,229
76.00493,90.04938,1.438365,79.60255,63.77322,1,0,0,0,0,-58.33169,-0.0543177,-19.40996,0,-58.33169,-0.07376873,0.4893557,0,0,0,0,0,-13,0,0,-53.32056,-0.09766454,-115.1412,0,-53.32056,-0.06458663,1,0,0,0,0,0,-5,0,0,-0.6136489,0.07531521,0,100.8028,0.5376186,0.5,0,0,0,0,0.8028316,0,0,19,0,0,135,2,229
74.90175,102.1242,1.776624,76.00493,90.04938,1,0,0,0,0,-58.33169,-0.05408374,-11.17136,0,-58.33169,-0.0543177,0.1987087,0,0,0,0,0,-13,0,0,-53.32056,-0.1172092,-113.6615,0,-53.32056,-0.09766454,1,0,0,0,0,0,-5,0,0,-0.6491025,0.1558436,0,100.8028,0.247064,0.5,0,0,0,0,0.8028316,0,0,19,0,0,136,2,229
74.62862,43.64312,1.940577,74.90175,102.1242,1,0,0,0,0,-58.33169,0.03252542,-1.598198,0,-58.33169,-0.05408374,-0.05668772,0,0,0,0,0,-13,0,0,-53.32056,-0.1013455,-111.5267,0,-53.32056,-0.1172092,1,0,0,0,0,0,-5,0,0,-0.6420876,-0.1711982,0,100.8028,0.5112292,0.5,0,0,0,0,0.8028316,0,0,19,0,0,137,2,229
75.32017,-7.149117,2.10221,74.62862,43.64312,1,0,0,0,0,-58.33169,0.04294925,-1.117622,0,-58.33169,0.03252542,-0.3534559,0,0,0,0,0,-13,0,0,-53.32056,-0.06421185,-110.4772,0,-53.32056,-0.1013455,1,0,0,0,0,0,-5,0,0,-0.6379402,0.009732186,0,100.8028,-0.5615987,0.5,0,0,0,0,0.8028316,0,0,19,0,0,138,2,229
75.87377,-22.33599,2.264978,75.32017,-7.149117,1,0,0,0,0,-58.33169,0.04514428,-2.684458,0,-58.33169,0.04294925,-0.3683537,0,0,0,0,0,-13,0,0,-53.32056,-0.01475017,-111.7813,0,-53.32056,-0.06421185,1,0,0,0,0,0,-5,0,0,-0.6579635,0.06774928,0,100.8028,0.03192546,0.5,0,0,0,0,0.8028316,0,0,19,0,0,139,2,229
76.4389,-21.13164,2.589978,75.87377,-22.33599,1,0,0,0,0,-58.33169,0.05883265,-5.671181,0,-58.33169,0.04514428,-0.3197818,0,0,0,0,0,-13,0,0,-53.32056,0.02389289,-113.3246,0,-53.32056,-0.01475017,1,0,0,0,0,0,-5,0,0,-0.6715004,0.00853014,0,100.8028,0.2222447,0.5,0,0,0,0,0.8028316,0,0,19,0,0,140,2,229
76.63969,-14.14817,2.751532,76.4389,-21.13164,1,0,0,0,0,-58.33169,0.05830945,-7.130027,0,-58.33169,0.05883265,-0.2271934,0,0,0,0,0,-13,0,0,-53.32056,0.02908946,-113.8494,0,-53.32056,0.02389289,1,0,0,0,0,0,-5,0,0,-0.6691248,-0.009605909,0,100.8028,0.02798227,0.5,0,0,0,0,0.8028316,0,0,19,0,0,141,2,229
76.75703,-6.715063,2.911848,76.63969,-14.14817,1,0,0,0,0,-58.33169,0.05573802,-7.883813,0,-58.33169,0.05830945,-0.1819692,0,0,0,0,0,-13,0,0,-53.32056,0.02589919,-114.2037,0,-53.32056,0.02908946,1,0,0,0,0,0,-5,0,0,-0.6675806,-0.003709827,0,100.8028,-0.03151122,0.5,0,0,0,0,0.8028316,0,0,19,0,0,142,2,229
76.86197,2.594693,3.070701,76.75703,-6.715063,1,0,0,0,0,-58.33169,0.05352516,-7.868313,0,-58.33169,0.05573802,-0.1586018,0,0,0,0,0,-13,0,0,-53.32056,0.01624802,-114.3663,0,-53.32056,0.02589919,1,0,0,0,0,0,-5,0,0,-0.6676183,0.00197702,0,100.8028,-0.01216972,0.5,0,0,0,0,0.8028316,0,0,19,0,0,143,2,229
77.08324,3.029379,3.383717,76.86197,2.594693,1,0,0,0,0,-58.33169,0.002885177,-7.623686,0,-58.33169,0.05352516,-0.1590823,0,0,0,0,0,-13,0,0,-53.32056,0.002759677,-114.2564,0,-53.32056,0.01624802,1,0,0,0,0,0,-5,0,0,-0.6668648,-0.008568418,0,100.8028,0.006485416,0.5,0,0,0,0,0.8028316,0,0,19,0,0,144,2,229
77.46082,2.64615,3.538347,77.08324,3.029379,1,0,0,0,0,-58.33169,0.003163248,-7.323115,0,-58.33169,0.002885177,-0.1666657,0,0,0,0,0,-13,0,0,-53.32056,0.002882613,-114.1037,0,-53.32056,0.002759677,1,0,0,0,0,0,-5,0,0,-0.6669971,-0.002057009,0,100.8028,-0.02810784,0.5,0,0,0,0,0.8028316,0,0,19,0,0,145,2,229
77.97051,0,3.692327,77.46082,2.64615,1,0,0,0,0,-58.33169,0,-7.096315,0,-58.33169,0.003163248,-0.1759834,0,0,0,0,0,-13,0,0,-53.32056,0,-113.9317,0,-53.32056,0.002882613,1,0,0,0,0,0,-5,0,0,-0.6680173,0.002858514,0,100.8028,-0.006747812,0.5,0,0,0,0,0.8028316,0,0,19,0,0,146,2,229
78.823,0,3.845979,77.97051,0,1,0,0,0,0,-58.33169,0,-6.720456,0,-58.33169,0,-0.1830142,0,0,0,0,0,-13,0,0,-53.32056,0,-113.6941,0,-53.32056,0,1,0,0,0,0,0,-5,0,0,-0.6690648,0.004114009,0,100.8028,0.009377068,0.5,0,0,0,0,0.8028316,0,0,19,0,0,147,2,229
79.39827,0,4.152671,78.823,0,1,0,0,0,0,-58.33169,0,-6.468962,0,-58.33169,0,-0.1946659,0,0,0,0,0,-13,0,0,-53.32056,0,-113.5415,0,-53.32056,0,1,0,0,0,0,0,-5,0,0,-0.6697145,0.002035795,0,100.8028,0.01349559,0.5,0,0,0,0,0.8028316,0,0,19,0,0,148,2,229
79.94958,0,4.305081,79.39827,0,1,0,0,0,0,-58.33169,0,-6.229556,0,-58.33169,0,-0.2024622,0,0,0,0,0,-13,0,0,-53.32056,0,-113.4018,0,-53.32056,0,1,0,0,0,0,0,-5,0,0,-0.670305,0.00238182,0,100.8028,0.006678222,0.5,0,0,0,0,0.8028316,0,0,19,0,0,149,2,229
80.69147,0,4.457238,79.94958,0,1,0,0,0,0,-58.33169,0,-5.909895,0,-58.33169,0,-0.2098838,0,0,0,0,0,-13,0,0,-53.32056,0,-113.176,0,-53.32056,0,1,0,0,0,0,0,-5,0,0,-0.6713991,0.001591984,0,100.8028,0.007813323,0.5,0,0,0,0,0.8028316,0,0,19,0,0,150,2,229
81.11398,0,4.609627,80.69147,0,1,0,0,0,0,-58.33169,0,-5.729497,0,-58.33169,0,-0.2197932,0,0,0,0,0,-13,0,0,-53.32056,0,-113.0886,0,-53.32056,0,1,0,0,0,0,0,-5,0,0,-0.6711206,-0.003161787,0,100.8028,0.005222343,0.5,0,0,0,0,0.8028316,0,0,19,0,0,151,2,229
81.59303,0,4.9116,81.11398,0,1,0,0,0,0,-58.33169,0,-5.525271,0,-58.33169,0,-0.2253856,0,0,0,0,0,-13,0,0,-53.32056,0,-113.1721,0,-53.32056,0,1,0,0,0,0,0,-5,0,0,-0.6716483,0.006143352,0,100.8028,-0.01037193,0.5,0,0,0,0,0.8028316,0,0,19,0,0,152,2,229
81.79565,0,5.061484,81.59303,0,1,0,0,0,0,-58.33169,0,-5.438536,0,-58.33169,0,-0.2317166,0,0,0,0,0,-13,0,0,-53.32056,0,-113.2037,0,-53.32056,0,1,0,0,0,0,0,-5,0,0,-0.6717128,0.002681506,0,100.8028,0.02015265,0.5,0,0,0,0,0.8028316,0,0,19,0,0,153,2,229
81.90997,0,5.210287,81.79565,0,1,0,0,0,0,-58.33169,0,-5.389539,0,-58.33169,0,-0.2344054,0,0,0,0,0,-13,0,0,-53.32056,0,-113.1991,0,-53.32056,0,1,0,0,0,0,0,-5,0,0,-0.6715512,0.001087215,0,100.8028,0.008796413,0.5,0,0,0,0,0.8028316,0,0,19,0,0,154,2,229
81.93726,0,5.357851,81.90997,0,1,0,0,0,0,-58.33169,0,-5.377857,0,-58.33169,0,-0.2359243,0,0,0,0,0,-13,0,0,-53.32056,0,-113.1938,0,-53.32056,0,1,0,0,0,0,0,-5,0,0,-0.671341,0.001535369,0,100.8028,0.003566501,0.5,0,0,0,0,0.8028316,0,0,19,0,0,155,2,229
81.82893,0,5.648654,81.93726,0,1,0,0,0,0,-58.33169,0,-5.42425,0,-58.33169,0,-0.2362864,0,0,0,0,0,-13,0,0,-53.32056,0,-113.2031,0,-53.32056,0,1,0,0,0,0,0,-5,0,0,-0.6712893,-0.0003918662,0,100.8028,0.005036623,0.5,0,0,0,0,0.8028316,0,0,19,0,0,156,2,229
81.67802,0,5.791605,81.82893,0,1,0,0,0,0,-58.33169,0,-5.488888,0,-58.33169,0,-0.2348482,0,0,0,0,0,-13,0,0,-53.32056,0,-113.2116,0,-53.32056,0,1,0,0,0,0,0,-5,0,0,-0.6714471,-0.0002036097,0,100.8028,-0.001285478,0.5,0,0,0,0,0.8028316,0,0,19,0,0,157,2,229
81.48282,0,5.932769,81.67802,0,1,0,0,0,0,-58.33169,0,-5.572517,0,-58.33169,0,-0.2328445,0,0,0,0,0,-13,0,0,-53.32056,0,-113.2247,0,-53.32056,0,1,0,0,0,0,0,-5,0,0,-0.6714897,0.0005951757,0,100.8028,-0.0006679212,0.5,0,0,0,0,0.8028316,0,0,19,0,0,158,2,229
81.14931,0,6.072062,81.48282,0,1,0,0,0,0,-58.33169,0,-5.715473,0,-58.33169,0,-0.230252,0,0,0,0,0,-13,0,0,-53.32056,0,-113.2237,0,-53.32056,0,1,0,0,0,0,0,-5,0,0,-0.6718094,0.002422667,0,100.8028,0.001952414,0.5,0,0,0,0,0.8028316,0,0,19,0,0,159,2,229
80.92182,0,6.344957,81.14931,0,1,0,0,0,0,-58.33169,0,-5.812937,0,-58.33169,0,-0.2258203,0,0,0,0,0,-13,0,0,-53.32056,0,-113.2209,0,-53.32056,0,1,0,0,0,0,0,-5,0,0,-0.6717888,0.002380319,0,100.8028,0.007947315,0.5,0,0,0,0,0.8028316,0,0,19,0,0,160,2,229
80.70078,0,6.478823,80.92182,0,1,0,0,0,0,-58.33169,0,-5.907623,0,-58.33169,0,-0.2227989,0,0,0,0,0,-13,0,0,-53.32056,0,-113.2314,0,-53.32056,0,1,0,0,0,0,0,-5,0,0,-0.6717806,0.001369625,0,100.8028,0.007808399,0.5,0,0,0,0,0.8028316,0,0,19,0,0,161,2,229
80.42433,0,6.610839,80.70078,0,1,0,0,0,0,-58.33169,0,-6.026093,0,-58.33169,0,-0.2198637,0,0,0,0,0,-13,0,0,-53.32056,0,-113.2417,0,-53.32056,0,1,0,0,0,0,0,-5,0,0,-0.6716976,-0.0006522636,0,100.8028,0.004492917,0.5,0,0,0,0,0.8028316,0,0,19,0,0,162,2,229
80.35006,0,6.740886,80.42433,0,1,0,0,0,0,-58.33169,0,-6.057931,0,-58.33169,0,-0.2161911,0,0,0,0,0,-13,0,0,-53.32056,0,-113.2442,0,-53.32056,0,1,0,0,0,0,0,-5,0,0,-0.6716964,8.537015E-06,0,100.8028,-0.002139686,0.5,0,0,0,0,0.8028316,0,0,19,0,0,163,2,229
80.35006,0,6.996836,80.35006,0,1,0,0,0,0,-58.33169,0,-6.057931,0,-58.33169,0,-0.2152041,0,0,0,0,0,-13,0,0,-53.32056,0,-113.2442,0,-53.32056,0,1,0,0,0,0,0,-5,0,0,-0.6716964,8.537015E-06,0,100.8028,2.800482E-05,0.5,0,0,0,0,0.8028316,0,0,19,0,0,164,2,229
80.35006,0,7.122901,80.35006,0,1,0,0,0,0,-58.33169,0,-6.057931,0,-58.33169,0,-0.2152041,0,0,0,0,0,-13,0,0,-53.32056,0,-113.2442,0,-53.32056,0,1,0,0,0,0,0,-5,0,0,-0.6716964,8.537015E-06,0,100.8028,2.800482E-05,0.5,0,0,0,0,0.8028316,0,0,19,0,0,165,2,229
80.35006,0,7.247706,80.35006,0,1,0,0,0,0,-58.33169,0,-6.057931,0,-58.33169,0,-0.2152041,0,0,0,0,0,-13,0,0,-53.32056,0,-113.2442,0,-53.32056,0,1,0,0,0,0,0,-5,0,0,-0.6716964,8.537015E-06,0,100.8028,2.800482E-05,0.5,0,0,0,0,0.8028316,0,0,19,0,0,166,2,229
80.35006,0,7.371263,80.35006,0,1,0,0,0,0,-58.33169,0,-6.057931,0,-58.33169,0,-0.2152041,0,0,0,0,0,-13,0,0,-53.32056,0,-113.2442,0,-53.32056,0,1,0,0,0,0,0,-5,0,0,-0.6716964,8.537015E-06,0,100.8028,2.800482E-05,0.5,0,0,0,0,0.8028316,0,0,19,0,0,167,2,229
80.35006,0,7.614682,80.35006,0,1,0,0,0,0,-58.33169,0,-6.057931,0,-58.33169,0,-0.2152041,0,0,0,0,0,-13,0,0,-53.32056,0,-113.2442,0,-53.32056,0,1,0,0,0,0,0,-5,0,0,-0.6716964,8.537015E-06,0,100.8028,2.800482E-05,0.5,0,0,0,0,0.8028316,0,0,19,0,0,168,2,229
80.35006,0,7.734569,80.35006,0,1,0,0,0,0,-58.33169,0,-6.057931,0,-58.33169,0,-0.2152041,0,0,0,0,0,-13,0,0,-53.32056,0,-113.2442,0,-53.32056,0,1,0,0,0,0,0,-5,0,0,-0.6716964,8.537015E-06,0,100.8028,2.800482E-05,0.5,0,0,0,0,0.8028316,0,0,19,0,0,169,2,229
80.35006,0,7.853257,80.35006,0,1,0,0,0,0,-58.33169,0,-6.057931,0,-58.33169,0,-0.2152041,0,0,0,0,0,-13,0,0,-53.32056,0,-113.2442,0,-53.32056,0,1,0,0,0,0,0,-5,0,0,-0.6716964,8.537015E-06,0,100.8028,2.800482E-05,0.5,0,0,0,0,0.8028316,0,0,19,0,0,170,2,229
80.35006,0,7.970757,80.35006,0,1,0,0,0,0,-58.33169,0,-6.057931,0,-58.33169,0,-0.2152041,0,0,0,0,0,-13,0,0,-53.32056,0,-113.2442,0,-53.32056,0,1,0,0,0,0,0,-5,0,0,-0.6716964,8.537015E-06,0,100.8028,2.800482E-05,0.5,0,0,0,0,0.8028316,0,0,19,0,0,171,2,229
80.35006,0,8.202247,80.35006,0,1,0,0,0,0,-58.33169,0,-6.057931,0,-58.33169,0,-0.2152041,0,0,0,0,0,-13,0,0,-53.32056,0,-113.2442,0,-53.32056,0,1,0,0,0,0,0,-5,0,0,-0.6716964,8.537015E-06,0,100.8028,2.800482E-05,0.5,0,0,0,0,0.8028316,0,0,19,0,0,172,2,229
80.35006,0,8.316258,80.35006,0,1,0,0,0,0,-58.33169,0,-6.057931,0,-58.33169,0,-0.2152041,0,0,0,0,0,-13,0,0,-53.32056,0,-113.2442,0,-53.32056,0,1,0,0,0,0,0,-5,0,0,-0.6716964,8.537015E-06,0,100.8028,2.800482E-05,0.5,0,0,0,0,0.8028316,0,0,19,0,0,173,2,229
80.35006,0,8.42913,80.35006,0,1,0,0,0,0,-58.33169,0,-6.057931,0,-58.33169,0,-0.2152041,0,0,0,0,0,-13,0,0,-53.32056,0,-113.2442,0,-53.32056,0,1,0,0,0,0,0,-5,0,0,-0.6716964,8.537015E-06,0,100.8028,2.800482E-05,0.5,0,0,0,0,0.8028316,0,0,19,0,0,174,2,229
80.35006,0,8.540873,80.35006,0,1,0,0,0,0,-58.33169,0,-6.057931,0,-58.33169,0,-0.2152041,0,0,0,0,0,-13,0,0,-53.32056,0,-113.2442,0,-53.32056,0,1,0,0,0,0,0,-5,0,0,-0.6716964,8.537015E-06,0,100.8028,2.800482E-05,0.5,0,0,0,0,0.8028316,0,0,19,0,0,175,2,229
80.35006,0,8.761017,80.35006,0,1,0,0,0,0,-58.33169,0,-6.057931,0,-58.33169,0,-0.2152041,0,0,0,0,0,-13,0,0,-53.32056,0,-113.2442,0,-53.32056,0,1,0,0,0,0,0,-5,0,0,-0.6716964,8.537015E-06,0,100.8028,2.800482E-05,0.5,0,0,0,0,0.8028316,0,0,19,0,0,176,2,229
80.35006,0,8.86944,80.35006,0,1,0,0,0,0,-58.33169,0,-6.057931,0,-58.33169,0,-0.2152041,0,0,0,0,0,-13,0,0,-53.32056,0,-113.2442,0,-53.32056,0,1,0,0,0,0,0,-5,0,0,-0.6716964,8.537015E-06,0,100.8028,2.800482E-05,0.5,0,0,0,0,0.8028316,0,0,19,0,0,177,2,229
80.35006,0,8.97678,80.35006,0,1,0,0,0,0,-58.33169,0,-6.057931,0,-58.33169,0,-0.2152041,0,0,0,0,0,-13,0,0,-53.32056,0,-113.2442,0,-53.32056,0,1,0,0,0,0,0,-5,0,0,-0.6716964,8.537015E-06,0,100.8028,2.800482E-05,0.5,0,0,0,0,0.8028316,0,0,19,0,0,178,2,229
80.35006,0,9.083046,80.35006,0,1,0,0,0,0,-58.33169,0,-6.057931,0,-58.33169,0,-0.2152041,0,0,0,0,0,-13,0,0,-53.32056,0,-113.2442,0,-53.32056,0,1,0,0,0,0,0,-5,0,0,-0.6716964,8.537015E-06,0,100.8028,2.800482E-05,0.5,0,0,0,0,0.8028316,0,0,19,0,0,179,2,229
80.35006,0,9.292401,80.35006,0,1,0,0,0,0,-58.33169,0,-6.057931,0,-58.33169,0,-0.2152041,0,0,0,0,0,-13,0,0,-53.32056,0,-113.2442,0,-53.32056,0,1,0,0,0,0,0,-5,0,0,-0.6716964,8.537015E-06,0,100.8028,2.800482E-05,0.5,0,0,0,0,0.8028316,0,0,19,0,0,180,2,229
80.35006,0,9.395511,80.35006,0,1,0,0,0,0,-58.33169,0,-6.057931,0,-58.33169,0,-0.2152041,0,0,0,0,0,-13,0,0,-53.32056,0,-113.2442,0,-53.32056,0,1,0,0,0,0,0,-5,0,0,-0.6716964,8.537015E-06,0,100.8028,2.800482E-05,0.5,0,0,0,0,0.8028316,0,0,19,0,0,181,2,229
80.35006,0,9.497589,80.35006,0,1,0,0,0,0,-58.33169,0,-6.057931,0,-58.33169,0,-0.2152041,0,0,0,0,0,-13,0,0,-53.32056,0,-113.2442,0,-53.32056,0,1,0,0,0,0,0,-5,0,0,-0.6716964,8.537015E-06,0,100.8028,2.800482E-05,0.5,0,0,0,0,0.8028316,0,0,19,0,0,182,2,229
80.35006,0,9.598647,80.35006,0,1,0,0,0,0,-58.33169,0,-6.057931,0,-58.33169,0,-0.2152041,0,0,0,0,0,-13,0,0,-53.32056,0,-113.2442,0,-53.32056,0,1,0,0,0,0,0,-5,0,0,-0.6716964,8.537015E-06,0,100.8028,2.800482E-05,0.5,0,0,0,0,0.8028316,0,0,19,0,0,183,2,229
80.35006,0,9.797741,80.35006,0,1,0,0,0,0,-58.33169,0,-6.057931,0,-58.33169,0,-0.2152041,0,0,0,0,0,-13,0,0,-53.32056,0,-113.2442,0,-53.32056,0,1,0,0,0,0,0,-5,0,0,-0.6716964,8.537015E-06,0,100.8028,2.800482E-05,0.5,0,0,0,0,0.8028316,0,0,19,0,0,184,2,229
80.35006,0,9.895798,80.35006,0,1,0,0,0,0,-58.33169,0,-6.057931,0,-58.33169,0,-0.2152041,0,0,0,0,0,-13,0,0,-53.32056,0,-113.2442,0,-53.32056,0,1,0,0,0,0,0,-5,0,0,-0.6716964,8.537015E-06,0,100.8028,2.800482E-05,0.5,0,0,0,0,0.8028316,0,0,19,0,0,185,2,229
80.35006,0,9.992873,80.35006,0,1,0,0,0,0,-58.33169,0,-6.057931,0,-58.33169,0,-0.2152041,0,0,0,0,0,-13,0,0,-53.32056,0,-113.2442,0,-53.32056,0,1,0,0,0,0,0,-5,0,0,-0.6716964,8.537015E-06,0,100.8028,2.800482E-05,0.5,0,0,0,0,0.8028316,0,0,19,0,0,186,2,229
80.35006,0,10.08898,80.35006,0,1,0,0,0,0,-58.33169,0,-6.057931,0,-58.33169,0,-0.2152041,0,0,0,0,0,-13,0,0,-53.32056,0,-113.2442,0,-53.32056,0,1,0,0,0,0,0,-5,0,0,-0.6716964,8.537015E-06,0,100.8028,2.800482E-05,0.5,0,0,0,0,0.8028316,0,0,19,0,0,187,2,229
80.35006,0,10.27831,80.35006,0,1,0,0,0,0,-58.33169,0,-6.057931,0,-58.33169,0,-0.2152041,0,0,0,0,0,-13,0,0,-53.32056,0,-113.2442,0,-53.32056,0,1,0,0,0,0,0,-5,0,0,-0.6716964,8.537015E-06,0,100.8028,2.800482E-05,0.5,0,0,0,0,0.8028316,0,0,19,0,0,188,2,229
80.35006,0,10.37156,80.35006,0,1,0,0,0,0,-58.33169,0,-6.057931,0,-58.33169,0,-0.2152041,0,0,0,0,0,-13,0,0,-53.32056,0,-113.2442,0,-53.32056,0,1,0,0,0,0,0,-5,0,0,-0.6716964,8.537015E-06,0,100.8028,2.800482E-05,0.5,0,0,0,0,0.8028316,0,0,19,0,0,189,2,229
80.35006,0,10.46388,80.35006,0,1,0,0,0,0,-58.33169,0,-6.057931,0,-58.33169,0,-0.2152041,0,0,0,0,0,-13,0,0,-53.32056,0,-113.2442,0,-53.32056,0,1,0,0,0,0,0,-5,0,0,-0.6716964,8.537015E-06,0,100.8028,2.800482E-05,0.5,0,0,0,0,0.8028316,0,0,19,0,0,190,2,229
80.35006,0,10.55528,80.35006,0,1,0,0,0,0,-58.33169,0,-6.057931,0,-58.33169,0,-0.2152041,0,0,0,0,0,-13,0,0,-53.32056,0,-113.2442,0,-53.32056,0,1,0,0,0,0,0,-5,0,0,-0.6716964,8.537015E-06,0,100.8028,2.800482E-05,0.5,0,0,0,0,0.8028316,0,0,19,0,0,191,2,229
80.28044,0,10.73534,80.35006,0,1,0,0,0,0,-58.33169,0,-6.087767,0,-58.33169,0,-0.2152041,0,0,0,0,0,-13,0,0,-53.32056,0,-113.2431,0,-53.32056,0,1,0,0,0,0,0,-5,0,0,-0.6717174,0.0001453436,0,100.8028,2.800482E-05,0.5,0,0,0,0,0.8028316,0,0,19,0,0,192,2,229
80.16922,0,10.82384,80.28044,0,1,0,0,0,0,-58.33169,0,-6.135438,0,-58.33169,0,-0.2142792,0,0,0,0,0,-13,0,0,-53.32056,0,-113.2561,0,-53.32056,0,1,0,0,0,0,0,-5,0,0,-0.6714672,-0.001017779,0,100.8028,0.0004767852,0.5,0,0,0,0,0.8028316,0,0,19,0,0,193,2,229
80.06918,0,10.9112,80.16922,0,1,0,0,0,0,-58.33169,0,-6.178373,0,-58.33169,0,-0.2128014,0,0,0,0,0,-13,0,0,-53.32056,0,-113.305,0,-53.32056,0,1,0,0,0,0,0,-5,0,0,-0.6713588,-0.0005260256,0,100.8028,-0.003338723,0.5,0,0,0,0,0.8028316,0,0,19,0,0,194,2,229
80.0375,0,10.99745,80.06918,0,1,0,0,0,0,-58.33169,0,-6.191998,0,-58.33169,0,-0.2114704,0,0,0,0,0,-13,0,0,-53.32056,0,-113.3224,0,-53.32056,0,1,0,0,0,0,0,-5,0,0,-0.6713141,-0.0002487847,0,100.8028,-0.001725574,0.5,0,0,0,0,0.8028316,0,0,19,0,0,195,2,229
80.0308,0,11.16726,80.0375,0,1,0,0,0,0,-58.33169,0,-6.194877,0,-58.33169,0,-0.2110481,0,0,0,0,0,-13,0,0,-53.32056,0,-113.3258,0,-53.32056,0,1,0,0,0,0,0,-5,0,0,-0.6713243,-0.0002614321,0,100.8028,-0.0008161133,0.5,0,0,0,0,0.8028316,0,0,19,0,0,196,2,229
80.06892,0,11.25088,80.0308,0,1,0,0,0,0,-58.33169,0,-6.178453,0,-58.33169,0,-0.2109588,0,0,0,0,0,-13,0,0,-53.32056,0,-113.3864,0,-53.32056,0,1,0,0,0,0,0,-5,0,0,-0.6713294,0.0006069589,0,100.8028,-0.000857602,0.5,0,0,0,0,0.8028316,0,0,19,0,0,197,2,229
80.11272,0,11.33376,80.06892,0,1,0,0,0,0,-58.33169,0,-6.159544,0,-58.33169,0,-0.2114679,0,0,0,0,0,-13,0,0,-53.32056,0,-113.3986,0,-53.32056,0,1,0,0,0,0,0,-5,0,0,-0.6714182,0.0003711279,0,100.8028,0.001991068,0.5,0,0,0,0,0.8028316,0,0,19,0,0,198,2,229
80.16595,0,11.41592,80.11272,0,1,0,0,0,0,-58.33169,0,-6.136554,0,-58.33169,0,-0.2120541,0,0,0,0,0,-13,0,0,-53.32056,0,-113.3811,0,-53.32056,0,1,0,0,0,0,0,-5,0,0,-0.6715184,0.0008719612,0,100.8028,0.001217448,0.5,0,0,0,0,0.8028316,0,0,19,0,0,199,2,229
80.25941,0,11.57801,80.16595,0,1,0,0,0,0,-58.33169,0,-6.096255,0,-58.33169,0,-0.2127668,0,0,0,0,0,-13,0,0,-53.32056,0,-113.3193,0,-53.32056,0,1,0,0,0,0,0,-5,0,0,-0.6718557,0.0004665526,0,100.8028,0.002860382,0.5,0,0,0,0,0.8028316,0,0,19,0,0,200,2,229
80.32912,0,11.65807,80.25941,0,1,0,0,0,0,-58.33169,0,-6.066259,0,-58.33169,0,-0.2140161,0,0,0,0,0,-13,0,0,-53.32056,0,-113.306,0,-53.32056,0,1,0,0,0,0,0,-5,0,0,-0.6717479,0.001402743,0,100.8028,0.001530479,0.5,0,0,0,0,0.8028316,0,0,19,0,0,201,2,229
80.39767,0,11.73749,80.32912,0,1,0,0,0,0,-58.33169,0,-6.036779,0,-58.33169,0,-0.214946,0,0,0,0,0,-13,0,0,-53.32056,0,-113.3095,0,-53.32056,0,1,0,0,0,0,0,-5,0,0,-0.6718145,0.001752815,0,100.8028,0.004601557,0.5,0,0,0,0,0.8028316,0,0,19,0,0,202,2,229
80.49404,0,11.81627,80.39767,0,1,0,0,0,0,-58.33169,0,-5.995305,0,-58.33169,0,-0.2158598,0,0,0,0,0,-13,0,0,-53.32056,0,-113.3191,0,-53.32056,0,1,0,0,0,0,0,-5,0,0,-0.6716145,-0.000805223,0,100.8028,0.005749933,0.5,0,0,0,0,0.8028316,0,0,19,0,0,203,2,229
80.55125,0,11.97192,80.49404,0,1,0,0,0,0,-58.33169,0,-5.970687,0,-58.33169,0,-0.2171455,0,0,0,0,0,-13,0,0,-53.32056,0,-113.3131,0,-53.32056,0,1,0,0,0,0,0,-5,0,0,-0.6716763,-0.001133121,0,100.8028,-0.002641454,0.5,0,0,0,0,0.8028316,0,0,19,0,0,204,2,229
80.60168,0,12.04871,80.55125,0,1,0,0,0,0,-58.33169,0,-5.948994,0,-58.33169,0,-0.2179087,0,0,0,0,0,-13,0,0,-53.32056,0,-113.3145,0,-53.32056,0,1,0,0,0,0,0,-5,0,0,-0.6717554,-0.0007846955,0,100.8028,-0.00371709,0.5,0,0,0,0,0.8028316,0,0,19,0,0,205,2,229
80.65818,0,12.12484,80.60168,0,1,0,0,0,0,-58.33169,0,-5.924677,0,-58.33169,0,-0.2185812,0,0,0,0,0,-13,0,0,-53.32056,0,-113.3101,0,-53.32056,0,1,0,0,0,0,0,-5,0,0,-0.6718709,0.0005339428,0,100.8028,-0.002574115,0.5,0,0,0,0,0.8028316,0,0,19,0,0,206,2,229
80.68104,0,12.20035,80.65818,0,1,0,0,0,0,-58.33169,0,-5.914854,0,-58.33169,0,-0.219335,0,0,0,0,0,-13,0,0,-53.32056,0,-113.3079,0,-53.32056,0,1,0,0,0,0,0,-5,0,0,-0.6718639,0.0006213874,0,100.8028,0.001751546,0.5,0,0,0,0,0.8028316,0,0,19,0,0,207,2,229
80.69221,0,12.3492,80.68104,0,1,0,0,0,0,-58.33169,0,-5.910038,0,-58.33169,0,-0.2196395,0,0,0,0,0,-13,0,0,-53.32056,0,-113.3084,0,-53.32056,0,1,0,0,0,0,0,-5,0,0,-0.6718596,0.0005272045,0,100.8028,0.002038399,0.5,0,0,0,0,0.8028316,0,0,19,0,0,208,2,229
