MagYaw,YawVelocityDegreesPerSecond,YawIntegral,YawProportional,YawDerivativeError,YawControl,YawIntegralGain,YawDerivativeGain,YawProportionalGain,YawAntiWindupGain,XNEDBodyFrame,XVelocityMetersPerSecond,ThetaPitchDegrees,XIntegral,XProportional,XDerivativeError,LongitudeControl,XIntegralGain,XDerivativeGain,XProportionalGain,XAntiWindupGain,LongitudeInnerLoopGain,XLongitudeOuterLoopSetpoint,YNEDBodyFrame,YVelocityMetersPerSecond,PhiRollDegrees,YIntegral,YProportional,YDerivativeError,LateralControl,YIntegralGain,YDerivativeGain,YProportionalGain,YAntiWindupGain,LateralInnerLoopGain,YLateralOuterLoopSetpoint,AltitudeFeetAgl,ZVelocityMetersPerSecond,ZIntegral,ZProportional,ZDerivativeError,MainRotorCollectiveControl,ZIntegralGain,ZDerivativeGain,ZProportionalGain,ZAntiWindupGain,LatitudeDegrees,LongitudeDegrees,Timeouts,UnrecognizedMsgTypes,ChecksumErrors,NumOfBlownFrames,MessageType,NumOfBytesInMsg
155.3284,2.997198,0,0,0,0,0,0,0,0,0,-0.00353651,-1.320044,0,0,0,0,0,0,0,0,0,0,0,0.001986495,-0.1844606,0,0,0,0,0,0,0,0,0,0,0.0927434,-0.0002370309,0,0,0,0,0,0,0,0,0,0,284,0,0,0,2,209

156.0477,8.506649,3.883209,155.3284,2.997198,1,0,0,0,0,0,-0.008798524,-1.344413,0,0,-0.00353651,-0.04071757,0,0,0,0,0,-0.006574371,0,0.003251327,-0.1956017,0,0,0.001986495,0.01748873,0,0,0,0,0,0.005634295,0.09275306,-0.0003938885,0.1000927,100.0927,-0.000777556,1,0,0,0,0,0,0,284,0,0,1,2,209

156.6074,11.13356,0,156.0477,8.506649,1,0,0,0,0,-0.7626219,-0.01080916,-1.361857,0,0,-0.008798524,-0.04116974,0,0,0,0,0,-0.01635646,-0.2346839,0.003307273,-0.2028219,0,0,0.003251327,0.01884376,0,0,0,0,0,0.009221737,0.09282636,0.000162752,0,100.0928,-0.001292112,1,0,0,0,0,0,0,284,0,0,2,2,209

155.608,-19.89658,0,156.6074,11.13356,1,0,0,0,0,-0.7626219,-0.08293899,-1.434032,0,-0.7626219,-0.01080916,-0.03476232,0,0,0,0,0,-0.240492,-0.2346839,-0.09113392,-0.003784836,0,-0.2346839,0.003307273,-0.01150354,0,0,0,0,0,-0.3278604,0.5519041,-2.785504,0,100.0928,0.0005338916,1,0,0,0,0,0,0,284,0,0,3,2,209

151.7922,-42.79035,0,155.608,-19.89658,1,0,0,0,0,-0.4248287,-0.1658437,-0.9377913,0,-0.4248287,-0.08293899,-0.03284298,0,0,0,0,0,-0.2769591,-0.2346839,-0.2074364,0.6131516,0,-0.2346839,-0.09113392,-0.0544584,0,0,0,0,0,-0.595724,1.836778,-4.163387,0,100.5519,-9.137568,1,0,0,0,0,0,0,284,0,0,4,2,209

149.286,-49.92704,0,151.7922,-42.79035,1,0,0,0,0,-0.4135987,-0.1950544,-0.4832885,0,-0.4135987,-0.1658437,-0.01580869,0,0,0,0,0,-0.4278334,-0.2578588,-0.2619003,0.9121714,0,-0.2578588,-0.2074364,-0.1446283,0,0,0,0,0,-0.9588948,2.585384,-4.542511,0,101.8368,-13.65757,1,0,0,0,0,0,0,284,0,0,5,2,209

143.583,-58.70475,0,149.286,-49.92704,1,0,0,0,0,-0.5842203,-0.2336139,0.8126678,0,-0.4135987,-0.1950544,-3.572336E-05,0,0,0,0,0,-0.4821362,-0.4143147,-0.3700706,1.303774,0,-0.2578588,-0.2619003,-0.1863499,0,0,0,0,0,-1.113371,4.20929,-5.033119,0,102.5854,-14.90125,1,0,0,0,0,0,0,284,0,0,6,2,209

140.5433,-60.72297,0,143.583,-58.70475,1,0,0,0,0,-0.5729902,-0.2382302,1.644707,0,-0.5842203,-0.2336139,0.04388967,0,0,0,0,0,-0.6031279,-0.4374895,-0.4157689,1.222472,0,-0.4143147,-0.3700706,-0.2712873,0,0,0,0,0,-1.645002,5.065902,-5.198935,0,104.2093,-16.51064,1,0,0,0,0,0,0,284,0,0,7,2,209

137.4539,-61.67385,0,140.5433,-60.72297,1,0,0,0,0,-0.6453459,-0.2361856,2.579659,0,-0.6453459,-0.2382302,0.06984829,0,0,0,0,0,-0.6293749,-0.3824363,-0.4638596,0.9306833,0,-0.3824363,-0.4157689,-0.2787959,0,0,0,0,0,-1.728806,5.944565,-5.333301,0,105.0659,-17.05458,1,0,0,0,0,0,0,284,0,0,8,2,209

131.2929,-60.77198,0,137.4539,-61.67385,1,0,0,0,0,-0.6341162,-0.1887585,4.750932,0,-0.6341162,-0.2361856,0.0992616,0,0,0,0,0,-0.6223285,-0.405611,-0.5449735,-0.4741043,0,-0.405611,-0.4638596,-0.2602856,0,0,0,0,0,-1.898508,7.755516,-5.545946,0,105.9446,-17.49536,1,0,0,0,0,0,0,284,0,0,9,2,209

128.2881,-59.06227,0,131.2929,-60.77198,1,0,0,0,0,-0.4410343,-0.141094,5.987313,0,-0.6341162,-0.1887585,0.1638379,0,0,0,0,0,-0.5341616,-0.2955048,-0.5816596,-1.644821,0,-0.405611,-0.5449735,-0.152211,0,0,0,0,0,-2.128572,8.684055,-5.63639,0,107.7555,-18.19292,1,0,0,0,0,0,0,284,0,0,10,2,209

122.5708,-53.26234,0,128.2881,-59.06227,1,0,0,0,0,-0.3574486,0.007959679,8.719977,0,-0.4410343,-0.141094,0.197689,0,0,0,0,0,-0.3897527,-0.3737326,-0.6478959,-4.785868,0,-0.2955048,-0.5816596,-0.03952138,0,0,0,0,0,-2.074401,10.58145,-5.799201,0,108.6841,-18.48961,1,0,0,0,0,0,0,284,0,0,11,2,209

119.9019,-49.25588,0,122.5708,-53.26234,1,0,0,0,0,-0.4185743,0.1138879,10.25081,0,-0.4185743,0.007959679,0.273063,0,0,0,0,0,-0.1061709,-0.3418541,-0.6902449,-6.576735,0,-0.3418541,-0.6478959,0.2218292,0,0,0,0,0,-2.328871,11.54868,-5.873017,0,110.5815,-19.0237,1,0,0,0,0,0,0,284,0,0,12,2,209

117.3825,-44.59937,0,119.9019,-49.25588,1,0,0,0,0,-0.4909301,0.2393874,11.92345,0,-0.4909301,0.1138879,0.3156101,0,0,0,0,0,0.06983875,-0.2868011,-0.739683,-8.338956,0,-0.2868011,-0.6902449,0.3870312,0,0,0,0,0,-2.369875,12.52709,-5.941383,0,111.5487,-19.26584,1,0,0,0,0,0,0,284,0,0,13,2,209

112.829,-33.97316,0,117.3825,-44.59937,1,0,0,0,0,-0.4797001,0.5522063,15.76674,0,-0.4909301,0.2393874,0.3602296,0,0,0,0,0,0.3031424,-0.3099761,-0.8691254,-11.53824,0,-0.2868011,-0.739683,0.5362551,0,0,0,0,0,-2.510096,14.51327,-6.059186,0,112.5271,-19.49011,1,0,0,0,0,0,0,284,0,0,14,2,209

108.9171,-22.79256,0,112.829,-33.97316,1,0,0,0,0,-0.7226777,0.9246796,20.53175,0,-0.4797001,0.5522063,0.4612436,0,0,0,0,0,0.8879183,-0.4113784,-1.084254,-13.19245,0,-0.3099761,-0.8691254,0.7937487,0,0,0,0,0,-2.910536,16.52671,-6.132536,0,114.5133,-19.87655,1,0,0,0,0,0,0,284,0,0,15,2,209

107.1918,-17.58129,0,108.9171,-22.79256,1,0,0,0,0,-0.8649826,1.124303,23.29849,0,-0.8649826,0.9246796,0.5896702,0,0,0,0,0,1.468999,-1.492099,-1.236202,-13.43014,0,-1.492099,-1.084254,0.8763946,0,0,0,0,0,-5.219416,17.5386,-6.150012,0,116.5267,-20.11717,1,0,0,0,0,0,0,284,0,0,16,2,209

104.1253,-9.014519,0,107.1918,-17.58129,1,0,0,0,0,-0.1058102,1.513309,29.7422,0,-0.1058102,1.124303,0.6584088,0,0,0,0,0,2.0595,-1.570327,-1.672894,-11.8485,0,-1.570327,-1.236202,0.705395,0,0,0,0,0,-5.762801,19.55805,-6.131061,0,117.5386,-20.1745,1,0,0,0,0,0,0,284,0,0,17,2,209

101.4323,-5.08469,0,104.1253,-9.014519,1,0,0,0,0,-0.3228779,1.896196,37.56022,0,-0.1058102,1.513309,0.8357455,0,0,0,0,0,2.782663,-1.405168,-2.280837,-8.04435,0,-1.570327,-1.672894,0.4459342,0,0,0,0,0,-7.001389,21.5475,-6.018793,0,119.558,-20.11233,1,0,0,0,0,0,0,284,0,0,18,2,209

98.99403,-6.382911,0,101.4323,-5.08469,1,0,0,0,0,-0.3840036,2.214554,46.51488,0,-0.3228779,1.896196,1,0,0,0,0,0,3.431717,-1.373289,-3.062719,-2.907689,0,-1.405168,-2.280837,-0.04084925,0,0,0,0,0,-8.488363,23.43398,-5.789997,0,121.5475,-19.74405,1,0,0,0,0,0,0,284,0,0,19,2,209

96.68395,-11.69313,0,98.99403,-6.382911,1,0,0,0,0,0.204546,2.460499,56.29725,0,0.204546,2.214554,1,0,0,0,0,0,4.17597,-1.607973,-3.975215,2.225611,0,-1.607973,-3.062719,-0.6524926,0,0,0,0,0,-10,25.13259,-5.403857,0,123.434,-18.99351,1,0,0,0,0,0,0,284,0,0,20,2,209

92.28265,-21.97067,0,96.68395,-11.69313,1,0,0,0,0,0.3888044,2.710129,71.73969,0,0.3888044,2.460499,1,0,0,0,0,0,4.686432,-2.665519,-5.412992,6.31303,0,-2.665519,-3.975215,-1,0,0,0,0,0,-10,27.23903,-4.539329,0,125.1326,-17.72681,1,0,0,0,0,0,0,284,0,0,21,2,209

83.57489,-27.00961,0,92.28265,-21.97067,1,0,0,0,0,0.5818872,2.877862,82.27409,0,0.3888044,2.710129,1,0,0,0,0,0,5.150495,-2.555412,-6.321893,2.301649,0,-2.665519,-5.412992,-1,0,0,0,0,0,-10,28.32078,-3.766057,0,127.239,-14.89081,1,0,0,0,0,0,0,284,0,0,22,2,209

305.2575,-29.00592,0,83.57489,-27.00961,1,0,0,0,0,0.6937885,3.018103,86.28342,0,0.5818872,2.877862,1,0,0,0,0,0,5.518111,-3.557905,-7.192841,-147.2184,0,-2.555412,-6.321893,-1,0,0,0,0,0,-10,29.14329,-2.820994,0,128.3208,-12.35417,1,0,0,0,0,0,0,284,0,0,23,2,209

282.05,-20.91569,-5.505898,-54.74246,-29.00592,-1,0,0,0,0,1.048668,3.245454,69.45998,0,1.048668,3.018103,1,0,0,0,0,0,5.913718,-4.458995,-8.351242,-169.9626,0,-4.458995,-7.192841,1,0,0,0,0,0,-10,29.80528,-1.126917,0,129.1433,-9.25399,1,0,0,0,0,0,0,284,0,0,24,2,209

279.0794,2.1046,0,-77.95001,-20.91569,-1,0,0,0,0,1.651899,3.600339,51.88895,0,1.651899,3.245454,1,0,0,0,0,0,6.510698,-4.403941,-9.197769,178.5025,0,-4.403941,-8.351242,1,0,0,0,0,0,-10,29.71526,0.8578371,0,129.8053,-3.696738,1,0,0,0,0,0,0,284,0,0,25,2,209

271.5643,108.002,0,-80.92056,2.1046,-1,0,0,0,0,2.209166,4.010007,38.43761,0,1.651899,3.600339,1,0,0,0,0,0,7.170429,-5.759928,-9.499298,166.9799,0,-4.403941,-9.197769,-1,0,0,0,0,0,-10,29.17564,2.37438,0,129.7153,2.814049,1,0,0,0,0,0,0,284,0,0,26,2,209

271.5643,108.002,0,-88.43567,108.002,-1,0,0,0,0,2.636402,4.010007,38.43761,0,2.209166,4.010007,0.9406812,0,0,0,0,0,8.093053,-6.716071,-9.499298,166.9799,0,-5.759928,-9.499298,-1,0,0,0,0,0,-10,29.17564,2.37438,0,129.1756,7.788915,1,0,0,0,0,0,0,284,0,0,27,2,209

259.0041,214.8237,0,-88.43567,108.002,-1,0,0,0,0,2.636402,4.794856,19.60066,0,2.636402,4.010007,0.9368535,0,0,0,0,0,8.216524,-6.716071,-9.410454,151.3187,0,-6.716071,-9.499298,-1,0,0,0,0,0,-10,28.15596,3.96708,0,129.1756,7.788915,1,0,0,0,0,0,0,284,0,0,28,2,209

245.209,306.5112,0,-100.9959,214.8237,-1,0,0,0,0,2.980051,5.67487,-5.856107,0,2.980051,4.794856,0.3045994,0,0,0,0,0,9.774872,-7.593987,-9.245496,136.3008,0,-7.593987,-9.410454,-1,0,0,0,0,0,-10,26.62116,5.598895,0,128.156,13.01361,1,0,0,0,0,0,0,284,0,0,29,2,209

228.5332,378.7945,0,-114.791,306.5112,-1,0,0,0,0,2.968821,6.601703,-38.76416,0,2.980051,5.67487,-0.4915393,0,0,0,0,0,10,-7.570812,-8.998719,126.3035,0,-7.593987,-9.245496,-1,0,0,0,0,0,-10,24.56035,6.932094,0,126.6212,18.36662,1,0,0,0,0,0,0,284,0,0,30,2,209

185.5042,420.3723,0,-131.4668,378.7945,-1,0,0,0,0,3.713796,6.990601,-72.23321,0,2.968821,6.601703,-1,0,0,0,0,0,10,-9.671432,-8.963039,146.3669,0,-7.570812,-8.998719,-1,0,0,0,0,0,-10,22.20061,7.748643,0,124.5603,22.74004,1,0,0,0,0,0,0,284,0,0,31,2,209

75.90829,436.0117,0,-174.4958,420.3723,-1,0,0,0,0,4.595219,6.590554,-60.84656,0,4.595219,6.990601,-1,0,0,0,0,0,10,-9.813416,-8.951084,-124.5924,0,-9.813416,-8.963039,-1,0,0,0,0,0,-10,19.76963,8.369843,0,122.2006,25.41865,1,0,0,0,0,0,0,284,0,0,32,2,209

50.74755,439.6762,27.04061,75.90829,436.0117,1,0,0,0,0,4.263283,5.858439,-26.29592,0,4.263283,6.590554,-1,0,0,0,0,0,10,-10.69133,-8.742521,-124.1669,0,-10.69133,-8.951084,1,0,0,0,0,0,-10,17.22527,8.944563,0,119.7696,27.45644,1,0,0,0,0,0,0,284,0,0,33,2,209

41.79274,444.1746,4.435999,50.74755,439.6762,1,0,0,0,0,6.319883,5.467988,-7.819525,0,4.263283,5.858439,-1,0,0,0,0,0,10,-11.84451,-8.563258,-130.542,0,-10.69133,-8.742521,1,0,0,0,0,0,-10,15.83581,9.279409,0,117.2253,29.34174,1,0,0,0,0,0,0,284,0,0,34,2,209

19.45719,413.3671,0,41.79274,444.1746,1,0,0,0,0,6.39224,5.228804,28.47799,0,6.319883,5.467988,-0.5524052,0,0,0,0,0,10,-11.89957,-8.288249,-144.4161,0,-11.84451,-8.563258,1,0,0,0,0,0,-10,12.78432,9.92948,0,115.8358,30.44018,1,0,0,0,0,0,0,284,0,0,35,2,209

313.7527,334.2944,0,19.45719,413.3671,1,0,0,0,0,6.542807,5.658948,60.41593,0,6.542807,5.228804,0.5728176,0,0,0,0,0,10,-12.88759,-8.364981,168.0923,0,-12.88759,-8.288249,1,0,0,0,0,0,-10,7.748019,10.8962,0,112.7843,32.57267,1,0,0,0,0,0,0,284,0,0,36,2,209

282.7471,326.2518,-11.5219,-46.24734,334.2944,-1,0,0,0,0,6.826856,5.71055,58.44628,0,6.826856,5.658948,1,0,0,0,0,0,10,-13.96254,-8.465116,143.8697,0,-13.96254,-8.364981,-1,0,0,0,0,0,-10,6.045871,11.1936,0,107.748,35.74389,1,0,0,0,0,0,0,284,0,0,37,2,209

233.1002,321.6779,-9.415957,-77.25287,326.2518,-1,0,0,0,0,7.326447,5.163951,27.43967,0,6.826856,5.71055,1,0,0,0,0,0,10,-14.97374,-8.582747,119.9767,0,-13.96254,-8.465116,-1,0,0,0,0,0,-10,0.633119,12.16783,0,106.0459,36.7195,1,0,0,0,0,0,0,284,0,0,38,2,209

219.724,456.0123,-2.901058,-126.8998,321.6779,-1,0,0,0,0,8.456705,5.362113,9.680999,0,7.326447,5.163951,0.5406298,0,0,0,0,0,10,-15.89223,-8.479615,118.4559,0,-14.97374,-8.582747,-1,0,0,0,0,0,-10,-1.233637,12.01273,0,100.6331,39.91534,1,0,0,0,0,0,0,284,0,0,39,2,209

214.9913,452.1231,0,-140.276,456.0123,-1,0,0,0,0,8.107681,8.777744,-40.39682,0,8.107681,5.362113,-0.009889037,0,0,0,0,0,10,-15.86906,-3.894529,95.28919,0,-15.86906,-8.479615,-1,0,0,0,0,0,-10,4.762332,-18.56134,0,98.76637,39.40656,1,0,0,0,0,0,0,284,0,0,40,2,209

242.7547,399.0365,0,-145.0087,452.1231,-1,0,0,0,0,9.264246,8.451857,-76.80108,0,9.264246,8.777744,-1,0,0,0,0,0,10,-15.75025,-3.518483,48.47523,0,-15.75025,-3.894529,-1,0,0,0,0,0,-10,10.0693,-17.13114,0,104.7623,-60.88862,1,0,0,0,0,0,0,284,0,0,41,2,209

2.180319,370.8967,0,-117.2453,399.0365,-1,0,0,0,0,9.482195,8.10334,-44.86762,0,9.264246,8.451857,-1,0,0,0,0,0,10,-16.87732,-3.171226,-89.57956,0,-15.75025,-3.518483,-1,0,0,0,0,0,-10,17.33751,-15.33691,0,110.0693,-56.19701,1,0,0,0,0,0,0,284,0,0,42,2,209

3.724924,367.42,14.97735,2.180319,370.8967,1,0,0,0,0,11.06014,7.982946,-28.46711,0,9.482195,8.10334,-1,0,0,0,0,0,10,-16.83674,-3.056145,-97.4089,0,-16.87732,-3.171226,1,0,0,0,0,0,-10,19.49226,-14.7555,0,117.3375,-50.3112,1,0,0,0,0,0,0,284,0,0,43,2,209

3.021954,357.4112,0,3.724924,367.42,1,0,0,0,0,11.15495,7.759803,5.495251,0,11.15495,7.982946,-1,0,0,0,0,0,10,-16.93814,-2.799248,-110.5695,0,-16.93814,-3.056145,1,0,0,0,0,0,-10,23.72491,-13.60174,0,119.4923,-48.40395,1,0,0,0,0,0,0,284,0,0,44,2,209

1.141106,350.993,0,3.021954,357.4112,1,0,0,0,0,11.44285,7.70333,22.74358,0,11.44285,7.759803,-0.1396472,0,0,0,0,0,10,-16.92944,-2.716822,-117.2229,0,-16.92944,-2.799248,1,0,0,0,0,0,-10,25.76743,-13.02953,0,123.7249,-44.61914,1,0,0,0,0,0,0,284,0,0,45,2,209

331.8791,315.5126,0,1.141106,350.993,1,0,0,0,0,12.31152,7.593569,70.71831,0,11.44285,7.70333,0.3950511,0,0,0,0,0,10,-16.81933,-2.451903,-158.9229,0,-16.92944,-2.716822,1,0,0,0,0,0,-10,31.46709,-11.51941,0,125.7674,-42.74207,1,0,0,0,0,0,0,284,0,0,46,2,209

232.7867,279.7892,-6.648669,-28.12091,315.5126,-1,0,0,0,0,13.71347,7.368712,69.94941,0,12.31152,7.593569,1,0,0,0,0,0,10,-17.78994,-2.400708,95.05392,0,-16.81933,-2.451903,1,0,0,0,0,0,-10,34.72728,-10.68775,0,131.4671,-37.78829,1,0,0,0,0,0,0,284,0,0,47,2,209

208.8306,242.4451,0,-127.2133,279.7892,-1,0,0,0,0,13.81951,7.049566,45.47778,0,13.81951,7.368712,1,0,0,0,0,0,10,-17.91452,-2.390233,65.23414,0,-17.91452,-2.400708,-1,0,0,0,0,0,-10,37.64396,-9.801531,0,134.7273,-35.0601,1,0,0,0,0,0,0,284,0,0,48,2,209

204.8062,222.839,0,-151.1694,242.4451,-1,0,0,0,0,15.199,6.874297,32.71205,0,15.199,7.049566,1,0,0,0,0,0,10,-18.83879,-2.371611,57.61229,0,-18.83879,-2.390233,-1,0,0,0,0,0,-10,39.03787,-9.294991,0,137.644,-32.15294,1,0,0,0,0,0,0,284,0,0,49,2,209

200.5966,185.1286,0,-155.1938,222.839,-1,0,0,0,0,15.46444,6.569225,7.414923,0,15.199,6.874297,0.7040735,0,0,0,0,0,10,-18.78373,-2.291493,45.40754,0,-18.83879,-2.371611,-1,0,0,0,0,0,-10,41.6527,-8.149848,0,139.0379,-30.49129,1,0,0,0,0,0,0,284,0,0,50,2,209

198.8579,151.3811,0,-159.4034,185.1286,-1,0,0,0,0,15.4869,6.391346,-16.95726,0,15.46444,6.569225,-0.08013738,0,0,0,0,0,10,-18.83008,-2.187201,34.80087,0,-18.78373,-2.291493,-1,0,0,0,0,0,-10,43.95032,-6.934888,0,141.6527,-26.73476,1,0,0,0,0,0,0,284,0,0,51,2,209

198.7785,138.5058,0,-161.1421,151.3811,-1,0,0,0,0,16.76572,6.345108,-28.83279,0,16.76572,6.391346,-0.8356751,0,0,0,0,0,10,-18.77503,-2.133969,29.58504,0,-18.77503,-2.187201,-1,0,0,0,0,0,-10,44.97068,-6.356356,0,143.9503,-22.74921,1,0,0,0,0,0,0,284,0,0,52,2,209

205.2845,111.2029,0,-161.2215,138.5058,-1,0,0,0,0,17.03115,6.238508,-62.3974,0,17.03115,6.345108,-1,0,0,0,0,0,10,-18.71997,-2.023889,9.529449,0,-18.71997,-2.133969,-1,0,0,0,0,0,-10,47.46267,-4.804107,0,144.9707,-20.85139,1,0,0,0,0,0,0,284,0,0,53,2,209

244.4764,93.52018,0,-154.7155,111.2029,-1,0,0,0,0,17.54735,6.170587,-80.5555,0,17.03115,6.238508,-1,0,0,0,0,0,10,-18.89961,-2.005257,-39.76063,0,-18.71997,-2.023889,-1,0,0,0,0,0,-10,48.68951,-3.859463,0,147.4627,-15.75939,1,0,0,0,0,0,0,284,0,0,54,2,209

338.2586,76.43726,0,-115.5236,93.52018,-1,0,0,0,0,18.24002,6.093269,-71.90138,0,17.54735,6.170587,-1,0,0,0,0,0,10,-19.8007,-2.016412,-138.5487,0,-18.89961,-2.005257,1,0,0,0,0,0,-10,49.37088,-2.962056,0,148.6895,-12.66058,1,0,0,0,0,0,0,284,0,0,55,2,209

352.1558,58.54523,0,-21.74142,76.43726,-1,0,0,0,0,18.91561,6.004714,-52.11162,0,18.91561,6.093269,-1,0,0,0,0,0,10,-19.8007,-2.047367,-159.1213,0,-19.8007,-2.016412,1,0,0,0,0,0,-10,50.11681,-2.05835,0,149.3709,-9.716729,1,0,0,0,0,0,0,284,0,0,56,2,209

355.3371,41.22947,0,-7.844238,58.54523,-1,0,0,0,0,19.33699,5.939361,-32.03044,0,19.33699,6.004714,-1,0,0,0,0,0,10,-19.87893,-2.064603,-169.5455,0,-19.87893,-2.047367,1,0,0,0,0,0,-10,50.44357,-1.160654,0,150.1168,-6.752211,1,0,0,0,0,0,0,284,0,0,57,2,209

355.9427,23.0526,0,-4.662872,41.22947,-1,0,0,0,0,19.92899,5.900486,-10.79933,0,19.33699,5.939361,-1,0,0,0,0,0,10,-19.8007,-2.061012,-178.4111,0,-19.87893,-2.064603,1,0,0,0,0,0,-10,50.51335,-0.2244248,0,150.4436,-3.807409,1,0,0,0,0,0,0,284,0,0,58,2,209

355.618,13.75664,-0.02554812,-4.057312,23.0526,-1,0,0,0,0,21.01472,5.889505,0.1621399,0,19.92899,5.900486,-0.6447794,0,0,0,0,0,10,-19.85575,-2.049713,177.1487,0,-19.8007,-2.061012,1,0,0,0,0,0,-10,50.57701,0.2451802,0,150.5134,-0.7362032,1,0,0,0,0,0,0,284,0,0,59,2,209

353.5637,-4.61299,0,-4.38205,13.75664,-1,0,0,0,0,21.01472,5.87112,22.32294,0,21.01472,5.889505,-0.3049737,0,0,0,0,0,10,-19.85575,-2.019362,167.6367,0,-19.85575,-2.049713,-1,0,0,0,0,0,-10,50.36747,1.155092,0,150.577,0.804289,1,0,0,0,0,0,0,284,0,0,60,2,209

348.3163,-20.67487,0,-6.436279,-4.61299,-1,0,0,0,0,21.01472,5.830636,43.69219,0,21.01472,5.87112,0.3820111,0,0,0,0,0,10,-19.85575,-2.002901,155.5999,0,-19.85575,-2.019362,-1,0,0,0,0,0,-10,49.69515,2.026192,0,150.3675,3.789165,1,0,0,0,0,0,0,284,0,0,61,2,209

334.0032,-33.96749,0,-11.68369,-20.67487,-1,0,0,0,0,21.8262,5.748094,62.98773,0,21.01472,5.830636,1,0,0,0,0,0,10,-21.13351,-2.011755,134.8191,0,-19.85575,-2.002901,-1,0,0,0,0,0,-10,48.96246,2.878901,0,149.6952,6.64672,1,0,0,0,0,0,0,284,0,0,62,2,209

285.9957,-44.92461,0,-25.9968,-33.96749,-1,0,0,0,0,22.23635,5.635016,74.36792,0,21.8262,5.748094,1,0,0,0,0,0,10,-21.18856,-2.046172,79.75117,0,-21.13351,-2.011755,-1,0,0,0,0,0,-10,47.81753,3.748926,0,148.9625,9.443948,1,0,0,0,0,0,0,284,0,0,63,2,209

230.5194,-53.959,0,-74.00427,-44.92461,-1,0,0,0,0,22.66118,5.531815,65.33903,0,22.66118,5.635016,1,0,0,0,0,0,10,-20.95388,-2.059969,19.57261,0,-20.95388,-2.046172,-1,0,0,0,0,0,-10,46.19641,4.643079,0,147.8175,12.29798,1,0,0,0,0,0,0,284,0,0,64,2,209

213.8275,-62.16324,0,-129.4806,-53.959,-1,0,0,0,0,23.80803,5.461953,48.41373,0,23.80803,5.531815,1,0,0,0,0,0,10,-21.04081,-2.034187,-2.233546,0,-21.04081,-2.059969,-1,0,0,0,0,0,-10,44.58888,5.502173,0,146.1964,15.23116,1,0,0,0,0,0,0,284,0,0,65,2,209

207.8324,-70.5841,0,-146.1725,-62.16324,-1,0,0,0,0,23.79681,5.394638,29.88697,0,23.80803,5.461953,1,0,0,0,0,0,10,-21.01763,-2.00347,-13.97151,0,-21.04081,-2.034187,-0.7145138,0,0,0,0,0,-10,42.62659,6.368541,0,144.5889,18.04933,1,0,0,0,0,0,0,284,0,0,66,2,209

206.3447,-75.03444,0,-152.1676,-70.5841,-1,0,0,0,0,24.60588,5.368725,20.32816,0,23.79681,5.394638,0.616496,0,0,0,0,0,10,-21.10456,-1.976612,-18.45684,0,-21.01763,-2.00347,0.3653792,0,0,0,0,0,-10,41.45611,6.795593,0,142.6266,20.89136,1,0,0,0,0,0,0,284,0,0,67,2,209

204.977,-84.25158,0,-153.6553,-75.03444,-1,0,0,0,0,24.85126,5.318259,0.8832783,0,24.85126,5.368725,0.3201729,0,0,0,0,0,10,-22.19399,-1.899004,-26.07141,0,-22.19399,-1.976612,0.7780291,0,0,0,0,0,-10,39.07407,7.606616,0,141.4561,22.29226,1,0,0,0,0,0,0,284,0,0,68,2,209

205.2497,-92.60164,0,-155.023,-84.25158,-1,0,0,0,0,24.92706,5.223457,-18.84924,0,24.92706,5.318259,-0.2826184,0,0,0,0,0,10,-21.93613,-1.821493,-32.92278,0,-21.93613,-1.899004,1,0,0,0,0,0,-10,36.61291,8.345441,0,139.0741,24.95275,1,0,0,0,0,0,0,284,0,0,69,2,209

207.371,-101.6879,0,-154.7503,-92.60164,-1,0,0,0,0,24.98819,5.041821,-38.54947,0,24.92706,5.223457,-0.8943263,0,0,0,0,0,10,-21.96801,-1.783575,-40.34579,0,-21.93613,-1.821493,1,0,0,0,0,0,-10,33.70771,9.051188,0,136.6129,27.37638,1,0,0,0,0,0,0,284,0,0,70,2,209

213.2839,-111.0182,0,-152.629,-101.6879,-1,0,0,0,0,26.27976,4.787098,-57.45632,0,24.98819,5.041821,-1,0,0,0,0,0,10,-22.16505,-1.798846,-50.81943,0,-21.96801,-1.783575,1,0,0,0,0,0,-10,30.72234,9.792774,0,133.7077,29.69152,1,0,0,0,0,0,0,284,0,0,71,2,209

234.5552,-119.3432,0,-146.7161,-111.0182,-1,0,0,0,0,27.51366,4.538167,-74.48455,0,27.51366,4.787098,-1,0,0,0,0,0,10,-22.0173,-1.832126,-76.9932,0,-22.0173,-1.798846,1,0,0,0,0,0,-10,27.72291,10.60892,0,130.7223,32.12422,1,0,0,0,0,0,0,284,0,0,72,2,209

340.9166,-124.3708,0,-125.4448,-119.3432,-1,0,0,0,0,27.15341,4.270171,-70.13255,0,27.15341,4.538167,-1,0,0,0,0,0,10,-21.97095,-1.819121,172.4816,0,-21.97095,-1.832126,1,0,0,0,0,0,-10,23.16383,11.90391,0,127.7229,34.80152,1,0,0,0,0,0,0,284,0,0,73,2,209

350.5309,-122.9157,0,-19.08337,-124.3708,-1,0,0,0,0,27.44869,4.267124,-61.94069,0,27.15341,4.270171,-1,0,0,0,0,0,10,-23.06907,-1.785706,161.5221,0,-21.97095,-1.819121,-1,0,0,0,0,0,-10,21.35251,12.32234,0,123.1638,39.0496,1,0,0,0,0,0,0,284,0,0,74,2,209

0.1414337,-117.8477,0,-9.469086,-122.9157,-1,0,0,0,0,28.1854,4.517858,-36.48903,0,27.44869,4.267124,-1,0,0,0,0,0,10,-23.10095,-1.652445,147.5176,0,-23.06907,-1.785706,-1,0,0,0,0,0,-10,15.62711,13.4502,0,121.3525,40.4222,1,0,0,0,0,0,0,284,0,0,75,2,209

1.151775,-113.3587,5.162819,0.1414337,-117.8477,-1,0,0,0,0,28.46704,4.61089,-28.1509,0,28.46704,4.517858,-1,0,0,0,0,0,10,-22.98508,-1.606483,144.8536,0,-22.98508,-1.652445,-1,0,0,0,0,0,-10,13.63559,13.78586,0,115.6271,44.12205,1,0,0,0,0,0,0,284,0,0,76,2,209

1.571585,-98.1553,6.508296,1.151775,-113.3587,-1,0,0,0,0,28.86596,4.832112,-12.257,0,28.86596,4.61089,-1,0,0,0,0,0,10,-23.01696,-1.565302,140.6499,0,-23.01696,-1.606483,-1,0,0,0,0,0,-10,9.277657,14.34299,0,113.6356,45.22313,1,0,0,0,0,0,0,284,0,0,77,2,209

1.142426,-88.03197,7.468475,1.571585,-98.1553,-1,0,0,0,0,29.42427,4.92875,-5.01329,0,28.86596,4.832112,-0.689967,0,0,0,0,0,10,-22.8692,-1.585816,139.0374,0,-23.01696,-1.565302,-1,0,0,0,0,0,-10,6.932433,14.56738,0,109.2777,47.05074,1,0,0,0,0,0,0,284,0,0,78,2,209

359.2191,-64.59273,7.991624,1.142426,-88.03197,-1,0,0,0,0,29.22236,5.043284,7.573084,0,29.42427,4.92875,-0.465412,0,0,0,0,0,10,-24.14696,-1.719026,136.6125,0,-22.8692,-1.585816,-1,0,0,0,0,0,-10,2.216483,14.94719,0,106.9324,47.78685,1,0,0,0,0,0,0,284,0,0,79,2,209

357.7666,-52.12264,8.591315,-0.7808533,-64.59273,-1,0,0,0,0,29.82712,5.057605,12.82664,0,29.82712,5.043284,-0.07523438,0,0,0,0,0,10,-24.32083,-1.826038,135.7289,0,-24.32083,-1.719026,-1,0,0,0,0,0,-10,-0.1090368,15.12057,0,102.2165,49.03275,1,0,0,0,0,0,0,284,0,0,80,2,209

356.1936,207.7254,8.794365,-2.233368,-52.12264,-1,0,0,0,0,29.88825,4.464209,-0.2521701,0,29.88825,5.057605,0.08762599,0,0,0,0,0,10,-24.3527,-0.9260013,121.9804,0,-24.3527,-1.826038,-1,0,0,0,0,0,-10,-1.991438,12.16039,0,99.89096,49.60151,1,0,0,0,0,0,0,284,0,0,81,2,209

356.1936,207.7254,8.998775,-3.806396,207.7254,1,0,0,0,0,31.13337,4.464209,-0.2521701,0,29.88825,4.464209,-0.3178173,0,0,0,0,0,10,-24.22813,-0.9260013,121.9804,0,-24.3527,-0.9260013,-1,0,0,0,0,0,-10,-1.991438,12.16039,0,98.00856,39.89095,1,0,0,0,0,0,0,284,0,0,82,2,209

356.1936,207.7254,5.353611,-3.806396,207.7254,1,0,0,0,0,31.13337,4.464209,-0.2521701,0,31.13337,4.464209,-0.3178173,0,0,0,0,0,10,-24.22813,-0.9260013,121.9804,0,-24.22813,-0.9260013,-1,0,0,0,0,0,-10,-1.991438,12.16039,0,98.00856,39.89095,1,0,0,0,0,0,0,284,0,0,83,2,209

356.1936,207.7254,0,-3.806396,207.7254,1,0,0,0,0,31.13337,4.464209,-0.2521701,0,31.13337,4.464209,-0.3178173,0,0,0,0,0,10,-24.22813,-0.9260013,121.9804,0,-24.22813,-0.9260013,-1,0,0,0,0,0,-10,-1.991438,12.16039,0,98.00856,39.89095,1,0,0,0,0,0,0,284,0,0,84,2,209

356.1936,207.7254,-2.745287,-3.806396,207.7254,1,0,0,0,0,31.13337,4.464209,-0.2521701,0,31.13337,4.464209,-0.3178173,0,0,0,0,0,10,-24.22813,-0.9260013,121.9804,0,-24.22813,-0.9260013,-1,0,0,0,0,0,-10,-1.991438,12.16039,0,98.00856,39.89095,1,0,0,0,0,0,0,284,0,0,85,2,209

356.1936,207.7254,-5.216046,-3.806396,207.7254,1,0,0,0,0,31.13337,4.464209,-0.2521701,0,31.13337,4.464209,-0.3178173,0,0,0,0,0,10,-24.22813,-0.9260013,121.9804,0,-24.22813,-0.9260013,-1,0,0,0,0,0,-10,-1.991438,12.16039,0,98.00856,39.89095,1,0,0,0,0,0,0,284,0,0,86,2,209

356.1936,207.7254,-7.439729,-3.806396,207.7254,1,0,0,0,0,31.13337,4.464209,-0.2521701,0,31.13337,4.464209,-0.3178173,0,0,0,0,0,10,-24.22813,-0.9260013,121.9804,0,-24.22813,-0.9260013,-1,0,0,0,0,0,-10,-1.991438,12.16039,0,98.00856,39.89095,1,0,0,0,0,0,0,284,0,0,87,2,209

356.1936,207.7254,-11.24223,-3.806396,207.7254,1,0,0,0,0,31.13337,4.464209,-0.2521701,0,31.13337,4.464209,-0.3178173,0,0,0,0,0,10,-24.22813,-0.9260013,121.9804,0,-24.22813,-0.9260013,-1,0,0,0,0,0,-10,-1.991438,12.16039,0,98.00856,39.89095,1,0,0,0,0,0,0,284,0,0,88,2,209

356.1936,207.7254,-12.86329,-3.806396,207.7254,1,0,0,0,0,31.13337,4.464209,-0.2521701,0,31.13337,4.464209,-0.3178173,0,0,0,0,0,10,-24.22813,-0.9260013,121.9804,0,-24.22813,-0.9260013,-1,0,0,0,0,0,-10,-1.991438,12.16039,0,98.00856,39.89095,1,0,0,0,0,0,0,284,0,0,89,2,209

356.1936,207.7254,-14.32225,-3.806396,207.7254,1,0,0,0,0,31.13337,4.464209,-0.2521701,0,31.13337,4.464209,-0.3178173,0,0,0,0,0,10,-24.22813,-0.9260013,121.9804,0,-24.22813,-0.9260013,-1,0,0,0,0,0,-10,-1.991438,12.16039,0,98.00856,39.89095,1,0,0,0,0,0,0,284,0,0,90,2,209

356.1936,207.7254,-15.63531,-3.806396,207.7254,1,0,0,0,0,31.13337,4.464209,-0.2521701,0,31.13337,4.464209,-0.3178173,0,0,0,0,0,10,-24.22813,-0.9260013,121.9804,0,-24.22813,-0.9260013,-1,0,0,0,0,0,-10,-1.991438,12.16039,0,98.00856,39.89095,1,0,0,0,0,0,0,284,0,0,91,2,209

356.1936,207.7254,-17.88064,-3.806396,207.7254,1,0,0,0,0,31.13337,4.464209,-0.2521701,0,31.13337,4.464209,-0.3178173,0,0,0,0,0,10,-24.22813,-0.9260013,121.9804,0,-24.22813,-0.9260013,-1,0,0,0,0,0,-10,-1.991438,12.16039,0,98.00856,39.89095,1,0,0,0,0,0,0,284,0,0,92,2,209

356.1936,207.7254,-18.83787,-3.806396,207.7254,1,0,0,0,0,31.13337,4.464209,-0.2521701,0,31.13337,4.464209,-0.3178173,0,0,0,0,0,10,-24.22813,-0.9260013,121.9804,0,-24.22813,-0.9260013,-1,0,0,0,0,0,-10,-1.991438,12.16039,0,98.00856,39.89095,1,0,0,0,0,0,0,284,0,0,93,2,209

356.1936,207.7254,-19.69937,-3.806396,207.7254,1,0,0,0,0,31.13337,4.464209,-0.2521701,0,31.13337,4.464209,-0.3178173,0,0,0,0,0,10,-24.22813,-0.9260013,121.9804,0,-24.22813,-0.9260013,-1,0,0,0,0,0,-10,-1.991438,12.16039,0,98.00856,39.89095,1,0,0,0,0,0,0,284,0,0,94,2,209

356.1936,207.7254,-20.47472,-3.806396,207.7254,1,0,0,0,0,31.13337,4.464209,-0.2521701,0,31.13337,4.464209,-0.3178173,0,0,0,0,0,10,-24.22813,-0.9260013,121.9804,0,-24.22813,-0.9260013,-1,0,0,0,0,0,-10,-1.991438,12.16039,0,98.00856,39.89095,1,0,0,0,0,0,0,284,0,0,95,2,209

356.1936,207.7254,-21.80056,-3.806396,207.7254,1,0,0,0,0,31.13337,4.464209,-0.2521701,0,31.13337,4.464209,-0.3178173,0,0,0,0,0,10,-24.22813,-0.9260013,121.9804,0,-24.22813,-0.9260013,-1,0,0,0,0,0,-10,-1.991438,12.16039,0,98.00856,39.89095,1,0,0,0,0,0,0,284,0,0,96,2,209

356.1936,207.7254,-22.36579,-3.806396,207.7254,1,0,0,0,0,31.13337,4.464209,-0.2521701,0,31.13337,4.464209,-0.3178173,0,0,0,0,0,10,-24.22813,-0.9260013,121.9804,0,-24.22813,-0.9260013,-1,0,0,0,0,0,-10,-1.991438,12.16039,0,98.00856,39.89095,1,0,0,0,0,0,0,284,0,0,97,2,209

356.1936,207.7254,-22.8745,-3.806396,207.7254,1,0,0,0,0,31.13337,4.464209,-0.2521701,0,31.13337,4.464209,-0.3178173,0,0,0,0,0,10,-24.22813,-0.9260013,121.9804,0,-24.22813,-0.9260013,-1,0,0,0,0,0,-10,-1.991438,12.16039,0,98.00856,39.89095,1,0,0,0,0,0,0,284,0,0,98,2,209

356.1936,207.7254,-23.33234,-3.806396,207.7254,1,0,0,0,0,31.13337,4.464209,-0.2521701,0,31.13337,4.464209,-0.3178173,0,0,0,0,0,10,-24.22813,-0.9260013,121.9804,0,-24.22813,-0.9260013,-1,0,0,0,0,0,-10,-1.991438,12.16039,0,98.00856,39.89095,1,0,0,0,0,0,0,284,0,0,99,2,209

356.1936,207.7254,-24.11524,-3.806396,207.7254,1,0,0,0,0,31.13337,4.464209,-0.2521701,0,31.13337,4.464209,-0.3178173,0,0,0,0,0,10,-24.22813,-0.9260013,121.9804,0,-24.22813,-0.9260013,-1,0,0,0,0,0,-10,-1.991438,12.16039,0,98.00856,39.89095,1,0,0,0,0,0,0,284,0,0,100,2,209

356.1936,207.7254,-24.449,-3.806396,207.7254,1,0,0,0,0,31.13337,4.464209,-0.2521701,0,31.13337,4.464209,-0.3178173,0,0,0,0,0,10,-24.22813,-0.9260013,121.9804,0,-24.22813,-0.9260013,-1,0,0,0,0,0,-10,-1.991438,12.16039,0,98.00856,39.89095,1,0,0,0,0,0,0,284,0,0,101,2,209

356.1936,207.7254,-24.74939,-3.806396,207.7254,1,0,0,0,0,31.13337,4.464209,-0.2521701,0,31.13337,4.464209,-0.3178173,0,0,0,0,0,10,-24.22813,-0.9260013,121.9804,0,-24.22813,-0.9260013,-1,0,0,0,0,0,-10,-1.991438,12.16039,0,98.00856,39.89095,1,0,0,0,0,0,0,284,0,0,102,2,209

356.1936,207.7254,-25.01973,-3.806396,207.7254,1,0,0,0,0,31.13337,4.464209,-0.2521701,0,31.13337,4.464209,-0.3178173,0,0,0,0,0,10,-24.22813,-0.9260013,121.9804,0,-24.22813,-0.9260013,-1,0,0,0,0,0,-10,-1.991438,12.1