DateTime,MagYaw,YawVelocityDegreesPerSecond,YawIntegral,YawProportional,YawDerivativeError,YawControl,YawIntegralGain,YawDerivativeGain,YawProportionalGain,YawAntiWindupGain,XNEDBodyFrame,XVelocityMetersPerSecond,ThetaPitchDegrees,XIntegral,XProportional,XDerivativeError,LongitudeControl,XIntegralGain,XDerivativeGain,XProportionalGain,XAntiWindupGain,LongitudeInnerLoopGain,XLongitudeOuterLoopSetpoint,PitchAngularVelocityRadsPerSecond,PitchAngularVelocityGain,YNEDBodyFrame,YVelocityMetersPerSecond,PhiRollDegrees,YIntegral,YProportional,YDerivativeError,LateralControl,YIntegralGain,YDerivativeGain,YProportionalGain,YAntiWindupGain,LateralInnerLoopGain,YLateralOuterLoopSetpoint,RollAngularVelocityRadsPerSecond,RollAngularVelocityGain,AltitudeFeetAgl,ZVelocityMetersPerSecond,ZIntegral,ZProportional,ZDerivativeError,MainRotorCollectiveControl,ZIntegralGain,ZDerivativeGain,ZProportionalGain,ZAntiWindupGain,ZNEDBodyFrame,LatitudeDegrees,LongitudeDegrees,Timeouts,UnrecognizedMsgTypes,ChecksumErrors,NumOfBlownFrames,MessageType,NumOfBytesInMsg
11.49.07.425111, 41.69011,26.57344,0,0,0,0,0,0,0,0,0,-0.03536507,-0.3649854,0,0,0,0,0,0,0,0,0,0,0,0,0,0.008574985,0.8754089,0,0,0,0,0,0,0,0,0,0,0,0,0.09267539,5.350001E-05,0,0,0,0,0,0,0,0,0,0,0,19,0,0,0,2,229
11.49.07.458113, 44.73555,27.14901,0.1042253,41.69011,26.57344,0.9184588,0,0,0,0,0,-0.03525479,-0.4206397,0,0,-0.03536507,0.009276493,0,0,0,0,0,-0.06574367,0,0,0,0.008229061,0.883214,0,0,0.008574985,-0.07830007,0,0,0,0,0,0.02432123,0,0,0.09268458,-0.0001292277,0.09999999,100,0.0001755014,0.5,0,0,0,0,0,0,0,19,0,0,1,2,229
11.49.07.493115, 49.55401,28.5696,0.2160642,44.73555,27.14901,1,0,0,0,0,-0.4248289,-0.03518491,-0.5089049,0,0,-0.03525479,0.01100813,0,0,0,0,0,-0.06553865,0,0,-0.2346839,0.007735047,0.8882388,0,0,0.008229061,-0.07910839,0,0,0,0,0,0.02334009,0,0,0.09270006,0.0004444291,0,100,-0.0004239184,0.5,0,0,0,0,-1.067447,0,0,19,0,0,2,2,229
11.49.07.526117, 52.52481,29.3448,0.3390741,49.55401,28.5696,1,0,0,0,0,-0.4248289,-0.03517558,-0.5643793,0,-0.4248289,-0.03518491,0.00994234,0,0,0,0,0,-0.1881843,0,0,-0.2346839,0.007488664,0.8893228,0,-0.2346839,0.007735047,-0.1107257,0,0,0,0,0,-0.3153019,0,0,0.09269159,0.0001589443,0,98.93256,0.001457905,0.5,0,0,0,0,-1.067447,0,0,19,0,0,3,2,229
11.49.07.558119, 56.69307,30.24679,0.593816,52.52481,29.3448,1,0,0,0,0,-0.4248289,-0.03502612,-0.6423057,0,-0.4248289,-0.03517558,0.01166258,0,0,0,0,0,-0.1881669,0,0,-0.2346839,0.007086037,0.8888258,0,-0.2346839,0.007488664,-0.1108898,0,0,0,0,0,-0.3160007,0,0,0.09272717,0.000124458,0,98.93256,0.0005214008,0.5,0,0,0,0,-1.067447,0,0,19,0,0,4,2,229
11.49.07.589121, 56.69307,30.24679,0.7294209,56.69307,30.24679,1,0,0,0,0,-0.4248289,-0.03502612,-0.6423057,0,-0.4248289,-0.03502612,0.01408691,0,0,0,0,0,-0.1878891,0,0,-0.2346839,0.007086037,0.8888258,0,-0.2346839,0.007086037,-0.1109491,0,0,0,0,0,-0.3171427,0,0,0.09272717,0.000124458,0,98.93256,0.0004082721,0.5,0,0,0,0,-1.067447,0,0,20,0,0,5,2,229
11.49.07.620123, 63.15413,31.59961,0.8628848,56.69307,30.24679,1,0,0,0,0,-0.4248289,-0.034637,-0.759894,0,-0.4248289,-0.03502612,0.01408691,0,0,0,0,0,-0.1878891,0,0,-0.2346839,0.006394749,0.8757584,0,-0.2346839,0.007086037,-0.1109491,0,0,0,0,0,-0.3171427,0,0,0.09269569,2.700601E-05,0,98.93256,0.0004082721,0.5,0,0,0,0,-1.067447,0,0,20,0,0,6,2,229
11.49.07.657125, 63.31242,-5.117357,1.011167,63.15413,31.59961,1,0,0,0,0,-0.4248289,-0.1844849,-0.7289717,0,-0.4248289,-0.034637,0.01775458,0,0,0,0,0,-0.1871657,0,0,-0.2346839,0.06518159,1.058594,0,-0.2346839,0.006394749,-0.1099273,0,0,0,0,0,-0.3191034,0,0,0.3505342,-1.304682,0,98.93256,8.859051E-05,0.5,0,0,0,0,-1.067447,0,0,20,0,0,7,2,229
11.49.07.766131, 59.81308,-42.48385,1.302246,63.31242,-5.117357,1,0,0,0,0,-0.08703572,-0.3586284,-0.2831012,0,-0.08703572,-0.1844849,0.008160398,0,0,0,0,0,-0.3681107,0,0,-0.2346839,0.1179765,1.334728,0,-0.2346839,0.06518159,-0.1114083,0,0,0,0,0,-0.1523663,0,0,0.9464837,-1.697088,0,98.56391,-4.27988,0.5,0,0,0,0,-1.436088,0,0,20,0,0,8,2,229
11.49.07.860136, 55.57497,-60.70565,1.437147,59.81308,-42.48385,1,0,0,0,0,-0.341243,-0.4559725,0.2016944,0,-0.341243,-0.3586284,-0.01494845,0,0,0,0,0,-0.7653094,0,0,-0.3129119,0.1460744,1.347071,0,-0.3129119,0.1179765,-0.1333784,0,0,0,0,0,-0.1150379,0,0,1.377838,-1.755115,0,98.33098,-5.567129,0.5,0,0,0,0,-1.669023,0,0,20,0,0,9,2,229
11.49.07.963142, 46.96239,-81.749,1.561371,55.57497,-60.70565,1,0,0,0,0,-0.4135989,-0.5810232,1.145172,0,-0.341243,-0.4559725,-0.03558696,0,0,0,0,0,-0.9462721,0,0,-0.2578588,0.1836641,0.9989762,0,-0.3129119,0.1460744,-0.1271821,0,0,0,0,0,-0.03534365,0,0,2.038932,-1.746975,0,98.33098,-5.757479,0.5,0,0,0,0,-2.413492,0,0,20,0,0,10,2,229
11.49.08.065148, 36.79691,-96.34803,1.663907,46.96239,-81.749,1,0,0,0,0,-0.4135989,-0.6753213,2.139349,0,-0.4135989,-0.5810232,-0.07268956,0,0,0,0,0,-1.199652,0,0,-0.2578588,0.2126268,0.1089808,0,-0.2578588,0.1836641,-0.07807054,0,0,0,0,0,0.1503833,0,0,2.663256,-1.697757,0,97.58651,-5.730777,0.5,0,0,0,0,-2.413492,0,0,20,0,0,11,2,229
11.49.08.160153, 25.92476,-106.6042,1.821322,36.79691,-96.34803,1,0,0,0,0,-0.5842204,-0.7455514,2.98446,0,-0.5842204,-0.6753213,-0.1089433,0,0,0,0,0,-1.424262,0,0,-0.4143147,0.2291945,-1.255591,0,-0.4143147,0.2126268,0.01136657,0,0,0,0,0,0.007703185,0,0,3.237007,-1.643224,0,96.752,-5.569324,0.5,0,0,0,0,-3.248004,0,0,20,0,0,12,2,229
11.49.08.262159, 14.48921,-114.5066,1.872726,25.92476,-106.6042,1,0,0,0,0,-0.5006348,-0.7996824,3.545094,0,-0.5006348,-0.7455514,-0.1399688,0,0,0,0,0,-1.530663,0,0,-0.4925426,0.2353174,-2.869822,0,-0.4925426,0.2291945,0.1102042,0,0,0,0,0,-0.05771947,0,0,3.775129,-1.59219,0,96.15042,-5.390434,0.5,0,0,0,0,-3.84958,0,0,20,0,0,13,2,229
11.49.08.360165, 2.37496,-121.5157,1.897205,14.48921,-114.5066,1,0,0,0,0,-0.5729902,-0.844459,3.715058,0,-0.5006348,-0.7996824,-0.160468,0,0,0,0,0,-1.631293,0,0,-0.4374895,0.2350204,-4.39346,0,-0.4925426,0.2353174,0.2603111,0,0,0,0,0,-0.04035312,0,0,4.294497,-1.545174,0,96.15042,-5.223019,0.5,0,0,0,0,-4.594049,0,0,20,0,0,14,2,229
11.49.08.462171, 349.3609,-128.5744,1.893398,2.37496,-121.5157,1,0,0,0,0,-0.6453462,-0.8820423,3.421452,0,-0.5729902,-0.844459,-0.1689655,0,0,0,0,0,-1.735443,0,0,-0.3824363,0.2348801,-5.415709,0,-0.4374895,0.2350204,0.4076866,0,0,0,0,0,0.03791589,0,0,4.807109,-1.500753,0,95.40595,-5.06879,0.5,0,0,0,0,-5.338517,0,0,20,0,0,15,2,229
11.49.08.561176, 336.0021,-135.4189,1.828358,-10.63907,-128.5744,1,0,0,0,0,-0.6453462,-0.9082491,2.714299,0,-0.6453462,-0.8820423,-0.1626779,0,0,0,0,0,-1.826222,0,0,-0.3824363,0.251444,-5.417812,0,-0.3824363,0.2348801,0.5089751,0,0,0,0,0,0.1166293,0,0,5.293131,-1.459939,0,94.66148,-4.923071,0.5,0,0,0,0,-5.338517,0,0,20,0,0,16,2,229
11.49.08.663182, 322.4598,-142.2879,1.764183,-23.99792,-135.4189,1,0,0,0,0,-1.309703,-0.9110386,1.783584,0,-1.309703,-0.9082491,-0.1482184,0,0,0,0,0,-2.066939,0,0,-0.405611,0.2967882,-4.055745,0,-0.405611,0.251444,0.510427,0,0,0,0,0,0.1303076,0,0,5.751455,-1.426148,0,94.05272,-4.789185,0.5,0,0,0,0,-5.947281,0,0,20,0,0,17,2,229
11.49.08.761188, 312.9634,-147.2649,1.669374,-37.54016,-142.2879,0.7394319,0,0,0,0,-1.382059,-0.8903498,1.13965,0,-1.309703,-0.9110386,-0.119527,0,0,0,0,0,-2.072125,0,0,-0.3505578,0.347877,-2.267001,0,-0.405611,0.2967882,0.3969489,0,0,0,0,0,0.2589172,0,0,6.054512,-1.407749,0,94.05272,-4.678335,0.5,0,0,0,0,-6.691751,0,0,20,0,0,18,2,229
11.49.08.863194, 292.9465,-157.5422,1.551783,-47.03659,-147.2649,0.4381581,0,0,0,0,-1.382059,-0.7638773,0.2548061,0,-1.382059,-0.8903498,-0.099021,0,0,0,0,0,-2.054575,0,0,-0.3505578,0.4870598,3.157812,0,-0.3505578,0.347877,0.2529938,0,0,0,0,0,0.482932,0,0,6.650809,-1.378744,0,93.30825,-4.61798,0.5,0,0,0,0,-6.691751,0,0,20,0,0,19,2,229
11.49.08.961199, 282.5386,-151.7073,1.216515,-67.0535,-157.5422,-0.2839265,0,0,0,0,-1.044266,-0.6796151,0.1786846,0,-1.044266,-0.7638773,-0.06430234,0,0,0,0,0,-1.721841,0,0,-0.3505578,0.5381749,6.444904,0,-0.3505578,0.4870598,-0.2097707,0,0,0,0,0,0.877696,0,0,6.957355,-1.367464,0,92.93961,-4.52283,0.5,0,0,0,0,-7.06039,0,0,20,0,0,20,2,229
11.49.09.059205, 263.872,-125.7625,1.022862,-77.46143,-151.7073,-0.6601251,0,0,0,0,-1.116621,-0.4546971,0.7395177,0,-1.116621,-0.6796151,-0.05470857,0,0,0,0,0,-1.586108,0,0,-0.2955048,0.6152135,12.46793,0,-0.2955048,0.5381749,-0.491567,0,0,0,0,0,1.101785,0,0,7.560083,-1.345746,0,92.19514,-4.48583,0.5,0,0,0,0,-7.804859,0,0,20,0,0,21,2,229
11.49.09.162211, 255.3466,-64.7962,0.7825417,-96.12796,-125.7625,-1,0,0,0,0,-1.370829,-0.4264555,0.7874699,0,-1.116621,-0.4546971,-0.05913259,0,0,0,0,0,-1.167985,0,0,-0.3737326,0.6151617,14.96776,0,-0.2955048,0.6152135,-1,0,0,0,0,0,1.32029,0,0,8.0049,-1.35694,0,92.19514,-4.414587,0.5,0,0,0,0,-8.037795,0,0,20,0,0,22,2,229
11.49.09.260216, 253.0784,3.330127,0.5229291,-104.6534,-64.7962,-1,0,0,0,0,-1.443184,-0.4281608,-0.5086334,0,-1.370829,-0.4264555,-0.06126902,0,0,0,0,0,-1.18895,0,0,-0.3186796,0.6042204,14.44704,0,-0.3737326,0.6151617,-1,0,0,0,0,0,1.207729,0,0,8.476457,-1.355014,0,91.9622,-4.451305,0.5,0,0,0,0,-8.782264,0,0,20,0,0,23,2,229
11.49.09.362222, 257.5648,64.08675,0,-106.9216,3.330127,-1,0,0,0,0,-1.51554,-0.4789898,-3.218815,0,-1.51554,-0.4281608,-0.02183633,0,0,0,0,0,-1.233942,0,0,-0.2636263,0.5565646,10.09381,0,-0.2636263,0.6042204,-1,0,0,0,0,0,1.334919,0,0,8.947382,-1.325067,0,90.47327,-4.444987,0.5,0,0,0,0,-9.526732,0,0,20,0,0,24,2,229
11.49.09.461228, 263.1194,89.08436,-0.2463937,-102.4352,64.08675,-1,0,0,0,0,-1.177747,-0.496858,-5.220154,0,-1.177747,-0.4789898,0.06162813,0,0,0,0,0,-1.230811,0,0,-0.2636263,0.4963569,5.397133,0,-0.2636263,0.5565646,-0.8182537,0,0,0,0,0,1.199753,0,0,9.245312,-1.284113,0,90.10463,-4.346749,0.5,0,0,0,0,-9.895372,0,0,20,0,0,25,2,229
11.49.09.563234, 274.7068,120.9526,-0.478276,-96.88065,89.08436,-1,0,0,0,0,-1.350775,-0.5873867,-7.689773,0,-1.177747,-0.496858,0.1226399,0,0,0,0,0,-1.264028,0,0,0.7707446,0.3407077,-3.79506,0,-0.2636263,0.4963569,-0.4018696,0,0,0,0,0,1.028986,0,0,9.673675,-1.213228,0,90.10463,-4.212404,0.5,0,0,0,0,-10.05392,0,0,20,0,0,26,2,229
11.49.09.661239, 289.9765,149.0506,-0.6803124,-85.29321,120.9526,-1,0,0,0,0,-1.604982,-0.7670246,-8.256704,0,-1.350775,-0.5873867,0.1924309,0,0,0,0,0,-1.482326,0,0,0.6925168,0.07471495,-14.88567,0,0.7707446,0.3407077,0.5399452,0,0,0,0,0,2.073909,0,0,10.07642,-1.109833,0,89.94608,-3.979872,0.5,0,0,0,0,-10.28686,0,0,20,0,0,27,2,229
11.49.09.763245, 301.6075,165.7623,-1.010979,-70.02353,149.0506,-1,0,0,0,0,-1.677339,-0.8979196,-6.893576,0,-1.677339,-0.7670246,0.1973759,0,0,0,0,0,-1.91065,0,0,0.7475698,-0.1620036,-22.09228,0,0.7475698,0.07471495,1,0,0,0,0,0,1.286172,0,0,10.31893,-1.019901,0,88.96867,-3.640697,0.5,0,0,0,0,-11.03133,0,0,20,0,0,28,2,229
11.49.09.861251, 325.9711,194.8066,-1.146394,-58.39249,165.7623,-1,0,0,0,0,-1.339546,-1.110679,0.3084001,0,-1.339546,-0.8979196,0.1499536,0,0,0,0,0,-2.056361,0,0,0.7475698,-0.7062825,-30.92301,0,0.7475698,-0.1620036,1,0,0,0,0,0,0.6147671,0,0,10.71481,-0.8081648,0,88.60004,-3.345684,0.5,0,0,0,0,-11.39997,0,0,20,0,0,29,2,229
11.49.09.959256, 338.3961,208.1082,-1.221972,-34.0289,194.8066,-1,0,0,0,0,-1.576666,-1.184556,5.57288,0,-1.339546,-1.110679,-0.0855687,0,0,0,0,0,-2.45188,0,0,-0.2317481,-0.9826199,-31.02089,0,0.7475698,-0.7062825,1,0,0,0,0,0,-0.9289711,0,0,10.8692,-0.6969189,0,88.60004,-2.651104,0.5,0,0,0,0,-11.61725,0,0,20,0,0,30,2,229
11.49.10.062262, 4.923006,232.0702,-1.270715,-21.60388,208.1082,-1,0,0,0,0,-1.493081,-1.298721,16.96582,0,-1.576666,-1.184556,-0.2551494,0,0,0,0,0,-2.657745,0,0,-0.3099761,-1.505015,-22.85734,0,-0.2317481,-0.9826199,1,0,0,0,0,0,-3.120027,0,0,11.09982,-0.4819457,0,88.38275,-2.286173,0.5,0,0,0,0,-12.21882,0,0,20,0,0,31,2,229
11.49.10.160268, 28.9014,250.6215,-1.242862,4.923006,232.0702,-0.766138,0,0,0,0,-1.493081,-1.402791,23.97884,0,-1.493081,-1.298721,-0.614161,0,0,0,0,0,-2.845823,0,0,-0.3099761,-1.850589,-9.383854,0,-0.3099761,-1.505015,1,0,0,0,0,0,-4.714109,0,0,11.22179,-0.3531703,0,87.78117,-1.580975,0.5,0,0,0,0,-12.21882,0,0,20,0,0,32,2,229
11.49.10.262274, 58.27501,271.6138,-1.170609,28.9014,250.6215,-0.2201402,0,0,0,0,-2.677081,-1.583139,25.83393,0,-2.677081,-1.402791,-0.8481696,0,0,0,0,0,-3.381465,0,0,-0.4664316,-2.154757,9.987247,0,-0.4664316,-1.850589,0.4033146,0,0,0,0,0,-5,0,0,11.30684,-0.2148058,0,88.05259,-1.15854,0.5,0,0,0,0,-11.94741,0,0,20,0,0,33,2,229
11.49.10.361279, 87.84061,282.7869,-1.024921,58.27501,271.6138,0.503005,0,0,0,0,-2.339288,-1.910644,19.25204,0,-2.677081,-1.583139,-0.9160705,0,0,0,0,0,-3.716731,0,0,-0.4664316,-2.404664,29.02165,0,-0.4664316,-2.154757,-1,0,0,0,0,0,-5,0,0,11.32875,0.01259876,0,88.05259,-0.7046489,0.5,0,0,0,0,-12.31605,0,0,20,0,0,34,2,229
11.49.10.459285, 113.4377,270.6343,-0.8053194,87.84061,282.7869,1,0,0,0,0,-2.339288,-2.369542,5.720424,0,-2.339288,-1.910644,-0.7278794,0,0,0,0,0,-4.227941,0,0,-0.4664316,-2.715002,41.5826,0,-0.4664316,-2.404664,-1,0,0,0,0,0,-5,0,0,11.22712,0.4510489,0,87.68394,0.04132897,0.5,0,0,0,0,-12.31605,0,0,20,0,0,35,2,229
11.49.10.561291, 134.3871,232.5095,-0.2512099,113.4377,270.6343,1,0,0,0,0,-2.677081,-2.848188,-9.889829,0,-2.677081,-2.369542,-0.3348452,0,0,0,0,0,-5.178655,0,0,-0.4664316,-3.175327,43.62741,0,-0.4664316,-2.715002,-1,0,0,0,0,0,-5,0,0,10.94938,0.9539247,0,88.05259,1.479621,0.5,0,0,0,0,-11.94741,0,0,20,0,0,36,2,229
11.49.10.659296, 145.9615,199.3575,0.0718178,134.3871,232.5095,1,0,0,0,0,-3.506203,-3.116596,-18.79744,0,-3.506203,-2.848188,0.1110344,0,0,0,0,0,-6.308074,0,0,-1.523978,-3.536019,39.54679,0,-1.523978,-3.175327,-1,0,0,0,0,0,-5,0,0,10.66458,1.334353,0,87.97102,3.129255,0.5,0,0,0,0,-12.02899,0,0,20,0,0,37,2,229
11.49.10.762302, 166.379,152.9202,0.4173155,145.9615,199.3575,1,0,0,0,0,-3.096054,-3.617546,-31.73738,0,-3.506203,-3.116596,0.3717022,0,0,0,0,0,-6.807045,0,0,-1.579031,-4.211855,23.92487,0,-1.523978,-3.536019,-1,0,0,0,0,0,-5,0,0,9.922208,1.847,0,87.97102,4.377211,0.5,0,0,0,0,-11.65316,0,0,20,0,0,38,2,229
11.49.10.859308, 184.659,115.6139,0.8088151,166.379,152.9202,1,0,0,0,0,-4.181789,-4.184074,-38.00606,0,-3.096054,-3.617546,0.7476456,0,0,0,0,0,-7.619778,0,0,-1.523978,-4.761857,4.19113,0,-1.579031,-4.211855,-1,0,0,0,0,0,-5,0,0,9.095289,2.068583,0,88.34684,6.058897,0.5,0,0,0,0,-11.29171,0,0,20,0,0,39,2,229
11.49.10.962314, 192.2696,98.14082,-0.08217803,-175.341,115.6139,-1,0,0,0,0,-3.864049,-4.490778,-38.9564,0,-3.864049,-4.184074,0.8995991,0,0,0,0,0,-8.894904,0,0,-2.668455,-4.960127,-5.197236,0,-2.668455,-4.761857,-0.8455839,0,0,0,0,0,-5,0,0,8.682067,2.135922,0,90.35578,6.785781,0.5,0,0,0,0,-9.644219,0,0,20,0,0,40,2,229
11.49.11.060319, 203.2702,64.32143,-0.480217,-167.7304,98.14082,-1,0,0,0,0,-4.201842,-5.120766,-37.97739,0,-4.201842,-4.490778,0.9112051,0,0,0,0,0,-9.562689,0,0,-2.668455,-5.204528,-21.29167,0,-2.668455,-4.960127,0.01814572,0,0,0,0,0,-5,0,0,7.843353,2.28255,0,90.72442,7.006679,0.5,0,0,0,0,-9.275578,0,0,20,0,0,41,2,229
11.49.11.162325, 215.0454,141.0957,-0.8478894,-156.7298,64.32143,-1,0,0,0,0,-4.776757,-6.038253,-31.18601,0,-4.201842,-5.120766,0.8445503,0,0,0,0,0,-10.73384,0,0,-3.647773,-4.905221,-38.67817,0,-2.668455,-5.204528,1,0,0,0,0,0,-5,0,0,6.855449,2.696053,0,90.72442,7.487679,0.5,0,0,0,0,-9.124217,0,0,20,0,0,42,2,229
11.49.11.260331, 222.7078,182.8404,-1.183917,-144.9546,141.0957,-1,0,0,0,0,-5.773049,-6.499804,-23.6973,0,-4.776757,-6.038253,0.5759928,0,0,0,0,0,-12.60559,0,0,-4.548862,-4.737989,-47.43741,0,-3.647773,-4.905221,1,0,0,0,0,0,-5,0,0,6.301511,2.942451,0,90.87579,8.844131,0.5,0,0,0,0,-8.00264,0,0,20,0,0,43,2,229
11.49.11.363337, 236.9529,232.8674,-1.816781,-137.2922,182.8404,-1,0,0,0,0,-6.448636,-7.388312,-1.020424,0,-6.448636,-6.499804,0.3316163,0,0,0,0,0,-13,0,0,-4.548862,-4.453565,-57.4793,0,-4.548862,-4.737989,1,0,0,0,0,0,-5,0,0,5.003337,3.423621,0,92.73464,9.652418,0.5,0,0,0,0,-7.265358,0,0,20,0,0,44,2,229
11.49.11.461342, 247.3303,242.6121,-2.093911,-123.0471,232.8674,-1,0,0,0,0,-7.051867,-7.944673,21.1035,0,-7.051867,-7.388312,-0.3713669,0,0,0,0,0,-13,0,0,-4.603916,-4.222234,-56.11874,0,-4.603916,-4.453565,1,0,0,0,0,0,-5,0,0,3.787187,3.846919,0,94.21639,11.23085,0.5,0,0,0,0,-5.783609,0,0,20,0,0,45,2,229
11.49.11.560348, 264.9616,234.0597,-2.345789,-112.6697,242.6121,-1,0,0,0,0,-7.65269,-8.5937,48.62363,0,-7.051867,-7.944673,-1,0,0,0,0,0,-13,0,0,-5.849795,-3.722742,-41.57574,0,-4.603916,-4.222234,1,0,0,0,0,0,-5,0,0,2.062814,4.336035,0,94.21639,12.61943,0.5,0,0,0,0,-4.977822,0,0,20,0,0,46,2,229
11.49.11.662354, 278.5623,-119.119,-2.553149,-95.03842,234.0597,-1,0,0,0,0,-9.087448,-8.695874,40.21654,0,-7.65269,-8.5937,-1,0,0,0,0,0,-13,0,0,-5.771568,-2.721033,-23.18925,0,-5.849795,-3.722742,1,0,0,0,0,0,-5,0,0,1.00178,1.737135,0,95.02218,14.22393,0.5,0,0,0,0,-2.901684,0,0,20,0,0,47,2,229
11.49.11.760359, 278.312,-107.8316,-2.896845,-81.43771,-119.119,-1,0,0,0,0,-10.08374,-8.953318,22.69776,0,-10.08374,-8.695874,-1,0,0,0,0,0,-13,0,0,-6.672657,-2.451417,-17.53925,0,-6.672657,-2.721033,1,0,0,0,0,0,-5,0,0,0.6968297,1.557421,0,98.21989,5.698497,0.5,0,0,0,0,-1.780106,0,0,20,0,0,48,2,229
11.49.11.862365, 272.9279,-66.37364,-3.065073,-81.68796,-107.8316,-1,0,0,0,0,-10.42154,-8.818539,3.435928,0,-10.42154,-8.953318,-1,0,0,0,0,0,-13,0,0,-6.672657,-2.237569,-3.808805,0,-6.672657,-2.451417,1,0,0,0,0,0,-5,0,0,0.02547248,1.471749,0,98.58853,5.108965,0.5,0,0,0,0,-1.411465,0,0,20,0,0,49,2,229
11.49.11.960371, 267.914,-34.47026,-3.245222,-87.07208,-66.37364,-1,0,0,0,0,-11.35133,-8.142463,-5.368112,0,-10.42154,-8.818539,-0.5095138,0,0,0,0,0,-13,0,0,-6.750886,-1.955,1.839578,0,-6.672657,-2.237569,-0.10959,0,0,0,0,0,-5,0,0,0.2937963,-1.245083,0,98.58853,4.827926,0.5,0,0,0,0,-0.9071198,0,0,20,0,0,50,2,229
11.49.12.062377, 266.1233,-22.27069,-3.435798,-92.08597,-34.47026,-1,0,0,0,0,-11.76148,-7.887882,-8.721465,0,-11.35133,-8.142463,-0.2365885,0,0,0,0,0,-13,0,0,-6.695832,-2.056846,6.161485,0,-6.750886,-1.955,-0.6292412,0,0,0,0,0,-5,0,0,0.6475103,-1.896418,0,99.09288,-4.084371,0.5,0,0,0,0,-1.282948,0,0,20,0,0,51,2,229
11.49.12.160382, 263.9888,2.139582,-3.819246,-93.87671,-22.27069,-1,0,0,0,0,-12.50942,-7.255888,-15.30066,0,-12.50942,-7.887882,-0.1326346,0,0,0,0,0,-13,0,0,-6.640779,-2.414505,15.49318,0,-6.640779,-2.056846,-1,0,0,0,0,0,-5,0,0,1.679155,-2.702798,0,98.70986,-6.221008,0.5,0,0,0,0,-1.290136,0,0,20,0,0,52,2,229
11.49.12.260388, 263.715,12.37701,-4.013371,-96.0112,2.139582,-1,0,0,0,0,-13.58393,-6.940399,-18.37433,0,-13.58393,-7.255888,0.07132038,0,0,0,0,0,-13,0,0,-6.608901,-2.617824,17.92656,0,-6.608901,-2.414505,-1,0,0,0,0,0,-5,0,0,2.286022,-2.944103,0,97.72527,-8.866258,0.5,0,0,0,0,-2.274728,0,0,20,0,0,53,2,229
11.49.12.361394, 264.8757,28.0926,-4.206251,-96.28503,12.37701,-1,0,0,0,0,-14.40182,-6.332471,-23.92064,0,-13.58393,-6.940399,0.1666043,0,0,0,0,0,-13,0,0,-7.689622,-3.055722,17.18272,0,-6.608901,-2.617824,-1,0,0,0,0,0,-5,0,0,3.555996,-3.176112,0,97.72527,-9.657836,0.5,0,0,0,0,-3.702347,0,0,20,0,0,54,2,229
11.49.12.459399, 266.4102,34.51269,-4.39442,-95.12433,28.0926,-1,0,0,0,0,-15.06617,-6.07703,-26.40247,0,-14.40182,-6.332471,0.33854,0,0,0,0,0,-13,0,0,-7.712797,-3.269489,14.43748,0,-7.689622,-3.055722,-1,0,0,0,0,0,-5,0,0,4.202894,-3.152371,0,96.29765,-10.41892,0.5,0,0,0,0,-4.311111,0,0,20,0,0,55,2,229
11.49.12.562405, 271.3179,45.17868,-4.758834,-93.58978,34.51269,-1,0,0,0,0,-15.47632,-5.738719,-30.18966,0,-15.47632,-6.07703,0.4154767,0,0,0,0,0,-13,0,0,-7.657743,-3.64611,5.812859,0,-7.657743,-3.269489,-1,0,0,0,0,0,-5,0,0,5.378531,-2.816887,0,95.31306,-10.34104,0.5,0,0,0,0,-4.68694,0,0,20,0,0,56,2,229
11.49.12.660411, 278.218,54.21387,-4.926238,-88.68207,45.17868,-1,0,0,0,0,-15.85815,-5.583833,-31.98614,0,-15.85815,-5.738719,0.5328794,0,0,0,0,0,-13,0,0,-8.526955,-3.959957,-5.694076,0,-8.526955,-3.64611,-0.994783,0,0,0,0,0,-5,0,0,6.324391,-2.244633,0,93.60684,-9.240516,0.5,0,0,0,0,-6.393156,0,0,20,0,0,57,2,229
11.49.12.762417, 286.3725,62.72309,-5.075801,-81.78198,54.21387,-1,0,0,0,0,-16.93266,-5.555037,-31.25592,0,-15.85815,-5.583833,0.5885704,0,0,0,0,0,-13,0,0,-8.495076,-4.212956,-19.17464,0,-8.526955,-3.959957,0.063855,0,0,0,0,0,-5,0,0,6.995252,-1.476788,0,93.60684,-7.363294,0.5,0,0,0,0,-7.377748,0,0,20,0,0,58,2,229
11.49.12.860422, 290.3949,66.47708,-5.204907,-73.62753,62.72309,-1,0,0,0,0,-17.42399,-5.572958,-29.89066,0,-16.93266,-5.555037,0.5659336,0,0,0,0,0,-13,0,0,-9.552622,-4.308684,-26.06808,0,-8.495076,-4.212956,1,0,0,0,0,0,-5,0,0,7.204552,-1.045452,0,92.62225,-4.844456,0.5,0,0,0,0,-7.827962,0,0,20,0,0,59,2,229
11.49.12.959428, 297.9659,73.87736,-5.443332,-69.6051,66.47708,-1,0,0,0,0,-17.77646,-5.594746,-24.95424,0,-17.77646,-5.572958,0.5236104,0,0,0,0,0,-13,0,0,-9.84236,-4.541791,-39.07338,0,-9.84236,-4.308684,1,0,0,0,0,0,-5,0,0,7.397152,-0.2330098,0,91.84906,-3.429501,0.5,0,0,0,0,-8.150942,0,0,20,0,0,60,2,229
11.49.13.060434, 304.1961,80.77897,-5.542232,-62.03409,73.87736,-1,0,0,0,0,-18.5244,-5.650091,-16.98244,0,-18.5244,-5.594746,0.3705814,0,0,0,0,0,-13,0,0,-9.787306,-4.85419,-45.78925,0,-9.787306,-4.541791,1,0,0,0,0,0,-5,0,0,7.297168,0.5180628,0,91.84187,-0.7643652,0.5,0,0,0,0,-8.158129,0,0,20,0,0,61,2,229
11.49.13.158439, 306.6212,83.25153,-5.626089,-55.80386,80.77897,-1,0,0,0,0,-18.91747,-5.694707,-12.30129,0,-18.5244,-5.650091,0.1234555,0,0,0,0,0,-13,0,0,-10.63334,-4.999969,-46.32533,0,-9.787306,-4.85419,1,0,0,0,0,0,-5,0,0,7.134655,0.8892384,0,91.84187,1.699453,0.5,0,0,0,0,-8.518301,0,0,20,0,0,62,2,229
11.49.13.261445, 310.8155,86.26179,-5.704311,-53.37885,83.25153,-1,0,0,0,0,-19.25526,-5.826127,-1.89769,0,-18.91747,-5.694707,-0.02165993,0,0,0,0,0,-13,0,0,-10.63334,-5.33299,-43.21938,0,-10.63334,-4.999969,1,0,0,0,0,0,-5,0,0,6.616888,1.48721,0,91.4817,2.917058,0.5,0,0,0,0,-8.14966,0,0,20,0,0,63,2,229
11.49.13.359451, 315.0572,86.42034,-5.839346,-49.18448,86.26179,-1,0,0,0,0,-19.85608,-6.062881,9.144337,0,-19.85608,-5.826127,-0.3441716,0,0,0,0,0,-13,0,0,-11.87922,-5.731231,-35.85412,0,-11.87922,-5.33299,1,0,0,0,0,0,-5,0,0,5.939681,1.772441,0,92.65613,4.878644,0.5,0,0,0,0,-7.343874,0,0,20,0,0,64,2,229
11.49.13.461457, 319.1797,85.11348,-5.895659,-44.94281,86.42034,-1,0,0,0,0,-20.53167,-6.343587,17.57547,0,-20.53167,-6.062881,-0.6864744,0,0,0,0,0,-13,0,0,-11.87922,-6.019928,-27.80216,0,-11.87922,-5.731231,1,0,0,0,0,0,-5,0,0,5.387846,1.754907,0,93.39341,5.814314,0.5,0,0,0,0,-6.606593,0,0,20,0,0,65,2,229
11.49.13.560462, 324.7137,83.20458,-5.941888,-40.82025,85.11348,-1,0,0,0,0,-21.44438,-6.71242,25.20249,0,-20.53167,-6.343587,-0.9478396,0,0,0,0,0,-13,0,0,-12.85854,-6.217523,-17.83611,0,-11.87922,-6.019928,1,0,0,0,0,0,-5,0,0,4.879592,1.533056,0,93.39341,5.756796,0.5,0,0,0,0,-6.086591,0,0,20,0,0,66,2,229
11.49.13.662468, 329.6072,82.2619,-5.97456,-35.28632,83.20458,-1,0,0,0,0,-22.01929,-7.014375,29.4445,0,-21.44438,-6.71242,-1,0,0,0,0,0,-13,0,0,-13.83786,-6.260732,-9.881057,0,-12.85854,-6.217523,1,0,0,0,0,0,-5,0,0,4.584066,1.278771,0,93.91341,5.029037,0.5,0,0,0,0,-5.935229,0,0,20,0,0,67,2,229
11.49.13.760474, 341.3407,82.58127,-6.017441,-30.39282,82.2619,-1,0,0,0,0,-22.35708,-7.68576,34.06752,0,-22.35708,-7.014375,-1,0,0,0,0,0,-13,0,0,-13.83786,-6.035544,7.507519,0,-13.83786,-6.260732,0.4490572,0,0,0,0,0,-5,0,0,4.169635,0.7615818,0,94.43341,4.194879,0.5,0,0,0,0,-5.566588,0,0,20,0,0,68,2,229
11.49.13.863480, 351.0508,85.86353,-6.009668,-18.6593,82.58127,-1,0,0,0,0,-23.26979,-8.245899,33.95831,0,-23.26979,-7.68576,-1,0,0,0,0,0,-13,0,0,-14.81718,-5.602805,21.28392,0,-14.81718,-6.035544,-1,0,0,0,0,0,-5,0,0,3.967406,0.4462789,0,94.95341,2.498293,0.5,0,0,0,0,-5.046587,0,0,20,0,0,69,2,229
11.49.13.960485, 357.674,89.68598,-5.979871,-8.949188,85.86353,-1,0,0,0,0,-24.19958,-8.633657,32.05441,0,-23.26979,-8.245899,-1,0,0,0,0,0,-13,0,0,-14.8954,-5.22148,30.34697,0,-14.81718,-5.602805,-1,0,0,0,0,0,-5,0,0,3.86116,0.3354175,0,94.95341,1.463973,0.5,0,0,0,0,-4.542242,0,0,20,0,0,70,2,229
11.49.14.055491, 9.00399,98.44754,-5.935662,-2.325958,89.68598,-1,0,0,0,0,-24.69091,-9.334919,24.3236,0,-24.19958,-8.633657,-1,0,0,0,0,0,-13,0,0,-15.95295,-4.46337,42.04214,0,-14.8954,-5.22148,-1,0,0,0,0,0,-5,0,0,3.667022,0.3642846,0,95.45776,1.100304,0.5,0,0,0,0,-4.992456,0,0,20,0,0,71,2,229
11.49.14.161497, 15.44937,103.1495,-5.796998,9.00399,98.44754,-1,0,0,0,0,-25.77665,-9.82246,16.22102,0,-25.77665,-9.334919,-1,0,0,0,0,0,-13,0,0,-15.8979,-3.88635,42.62354,0,-15.8979,-4.46337,-1,0,0,0,0,0,-5,0,0,3.501645,0.4333778,0,95.369,1.194999,0.5,0,0,0,0,-4.631003,0,0,20,0,0,72,2,229
11.49.14.259502, 21.44057,113.3824,-5.713704,15.44937,103.1495,-1,0,0,0,0,-26.94356,-10.28342,6.2343,0,-26.94356,-9.82246,-0.9058515,0,0,0,0,0,-13,0,0,-16.95544,-3.297873,38.12129,0,-16.95544,-3.88635,-1,0,0,0,0,0,-5,0,0,3.335642,0.358023,0,95.65607,1.421653,0.5,0,0,0,0,-4.343937,0,0,20,0,0,73,2,229
11.49.14.361508, 25.7715,122.6375,-5.617534,21.44057,113.3824,-1,0,0,0,0,-28.35586,-10.53774,-1.277897,0,-26.94356,-10.28342,-0.5962633,0,0,0,0,0,-13,0,0,-16.92356,-2.868248,33.12433,0,-16.95544,-3.297873,-1,0,0,0,0,0,-5,0,0,3.26671,0.1329247,0,95.65607,1.174459,0.5,0,0,0,0,-4.959891,0,0,20,0,0,74,2,229
11.49.14.460514, 37.53838,141.0675,-5.512775,25.7715,122.6375,-1,0,0,0,0,-29.03145,-10.78497,-18.10654,0,-28.35586,-10.53774,-0.3633852,0,0,0,0,0,-13,0,0,-16.92356,-1.740087,18.62208,0,-16.92356,-2.868248,-1,0,0,0,0,0,-5,0,0,3.398753,-0.8616717,0,95.04011,0.4360462,0.5,0,0,0,0,-4.22261,0,0,20,0,0,75,2,229
11.49.14.562520, 51.29888,154.0197,-5.252227,37.53838,141.0675,-1,0,0,0,0,-30.18954,-10.55187,-30.27755,0,-30.18954,-10.78497,0.1583028,0,0,0,0,0,-13,0,0,-16.81346,-0.621524,2.967182,0,-16.81346,-1.740087,-1,0,0,0,0,0,-5,0,0,3.869756,-1.945008,0,95.39438,-2.826628,0.5,0,0,0,0,-4.605625,0,0,20,0,0,76,2,229
11.49.14.660525, 79.76972,170.4181,-5.090736,51.29888,154.0197,-1,0,0,0,0,-30.85389,-9.550217,-39.53201,0,-30.85389,-10.55187,0.535604,0,0,0,0,0,-13,0,0,-16.83663,1.144683,-26.67574,0,-16.83663,-0.621524,-0.7329807,0,0,0,0,0,-5,0,0,5.029294,-3.27466,0,94.78561,-6.380404,0.5,0,0,0,0,-5.214388,0,0,20,0,0,77,2,229
11.49.14.760531, 108.8131,185.5172,-4.862441,79.76972,170.4181,-1,0,0,0,0,-32.26619,-8.134243,-34.25286,0,-30.85389,-9.550217,0.8224921,0,0,0,0,0,-13,0,0,-16.80475,2.886821,-56.4902,0,-16.83663,1.144683,1,0,0,0,0,0,-5,0,0,6.439609,-3.828432,0,94.78561,-10.74219,0.5,0,0,0,0,-5.830341,0,0,20,0,0,78,2,229
11.49.14.861537, 124.3998,196.7137,-4.569351,108.8131,185.5172,-1,0,0,0,0,-33.10117,-7.053856,-22.11901,0,-32.26619,-8.134243,0.6588386,0,0,0,0,0,-13,0,0,-16.98438,4.168674,-73.11617,0,-16.80475,2.886821,1,0,0,0,0,0,-5,0,0,7.522515,-3.654586,0,94.16966,-12.55879,0.5,0,0,0,0,-7.273617,0,0,20,0,0,79,2,229
11.49.14.960542, 132.1497,203.6299,-3.928631,124.3998,196.7137,-1,0,0,0,0,-33.83788,-6.55672,-10.31135,0,-33.83788,-7.053856,0.2826892,0,0,0,0,0,-13,0,0,-16.95251,4.84322,-80.54831,0,-16.95251,4.168674,1,0,0,0,0,0,-5,0,0,8.242697,-3.243338,0,91.37315,-11.9885,0.5,0,0,0,0,-8.626849,0,0,20,0,0,80,2,229
11.49.15.061548, 138.3822,211.9964,-3.595218,132.1497,203.6299,-0.8157681,0,0,0,0,-34.24803,-6.162629,5.006974,0,-34.24803,-6.55672,-0.08334801,0,0,0,0,0,-13,0,0,-16.89745,5.487522,-83.76067,0,-16.89745,4.84322,1,0,0,0,0,0,-5,0,0,8.933834,-2.630114,0,90.99732,-10.63945,0.5,0,0,0,0,-9.002677,0,0,20,0,0,81,2,229
11.49.15.160554, 143.8369,218.6771,-3.249263,138.3822,211.9964,-0.3407843,0,0,0,0,-35.08542,-5.992841,22.67218,0,-34.24803,-6.162629,-0.5582162,0,0,0,0,0,-13,0,0,-15.88626,5.901609,-82.87218,0,-16.89745,5.487522,1,0,0,0,0,0,-5,0,0,9.493575,-1.897575,0,90.99732,-8.627825,0.5,0,0,0,0,-9.76999,0,0,20,0,0,82,2,229
11.49.15.262560, 158.6788,224.748,-2.88967,143.8369,218.6771,0.1306678,0,0,0,0,-35.49557,-5.770351,56.86599,0,-35.08542,-5.992841,-1,0,0,0,0,0,-13,0,0,-15.8312,6.312215,-68.37563,0,-15.88626,5.901609,1,0,0,0,0,0,-5,0,0,10.03986,-0.6044573,0,90.23001,-6.224807,0.5,0,0,0,0,-10.14582,0,0,20,0,0,83,2,229
11.49.15.360565, 217.9999,224.5041,-2.096276,158.6788,224.748,1,0,0,0,0,-36.17701,-5.341529,76.19777,0,-36.17701,-5.770351,-1,0,0,0,0,0,-13,0,0,-14.95329,6.767692,-6.849134,0,-14.95329,6.312215,1,0,0,0,0,0,-3.584539,0,0,10.0438,0.3165954,0,89.22976,-1.982862,0.5,0,0,0,0,-10.77024,0,0,20,0,0,84,2,229
11.49.15.462571, 282.9488,224.1073,-2.45336,-142.0001,224.5041,-1,0,0,0,0,-37.09798,-4.669309,64.22227,0,-37.09798,-5.341529,-1,0,0,0,0,0,-13,0,0,-13.86386,7.415204,63.18881,0,-13.86386,6.767692,0.5632206,0,0,0,0,0,-0.7271709,0,0,9.788672,1.025115,0,89.06403,1.03856,0.5,0,0,0,0,-10.93598,0,0,20,0,0,85,2,229
11.49.15.561577, 296.3729,224.5649,-2.608957,-77.05118,224.1073,-1,0,0,0,0,-37.50813,-3.794976,41.87445,0,-37.09798,-4.669309,-1,0,0,0,0,0,-13,0,0,-13.80881,8.093208,83.17267,0,-13.86386,7.415204,-1,0,0,0,0,0,1.109367,0,0,9.274776,1.840384,0,89.06403,3.362787,0.5,0,0,0,0,-11.31181,0,0,20,0,0,86,2,229
11.49.15.660582, 298.5015,226.726,-2.741429,-63.62708,224.5649,-1,0,0,0,0,-37.55353,-3.404127,30.2641,0,-37.50813,-3.794976,-1,0,0,0,0,0,-13,0,0,-11.98346,8.359819,88.42329,0,-13.80881,8.093208,-1,0,0,0,0,0,3.111502,0,0,8.909945,2.322539,0,88.68819,6.037195,0.5,0,0,0,0,-9.997073,0,0,20,0,0,87,2,229
11.49.15.761588, 299.6445,232.1299,-2.9972,-61.4985,226.726,-1,0,0,0,0,-37.89133,-2.827307,4.338924,0,-37.89133,-3.404127,-1,0,0,0,0,0,-13,0,0,-11.98346,8.761889,94.37576,0,-11.98346,8.359819,-1,0,0,0,0,0,5,0,0,7.823587,3.40782,0,90.37157,7.618856,0.5,0,0,0,0,-9.628432,0,0,20,0,0,88,2,229
11.49.15.859594, 299.1983,237.2451,-3.120526,-60.35547,232.1299,-1,0,0,0,0,-38.04967,-2.630624,-9.358065,0,-38.04967,-2.827307,-0.5375066,0,0,0,0,0,-13,0,0,-10.65935,8.884528,94.50277,0,-10.65935,8.761889,-1,0,0,0,0,0,5,0,0,7.10271,3.981158,0,90.90464,11.17901,0.5,0,0,0,0,-9.095362,0,0,20,0,0,89,2,229
11.49.15.961600, 296.6469,253.0994,-3.244036,-60.80173,237.2451,-1,0,0,0,0,-38.31511,-2.26185,-40.0217,0,-38.04967,-2.630624,-0.1129,0,0,0,0,0,-13,0,0,-10.7144,9.053388,90.56395,0,-10.65935,8.884528,-1,0,0,0,0,0,5,0,0,5.19669,5.157221,0,90.90464,13.05979,0.5,0,0,0,0,-7.982253,0,0,20,0,0,90,2,229
11.49.16.060605, 289.8224,268.5542,-3.372691,-63.35306,253.0994,-1,0,0,0,0,-39.17495,-1.679206,-71.49445,0,-38.31511,-2.26185,0.8376727,0,0,0,0,0,-13,0,0,-9.656856,9.272441,85.86821,0,-10.7144,9.053388,-1,0,0,0,0,0,5,0,0,2.935914,6.224117,0,92.01775,16.91775,0.5,0,0,0,0,-6.057476,0,0,20,0,0,91,2,229
11.49.16.162611, 125.9972,279.9399,-3.658691,-70.17764,268.5542,-1,0,0,0,0,-39.79768,-0.8820277,-77.85549,0,-39.79768,-1.679206,1,0,0,0,0,0,-13,0,0,-7.619993,9.468031,-117.7505,0,-7.619993,9.272441,-1,0,0,0,0,0,5,0,0,0.559897,7.247258,0,96.08458,20.41759,0.5,0,0,0,0,-3.915422,0,0,20,0,0,92,2,229
11.49.16.260617, 121.6074,281.2984,-3.308613,125.9972,279.9399,-0.5159487,0,0,0,0,-39.34349,-0.904575,-63.12302,0,-39.34349,-0.8820277,1,0,0,0,0,0,-13,0,0,-6.805835,9.284941,-119.5258,0,-6.805835,9.468031,1,0,0,0,0,0,5,0,0,-0.5993027,7.325727,0,98.53526,23.7739,0.5,0,0,0,0,-1.464737,0,0,20,0,0,93,2,229
11.49.16.359622, 121.6074,281.2984,-3.004594,121.6074,281.2984,-0.290757,0,0,0,0,-39.76487,-0.904575,-63.12302,0,-39.34349,-0.904575,1,0,0,0,0,0,-13,0,0,-6.727606,9.284941,-119.5258,0,-6.805835,9.284941,1,0,0,0,0,0,5,0,0,-0.5993027,7.325727,0,98.53526,24.03131,0.5,0,0,0,0,-0.4945183,0,0,20,0,0,94,2,229
11.49.16.461628, 121.6074,281.2984,-2.700576,121.6074,281.2984,0.01326147,0,0,0,0,-39.76487,-0.904575,-63.12302,0,-39.76487,-0.904575,1,0,0,0,0,0,-13,0,0,-6.727606,9.284941,-119.5258,0,-6.727606,9.284941,1,0,0,0,0,0,5,0,0,-0.5993027,7.325727,0,99.50548,24.03131,0.5,0,0,0,0,-0.4945183,0,0,20,0,0,95,2,229
11.49.16.558634, 121.6074,281.2984,-2.092539,121.6074,281.2984,0.6212984,0,0,0,0,-39.76487,-0.904575,-63.12302,0,-39.76487,-0.904575,1,0,0,0,0,0,-13,0,0,-6.727606,9.284941,-119.5258,0,-6.727606,9.284941,1,0,0,0,0,0,5,0,0,-0.5993027,7.325727,0,99.50548,24.03131,0.5,0,0,0,0,-0.4945183,0,0,20,0,0,96,2,229
11.49.16.661640, 121.6074,281.2984,-1.78852,121.6074,281.2984,0.9253168,0,0,0,0,-39.76487,-0.904575,-63.12302,0,-39.76487,-0.904575,1,0,0,0,0,0,-13,0,0,-6.727606,9.284941,-119.5258,0,-6.727606,9.284941,1,0,0,0,0,0,5,0,0,-0.5993027,7.325727,0,99.50548,24.03131,0.5,0,0,0,0,-0.4945183,0,0,20,0,0,97,2,229
11.49.16.759645, 121.6074,281.2984,-1.484502,121.6074,281.2984,1,0,0,0,0,-39.76487,-0.904575,-63.12302,0,-39.76487,-0.904575,1,0,0,0,0,0,-13,0,0,-6.727606,9.284941,-119.5258,0,-6.727606,9.284941,1,0,0,0,0,0,5,0,0,-0.5993027,7.325727,0,99.50548,24.03131,0.5,0,0,0,0,-0.4945183,0,0,20,0,0,98,2,229
11.49.16.861651, 121.6074,281.2984,-1.182777,121.6074,281.2984,1,0,0,0,0,-39.76487,-0.904575,-63.12302,0,-39.76487,-0.904575,1,0,0,0,0,0,-13,0,0,-6.727606,9.284941,-119.5258,0,-6.727606,9.284941,1,0,0,0,0,0,5,0,0,-0.5993027,7.325727,0,99.50548,24.03131,0.5,0,0,0,0,-0.4945183,0,0,20,0,0,99,2,229
11.49.16.959657, 121.6074,281.2984,-0.5883485,121.6074,281.2984,1,0,0,0,0,-39.76487,-0.904575,-63.12302,0,-39.76487,-0.904575,1,0,0,0,0,0,-13,0,0,-6.727606,9.284941,-119.5258,0,-6.727606,9.284941,1,0,0,0,0,0,5,0,0,-0.5993027,7.325727,0,99.50548,24.03131,0.5,0,0,0,0,-0.4945183,0,0,20,0,0,100,2,229
11.49.17.062663, 121.6074,281.2984,-0.295585,121.6074,281.2984,1,0,0,0,0,-39.76487,-0.904575,-63.12302,0,-39.76487,-0.904575,1,0,0,0,0,0,-13,0,0,-6.727606,9.284941,-119.5258,0,-6.727606,9.284941,1,0,0,0,0,0,5,0,0,-0.5993027,7.325727,0,99.50548,24.03131,0.5,0,0,0,0,-0.4945183,0,0,20,0,0,101,2,229
11.49.17.160668, 121.6074,281.2984,0,121.6074,281.2984,1,0,0,0,0,-39.76487,-0.904575,-63.12302,0,-39.76487,-0.904575,1,0,0,0,0,0,-13,0,0,-6.727606,9.284941,-119.5258,0,-6.727606,9.284941,1,0,0,0,0,0,5,0,0,-0.5993027,7.325727,0,99.50548,24.03131,0.5,0,0,0,0,-0.4945183,0,0,20,0,0,102,2,229
11.49.17.260674, 121.6074,281.2984,0.28688,121.6074,281.2984,1,0,0,0,0,-39.76487,-0.904575,-63.12302,0,-39.76487,-0.904575,1,0,0,0,0,0,-13,0,0,-6.727606,9.284941,-119.5258,0,-6.727606,9.284941,1,0,0,0,0,0,5,0,0,-0.5993027,7.325727,0,99.50548,24.03131,0.5,0,0,0,0,-0.4945183,0,0,20,0,0,103,2,229
11.49.17.360680, 121.6074,281.2984,0.8520623,121.6074,281.2984,1,0,0,0,0,-39.76487,-0.904575,-63.12302,0,-39.76487,-0.904575,1,0,0,0,0,0,-13,0,0,-6.727606,9.284941,-119.5258,0,-6.727606,9.284941,1,0,0,0,0,0,5,0,0,-0.5993027,7.325727,0,99.50548,24.03131,0.5,0,0,0,0,-0.4945183,0,0,20,0,0,104,2,229
11.49.17.459685, 121.6074,281.2984,1.130422,121.6074,281.2984,1,0,0,0,0,-39.76487,-0.904575,-63.12302,0,-39.76487,-0.904575,1,0,0,0,0,0,-13,0,0,-6.727606,9.284941,-119.5258,0,-6.727606,9.284941,1,0,0,0,0,0,5,0,0,-0.5993027,7.325727,0,99.50548,24.03131,0.5,0,0,0,0,-0.4945183,0,0,20,0,0,105,2,229
11.49.17.561691, 121.6074,281.2984,1.405998,121.6074,281.2984,1,0,0,0,0,-39.76487,-0.904575,-63.12302,0,-39.76487,-0.904575,1,0,0,0,0,0,-13,0,0,-6.727606,9.284941,-119.5258,0,-6.727606,9.284941,1,0,0,0,0,0,5,0,0,-0.5993027,7.325727,0,99.50548,24.03131,0.5,0,0,0,0,-0.4945183,0,0,20,0,0,106,2,229
11.49.17.659697, 121.6074,281.2984,1.678818,121.6074,281.2984,1,0,0,0,0,-39.76487,-0.904575,-63.12302,0,-39.76487,-0.904575,1,0,0,0,0,0,-13,0,0,-6.727606,9.284941,-119.5258,0,-6.727606,9.284941,1,0,0,0,0,0,5,0,0,-0.5993027,7.325727,0,99.50548,24.03131,0.5,0,0,0,0,-0.4945183,0,0,20,0,0,107,2,229
11.49.17.761703, 121.6074,281.2984,2.2163,121.6074,281.2984,1,0,0,0,0,-39.76487,-0.904575,-63.12302,0,-39.76487,-0.904575,1,0,0,0,0,0,-13,0,0,-6.727606,9.284941,-119.5258,0,-6.727606,9.284941,1,0,0,0,0,0,5,0,0,-0.5993027,7.325727,0,99.50548,24.03131,0.5,0,0,0,0,-0.4945183,0,0,20,0,0,108,2,229
11.49.17.860708, 121.6074,281.2984,2.481017,121.6074,281.2984,1,0,0,0,0,-39.76487,-0.904575,-63.12302,0,-39.76487,-0.904575,1,0,0,0,0,0,-13,0,0,-6.727606,9.284941,-119.5258,0,-6.727606,9.284941,1,0,0,0,0,0,5,0,0,-0.5993027,7.325727,0,99.50548,24.03131,0.5,0,0,0,0,-0.4945183,0,0,20,0,0,109,2,229
11.49.17.962714, 121.6074,281.2984,2.743087,121.6074,281.2984,1,0,0,0,0,-39.76487,-0.904575,-63.12302,0,-39.76487,-0.904575,1,0,0,0,0,0,-13,0,0,-6.727606,9.284941,-119.5258,0,-6.727606,9.284941,1,0,0,0,0,0,5,0,0,-0.5993027,7.325727,0,99.50548,24.03131,0.5,0,0,0,0,-0.4945183,0,0,20,0,0,110,2,229
11.49.18.060720, 121.6074,281.2984,3.002537,121.6074,281.2984,1,0,0,0,0,-39.76487,-0.904575,-63.12302,0,-39.76487,-0.904575,1,0,0,0,0,0,-13,0,0,-6.727606,9.284941,-119.5258,0,-6.727606,9.284941,1,0,0,0,0,0,5,0,0,-0.5993027,7.325727,0,99.50548,24.03131,0.5,0,0,0,0,-0.4945183,0,0,20,0,0,111,2,229
11.49.18.159725, 121.6074,281.2984,3.513678,121.6074,281.2984,1,0,0,0,0,-39.76487,-0.904575,-63.12302,0,-39.76487,-0.904575,1,0,0,0,0,0,-13,0,0,-6.727606,9.284941,-119.5258,0,-6.727606,9.284941,1,0,0,0,0,0,5,0,0,-0.5993027,7.325727,0,99.50548,24.03131,0.5,0,0,0,0,-0.4945183,0,0,20,0,0,112,2,229
11.49.18.261731, 121.6074,281.2984,3.765421,121.6074,281.2984,1,0,0,0,0,-39.76487,-0.904575,-63.12302,0,-39.76487,-0.904575,1,0,0,0,0,0,-13,0,0,-6.727606,9.284941,-119.5258,0,-6.727606,9.284941,1,0,0,0,0,0,5,0,0,-0.5993027,7.325727,0,99.50548,24.03131,0.5,0,0,0,0,-0.4945183,0,0,20,0,0,113,2,229
11.49.18.359737, 121.6074,281.2984,4.014647,121.6074,281.2984,1,0,0,0,0,-39.76487,-0.904575,-63.12302,0,-39.76487,-0.904575,1,0,0,0,0,0,-13,0,0,-6.727606,9.284941,-119.5258,0,-6.727606,9.284941,1,0,0,0,0,0,5,0,0,-0.5993027,7.325727,0,99.50548,24.03131,0.5,0,0,0,0,-0.4945183,0,0,20,0,0,114,2,229
11.49.18.465743, 121.6074,281.2984,4.261381,121.6074,281.2984,1,0,0,0,0,-39.76487,-0.904575,-63.12302,0,-39.76487,-0.904575,1,0,0,0,0,0,-13,0,0,-6.727606,9.284941,-119.5258,0,-6.727606,9.284941,1,0,0,0,0,0,5,0,0,-0.5993027,7.325727,0,99.50548,24.03131,0.5,0,0,0,0,-0.4945183,0,0,20,0,0,115,2,229
11.49.18.559748, 121.6074,281.2984,4.747471,121.6074,281.2984,1,0,0,0,0,-39.76487,-0.904575,-63.12302,0,-39.76487,-0.904575,1,0,0,0,0,0,-13,0,0,-6.727606,9.284941,-119.5258,0,-6.727606,9.284941,1,0,0,0,0,0,5,0,0,-0.5993027,7.325727,0,99.50548,24.03131,0.5,0,0,0,0,-0.4945183,0,0,20,0,0,116,2,229
11.49.18.661754, 121.6074,281.2984,4.986876,121.6074,281.2984,1,0,0,0,0,-39.76487,-0.904575,-63.12302,0,-39.76487,-0.904575,1,0,0,0,0,0,-13,0,0,-6.727606,9.284941,-119.5258,0,-6.727606,9.284941,1,0,0,0,0,0,5,0,0,-0.5993027,7.325727,0,99.50548,24.03131,0.5,0,0,0,0,-0.4945183,0,0,20,0,0,117,2,229
11.49.18.759760, 121.6074,281.2984,5.223888,121.6074,281.2984,1,0,0,0,0,-39.76487,-0.904575,-63.12302,0,-39.76487,-0.904575,1,0,0,0,0,0,-13,0,0,-6.727606,9.284941,-119.5258,0,-6.727606,9.284941,1,0,0,0,0,0,5,0,0,-0.5993027,7.325727,0,99.50548,24.03131,0.5,0,0,0,0,-0.4945183,0,0,20,0,0,118,2,229
11.49.18.859765, 121.6074,281.2984,5.458529,121.6074,281.2984,1,0,0,0,0,-39.76487,-0.904575,-63.12302,0,-39.76487,-0.904575,1,0,0,0,0,0,-13,0,0,-6.727606,9.284941,-119.5258,0,-6.727606,9.284941,1,0,0,0,0,0,5,0,0,-0.5993027,7.325727,0,99.50548,24.03131,0.5,0,0,0,0,-0.4945183,0,0,20,0,0,119,2,229
11.49.18.961771, 121.6074,281.2984,5.920796,121.6074,281.2984,1,0,0,0,0,-39.76487,-0.904575,-63.12302,0,-39.76487,-0.904575,1,0,0,0,0,0,-13,0,0,-6.727606,9.284941,-119.5258,0,-6.727606,9.284941,1,0,0,0,0,0,5,0,0,-0.5993027,7.325727,0,99.50548,24.03131,0.5,0,0,0,0,-0.4945183,0,0,20,0,0,120,2,229
11.49.19.060777, 121.6074,281.2984,6.148468,121.6074,281.2984,1,0,0,0,0,-39.76487,-0.904575,-63.12302,0,-39.76487,-0.904575,1,0,0,0,0,0,-13,0,0,-6.727606,9.284941,-119.5258,0,-6.727606,9.284941,1,0,0,0,0,0,5,0,0,-0.5993027,7.325727,0,99.50548,24.03131,0.5,0,0,0,0,-0.4945183,0,0,20,0,0,121,2,229
11.49.19.158783, 121.6074,281.2984,6.373863,121.6074,281.2984,1,0,0,0,0,-39.76487,-0.904575,-63.12302,0,-39.76487,-0.904575,1,0,0,0,0,0,-13,0,0,-6.727606,9.284941,-119.5258,0,-6.727606,9.284941,1,0,0,0,0,0,5,0,0,-0.5993027,7.325727,0,99.50548,24.03131,0.5,0,0,0,0,-0.4945183,0,0,20,0,0,122,2,229
11.49.19.256788, 0,0,6.597005,121.6074,281.2984,1,0,0,0,0,-39.76487,0,0,0,-39.76487,-0.904575,1,0,0,0,0,0,-13,0,0,-6.727606,0,0,0,-6.727606,9.284941,1,0,0,0,0,0,5,0,0,0,0,0,99.50548,24.03131,0.5,0,0,0,0,-0.4945183,0,0,20,0,0,123,2,229
11.49.19.361794, 152.9032,-38.2101,6.458757,0,0,1,0,0,0,0,-0.762622,0.06990375,1.926225,0,-0.762622,0,-0.3562534,0,0,0,0,0,-0.2203978,0,0,-0.2346839,-0.210286,1.390597,0,-0.2346839,0,-0.46,0,0,0,0,0,-0.3372408,0,0,0.3648265,-1.614987,0,99.30119,0,0.5,0,0,0,0,-0.6988069,0,0,20,0,0,124,2,229
11.49.19.460800, 147.9193,-69.13509,6.786428,152.9032,-38.2101,1,0,0,0,0,-0.4248289,0.1495759,3.826713,0,-0.4248289,0.06990375,-0.05949054,0,0,0,0,0,0.007175535,0,0,-0.2346839,-0.464646,4.76251,0,-0.2346839,-0.210286,-0.2138331,0,0,0,0,0,-0.9336751,0,0,0.8445954,-1.831357,0,98.93256,-5.297805,0.5,0,0,0,0,-1.067447,0,0,20,0,0,125,2,229
11.49.19.562806, 140.2571,-95.80331,7.070755,147.9193,-69.13509,1,0,0,0,0,-0.341243,0.143223,6.248894,0,-0.4248289,0.1495759,-0.1138142,0,0,0,0,0,0.155286,0,0,-0.3129119,-0.6166705,6.765033,0,-0.2346839,-0.464646,-0.5904216,0,0,0,0,0,-1.655116,0,0,1.379722,-1.875819,0,98.93256,-6.007583,0.5,0,0,0,0,-1.669023,0,0,20,0,0,126,2,229
11.49.19.660811, 124.6923,-127.0894,7.334517,140.2571,-95.80331,1,0,0,0,0,-0.7513921,0.1656617,9.846919,0,-0.341243,0.143223,-0.1885191,0,0,0,0,0,0.1676323,0,0,-0.2578588,-0.8967622,5.348049,0,-0.3129119,-0.6166705,-0.8246651,0,0,0,0,0,-2.198717,0,0,2.167421,-1.763529,0,98.33098,-6.153436,0.5,0,0,0,0,-2.044852,0,0,20,0,0,127,2,229
11.49.19.762817, 112.9955,-140.8853,7.783814,124.6923,-127.0894,1,0,0,0,0,-0.4135989,0.208278,11.7142,0,-0.4135989,0.1656617,-0.3024393,0,0,0,0,0,0.188435,0,0,-0.2578588,-1.028602,2.141722,0,-0.2578588,-0.8967622,-0.7601112,0,0,0,0,0,-2.91403,0,0,2.631179,-1.6668,0,97.58651,-5.785081,0.5,0,0,0,0,-2.413492,0,0,20,0,0,128,2,229
11.49.19.860823, 95.37269,-153.8803,7.977546,112.9955,-140.8853,1,0,0,0,0,-0.5842204,0.3199555,12.88935,0,-0.5842204,0.208278,-0.3563713,0,0,0,0,0,0.2183491,0,0,-0.4143147,-1.176334,-5.299033,0,-0.4143147,-1.028602,-0.5202155,0,0,0,0,0,-3.512794,0,0,3.219324,-1.527126,0,96.752,-5.467771,0.5,0,0,0,0,-3.248004,0,0,20,0,0,129,2,229
11.49.19.959828, 78.11351,-162.3809,8.127673,95.37269,-153.8803,1,0,0,0,0,-0.5818139,0.5022361,11.68911,0,-0.5842204,0.3199555,-0.3863652,0,0,0,0,0,0.4259576,0,0,-1.605142,-1.285477,-14.56504,0,-0.4143147,-1.176334,0.1257848,0,0,0,0,0,-3.931807,0,0,3.713308,-1.389301,0,96.752,-5.009583,0.5,0,0,0,0,-3.923966,0,0,20,0,0,130,2,229
11.49.20.066834, 61.02428,-169.8455,8.236622,78.11351,-162.3809,1,0,0,0,0,-0.2440207,0.7570445,7.835325,0,-0.5818139,0.5022361,-0.3386316,0,0,0,0,0,0.7655127,0,0,-1.605142,-1.39069,-23.98869,0,-1.605142,-1.285477,0.8799841,0,0,0,0,0,-5,0,0,4.143434,-1.225625,0,96.07603,-4.557463,0.5,0,0,0,0,-4.292606,0,0,20,0,0,131,2,229
11.49.20.160840, 43.24493,-178.4888,8.376148,61.02428,-169.8455,1,0,0,0,0,-0.3163767,1.047187,1.042954,0,-0.3163767,0.7570445,-0.2014536,0,0,0,0,0,1.315913,0,0,-1.550088,-1.512447,-30.55044,0,-1.550088,-1.39069,1,0,0,0,0,0,-5,0,0,4.530207,-1.035278,0,94.96292,-4.020541,0.5,0,0,0,0,-5.037076,0,0,20,0,0,132,2,229
11.49.20.261846, 25.61112,-187.094,8.402051,43.24493,-178.4888,1,0,0,0,0,-0.7265255,1.333298,-7.349888,0,-0.7265255,1.047187,0.02150784,0,0,0,0,0,1.736755,0,0,-1.495035,-1.624262,-30.44376,0,-1.495035,-1.512447,1,0,0,0,0,0,-5,0,0,4.843404,-0.8543852,0,94.5871,-3.396127,0.5,0,0,0,0,-5.412904,0,0,20,0,0,133,2,229
11.49.20.359851, 7.036074,-196.018,8.387037,25.61112,-187.094,1,0,0,0,0,-0.3887324,1.626366,-15.52537,0,-0.7265255,1.333298,0.2981742,0,0,0,0,0,2.268634,0,0,-1.495035,-1.713141,-23.34702,0,-1.495035,-1.624262,1,0,0,0,0,0,-5,0,0,5.088786,-0.6867284,0,94.5871,-2.802725,0.5,0,0,0,0,-5.781544,0,0,20,0,0,134,2,229
11.49.20.458857, 344.7021,-205.7864,8.329137,7.036074,-196.018,1,0,0,0,0,0.2868538,1.957996,-21.82747,0,-0.3887324,1.626366,0.5715297,0,0,0,0,0,2.91107,0,0,-1.495035,-1.731993,-9.423576,0,-1.495035,-1.713141,1,0,0,0,0,0,-5,0,0,5.300416,-0.5754379,0,94.21845,-2.252744,0.5,0,0,0,0,-6.518825,0,0,20,0,0,135,2,229
11.49.20.559863, 328.9283,-208.6112,8.115366,-15.29791,-205.7864,1,0,0,0,0,0.03264642,2.202031,-23.28051,0,0.03264642,1.957996,0.7920588,0,0,0,0,0,3.649349,0,0,-1.573263,-1.680145,1.979754,0,-1.573263,-1.731993,0.406969,0,0,0,0,0,-5,0,0,5.424271,-0.541437,0,93.24824,-1.887667,0.5,0,0,0,0,-6.75176,0,0,20,0,0,136,2,229
11.49.20.659868, 313.2222,-208.7607,7.972779,-31.07172,-208.6112,1,0,0,0,0,0.03264642,2.473536,-21.94968,0,0.03264642,2.202031,0.8488893,0,0,0,0,0,4.103011,0,0,-1.573263,-1.568799,13.87393,0,-1.573263,-1.680145,-0.6421373,0,0,0,0,0,-5,0,0,5.541077,-0.5135187,0,93.24824,-1.77613,0.5,0,0,0,0,-6.75176,0,0,20,0,0,137,2,229
11.49.20.760874, 285.3896,-199.4611,7.795314,-46.7778,-208.7607,1,0,0,0,0,0.4598818,3.117544,-11.31573,0,0.03264642,2.473536,0.82328,0,0,0,0,0,4.607737,0,0,-2.529406,-1.222817,34.93611,0,-1.573263,-1.568799,-1,0,0,0,0,0,-5,0,0,5.719043,-0.2913311,0,93.24824,-1.684547,0.5,0,0,0,0,-6.360276,0,0,20,0,0,138,2,229
11.49.20.858880, 269.2208,-183.7503,7.552946,-74.61038,-199.4611,1,0,0,0,0,1.207824,3.62265,1.323586,0,0.4598818,3.117544,0.5345688,0,0,0,0,0,5.92842,0,0,-2.584459,-0.9600181,42.93719,0,-2.529406,-1.222817,-1,0,0,0,0,0,-5,0,0,5.76528,-0.03265024,0,93.63972,-0.9556826,0.5,0,0,0,0,-6.353088,0,0,20,0,0,139,2,229
11.49.20.960886, 256.3935,-163.9187,7.007665,-90.77917,-183.7503,1,0,0,0,0,1.88341,4.116222,14.62105,0,1.88341,3.62265,0.1785594,0,0,0,0,0,7.278812,0,0,-2.584459,-0.6863713,43.00207,0,-2.584459,-0.9600181,-1,0,0,0,0,0,-5,0,0,5.689594,0.3436694,0,92.90963,-0.1071058,0.5,0,0,0,0,-7.090369,0,0,20,0,0,140,2,229
11.49.21.059891, 248.9316,-149.5942,6.708395,-103.6065,-163.9187,1,0,0,0,0,2.293559,4.43002,22.81461,0,2.293559,4.116222,-0.1954907,0,0,0,0,0,8.314896,0,0,-2.639513,-0.5102184,39.70948,0,-2.639513,-0.6863713,-1,0,0,0,0,0,-5,0,0,5.564156,0.6084189,0,93.28546,1.127373,0.5,0,0,0,0,-6.71454,0,0,20,0,0,141,2,229
11.49.21.161897, 238.0936,-129.1275,6.395502,-111.0684,-149.5942,1,0,0,0,0,2.293559,4.896353,33.4924,0,2.293559,4.43002,-0.4314073,0,0,0,0,0,8.898247,0,0,-2.639513,-0.2039712,30.72502,0,-2.639513,-0.5102184,-1,0,0,0,0,0,-5,0,0,5.276861,0.9534377,0,93.28546,1.995858,0.5,0,0,0,0,-6.71454,0,0,20,0,0,142,2,229
11.49.21.259903, 223.168,-105.9457,6.059783,-121.9064,-129.1275,1,0,0,0,0,3.295709,5.468674,43.32199,0,2.293559,4.896353,-0.7355445,0,0,0,0,0,9.76516,0,0,-2.616338,0.3143189,13.17401,0,-2.639513,-0.2039712,-1,0,0,0,0,0,-4.371503,0,0,4.791812,1.249244,0,93.28546,3.127657,0.5,0,0,0,0,-6.474417,0,0,20,0,0,143,2,229
11.49.21.358908, 208.3439,-89.46754,5.329807,-136.832,-105.9457,1,0,0,0,0,3.295709,5.910084,47.72295,0,3.295709,5.468674,-0.9983012,0,0,0,0,0,11.11872,0,0,-2.616338,0.9569721,-6.820411,0,-2.616338,0.3143189,-1,0,0,0,0,0,-2.868175,0,0,4.294291,1.407888,0,93.52558,4.098022,0.5,0,0,0,0,-6.474417,0,0,20,0,0,144,2,229
11.49.21.460914, 193.8753,-78.96986,4.934404,-151.6561,-89.46754,1,0,0,0,0,4.116007,6.230608,47.65866,0,4.116007,5.910084,-1,0,0,0,0,0,12.17637,0,0,-2.726444,1.801237,-28.22873,0,-2.726444,0.9569721,0.5167428,0,0,0,0,0,-1.203641,0,0,3.739671,1.547052,0,94.27724,4.618437,0.5,0,0,0,0,-5.722761,0,0,20,0,0,145,2,229
11.49.21.558920, 187.6622,-76.55979,4.509248,-166.1247,-78.96986,1,0,0,0,0,4.950984,6.328354,45.99267,0,4.116007,6.230608,-1,0,0,0,0,0,12.77223,0,0,-2.546813,2.28883,-38.47189,0,-2.726444,1.801237,1,0,0,0,0,0,1.190949,0,0,3.429173,1.660771,0,94.27724,5.07495,0.5,0,0,0,0,-4.279485,0,0,20,0,0,146,2,229
11.49.21.660926, 178.3937,-77.16859,4.075309,-172.3378,-76.55979,0.7647859,0,0,0,0,4.950984,6.464861,40.05709,0,4.950984,6.328354,-1,0,0,0,0,0,13,0,0,-2.546813,3.160206,-54.53467,0,-2.546813,2.28883,1,0,0,0,0,0,2.832038,0,0,2.702145,2.048338,0,95.72051,5.447992,0.5,0,0,0,0,-4.279485,0,0,20,0,0,147,2,229
11.49.21.759931, 174.9198,-80.38667,4.900397,178.3937,-77.16859,1,0,0,0,0,6.190255,6.507908,35.8063,0,6.190255,6.464861,-0.8387697,0,0,0,0,0,13,0,0,-1.544321,3.600879,-59.03599,0,-1.544321,3.160206,1,0,0,0,0,0,5,0,0,2.237541,2.303048,0,96.17792,6.719369,0.5,0,0,0,0,-3.822083,0,0,20,0,0,148,2,229
11.49.21.861937, 170.1274,-83.96767,5.267025,174.9198,-80.38667,1,0,0,0,0,6.444462,6.536444,25.99203,0,6.444462,6.507908,-0.7069953,0,0,0,0,0,13,0,0,-1.466093,4.479542,-60.43797,0,-1.466093,3.600879,1,0,0,0,0,0,5,0,0,1.142174,2.838204,0,96.41085,7.554918,0.5,0,0,0,0,-3.589147,0,0,20,0,0,149,2,229
11.49.21.959943, 167.7549,-104.6122,5.6187,170.1274,-83.96767,1,0,0,0,0,7.181174,6.572273,19.19853,0,6.444462,6.536444,-0.402753,0,0,0,0,0,13,0,0,-1.497971,4.951447,-58.02709,0,-1.466093,4.479542,1,0,0,0,0,0,5,0,0,0.4648564,3.004465,0,96.41085,9.310444,0.5,0,0,0,0,-2.235914,0,0,20,0,0,150,2,229
11.49.22.062949, 160.0827,-156.7426,5.961872,167.7549,-104.6122,1,0,0,0,0,7.262353,5.907727,2.692752,0,7.181174,6.572273,-0.1921544,0,0,0,0,0,13,0,0,-0.3853723,5.341711,-62.01405,0,-1.497971,4.951447,1,0,0,0,0,0,5,0,0,-0.0008041884,0.1754187,0,97.76408,9.855848,0.5,0,0,0,0,-2.161528,0,0,20,0,0,151,2,229
11.49.22.159954, 153.6999,-126.4681,6.603625,160.0827,-156.7426,1,0,0,0,0,8.435124,5.668294,-5.884571,0,8.435124,5.907727,0.3195247,0,0,0,0,0,13,0,0,-0.2057414,5.229824,-72.74685,0,-0.2057414,5.341711,1,0,0,0,0,0,5,0,0,-0.01178082,0.1551464,0,98.91311,0.5754436,0.5,0,0,0,0,-1.086893,0,0,20,0,0,152,2,229
11.49.22.262960, 144.4911,-85.11375,6.904875,153.6999,-126.4681,1,0,0,0,0,8.59989,5.484598,-15.85139,0,8.59989,5.668294,0.5854217,0,0,0,0,0,13,0,0,0.8286295,5.074062,-92.91155,0,0.8286295,5.229824,1,0,0,0,0,0,5,0,0,-0.2267246,0.8270369,0,98.38592,0.5089422,0.5,0,0,0,0,-1.614082,0,0,20,0,0,153,2,229
11.49.22.360966, 138.2041,-52.51079,7.180767,144.4911,-85.11375,1,0,0,0,0,9.010039,5.332981,-21.4676,0,8.59989,5.484598,0.8845114,0,0,0,0,0,12.68124,0,0,0.773576,4.967672,-111.0353,0,0.8286295,5.074062,1,0,0,0,0,0,5,0,0,-0.5165138,1.253291,0,98.38592,2.713012,0.5,0,0,0,0,-1.238254,0,0,20,0,0,154,2,229
11.49.22.458971, 129.2594,21.96171,7.439195,138.2041,-52.51079,1,0,0,0,0,9.420188,4.47979,-26.16781,0,9.010039,5.332981,1,0,0,0,0,0,12.51791,0,0,0.718523,4.576173,-137.3065,0,0.773576,4.967672,1,0,0,0,0,0,5,0,0,-0.7599468,0.01011944,0,98.76175,4.111297,0.5,0,0,0,0,-0.8624253,0,0,20,0,0,155,2,229
11.49.22.561977, 122.3745,43.38041,7.905473,129.2594,21.96171,1,0,0,0,0,10.40525,4.123549,-28.40884,0,10.40525,4.47979,1,0,0,0,0,0,11.33505,0,0,1.642788,4.10642,-145.9137,0,1.642788,4.576173,1,0,0,0,0,0,5,0,0,-0.6459804,-0.4952949,0,99.36205,0.0331958,0.5,0,0,0,0,-0.6379585,0,0,20,0,0,156,2,229
11.49.22.661983, 108.2962,64.63377,8.118114,122.3745,43.38041,1,0,0,0,0,10.07628,3.776379,-32.81021,0,10.07628,4.123549,1,0,0,0,0,0,10.57772,0,0,2.81044,3.711485,-157.4441,0,2.81044,4.10642,1,0,0,0,0,0,5,0,0,-0.4976684,-0.1211889,0,99.0606,-1.624765,0.5,0,0,0,0,-0.9394007,0,0,20,0,0,157,2,229
11.49.22.761989, 94.81143,76.10972,8.294348,108.2962,64.63377,1,0,0,0,0,10.82422,3.429964,-36.99761,0,10.07628,3.776379,1,0,0,0,0,0,9.932334,0,0,2.755387,3.37557,-166.7492,0,2.81044,3.711485,1,0,0,0,0,0,5,0,0,-0.5065126,0.05249576,0,99.0606,-0.3975481,0.5,0,0,0,0,-0.9322128,0,0,20,0,0,158,2,229
11.49.22.860994, 88.38947,78.66999,8.437354,94.81143,76.10972,1,0,0,0,0,11.55508,3.231887,-39.15079,0,10.82422,3.429964,1,0,0,0,0,0,9.504503,0,0,3.601423,3.212308,-171.4791,0,2.755387,3.37557,1,0,0,0,0,0,5,0,0,-0.5085344,0.004300515,0,99.06779,0.1722071,0.5,0,0,0,0,-0.9406815,0,0,20,0,0,159,2,229
11.49.22.963000, 78.80549,79.88478,8.692865,88.38947,78.66999,1,0,0,0,0,11.55508,2.939567,-42.60685,0,11.55508,3.231887,1,0,0,0,0,0,9.347495,0,0,3.601423,3.016721,-179.753,0,3.601423,3.212308,1,0,0,0,0,0,5,0,0,-0.4957659,-0.05150422,0,99.05932,0.01410741,0.5,0,0,0,0,-0.9406815,0,0,20,0,0,160,2,229
11.49.23.063006, 65.60556,71.10826,8.795317,78.80549,79.88478,1,0,0,0,0,11.80929,2.577322,-47.58574,0,11.80929,2.939567,1,0,0,0,0,0,8.877539,0,0,3.679651,2.836749,164.2858,0,3.679651,3.016721,1,0,0,0,0,0,5,0,0,-0.4753664,-0.01903537,0,99.29225,-0.1689544,0.5,0,0,0,0,-0.7077456,0,0,20,0,0,161,2,229
11.49.23.165012, 57.64598,55.12969,8.865493,65.60556,71.10826,1,0,0,0,0,12.14708,2.401869,-50.51336,0,11.80929,2.577322,1,0,0,0,0,0,8.204124,0,0,3.679651,2.725659,149.2084,0,3.679651,2.836749,-1,0,0,0,0,0,5,0,0,-0.4737707,0.02041999,0,99.29225,-0.06244363,0.5,0,0,0,0,-1.076386,0,0,20,0,0,162,2,229
11.49.23.262017, 53.26348,41.89857,8.917652,57.64598,55.12969,1,0,0,0,0,12.12999,2.339499,-51.87278,0,12.14708,2.401869,1,0,0,0,0,0,7.975579,0,0,4.580741,2.614038,137.3279,0,3.679651,2.725659,-1,0,0,0,0,0,5,0,0,-0.4787664,0.04247123,0,98.92361,0.06698572,0.5,0,0,0,0,-1.092043,0,0,20,0,0,163,2,229
11.49.23.359023, 41.99689,32.56603,9.003093,53.26348,41.89857,1,0,0,0,0,12.87794,2.254862,-52.17459,0,12.87794,2.339499,1,0,0,0,0,0,8.070852,0,0,4.525688,2.234331,119.0399,0,4.525688,2.614038,-1,0,0,0,0,0,5,0,0,-0.4095499,-0.2715939,0,98.91515,0.1393226,0.5,0,0,0,0,-1.084855,0,0,20,0,0,164,2,229
11.49.23.461029, 23.70571,22.297,9.017519,41.99689,32.56603,1,0,0,0,0,12.87794,2.133952,-49.97796,0,12.87794,2.254862,1,0,0,0,0,0,7.913512,0,0,4.525688,1.938308,112.7954,0,4.525688,2.234331,-1,0,0,0,0,0,5,0,0,-0.3453599,-0.03772188,0,98.91515,-0.8909367,0.5,0,0,0,0,-1.084855,0,0,20,0,0,165,2,229
11.49.23.561034, 12.97227,15.42131,8.988309,23.70571,22.297,1,0,0,0,0,13.72414,2.042602,-47.93277,0,12.87794,2.133952,1,0,0,0,0,0,7.688739,0,0,4.682144,1.815175,112.4913,0,4.525688,1.938308,-1,0,0,0,0,0,5,0,0,-0.3558327,0.1008452,0,98.91515,-0.1237428,0.5,0,0,0,0,-0.9876242,0,0,20,0,0,166,2,229
11.49.23.663040, 354.3779,3.093226,8.936107,12.97227,15.42131,1,0,0,0,0,13.72414,1.845546,-42.59401,0,13.72414,2.042602,1,0,0,0,0,0,7.763474,0,0,4.682144,1.643698,115.0161,0,4.682144,1.815175,-1,0,0,0,0,0,5,0,0,-0.4204211,0.2770403,0,99.01237,0.3308125,0.5,0,0,0,0,-0.9876242,0,0,20,0,0,167,2,229
11.49.23.762046, 329.8571,-18.48658,8.748569,-5.62207,3.093226,1,0,0,0,0,13.97835,1.480709,-30.24035,0,13.97835,1.845546,1,0,0,0,0,0,7.470613,0,0,4.760372,1.480719,120.995,0,4.760372,1.643698,-1,0,0,0,0,0,5,0,0,-0.5752954,0.4211871,0,99.24531,0.9088032,0.5,0,0,0,0,-0.7546887,0,0,20,0,0,168,2,229
11.49.23.862052, 318.9453,-30.11345,8.596713,-30.14291,-18.48658,1,0,0,0,0,14.05953,1.156484,-21.79757,0,14.05953,1.480709,1,0,0,0,0,0,6.815843,0,0,5.872971,1.416628,122.2624,0,5.872971,1.480719,-1,0,0,0,0,0,5,0,0,-0.6403837,0.2634861,0,99.31969,1.381662,0.5,0,0,0,0,-0.6803021,0,0,20,0,0,169,2,229
11.49.23.961057, 304.4347,-53.45988,8.423985,-41.05466,-30.11345,1,0,0,0,0,14.05953,0.7622974,-7.065926,0,14.05953,1.156484,0.8683309,0,0,0,0,0,6.213108,0,0,5.872971,1.33254,118.3925,0,5.872971,1.416628,-1,0,0,0,0,0,5,0,0,-0.6989955,0.1511433,0,99.31969,0.86434,0.5,0,0,0,0,-0.6803021,0,0,20,0,0,170,2,229
11.49.24.064063, 291.9896,-10.61758,8.218915,-55.56534,-53.45988,1,0,0,0,0,14.39732,0.7536323,3.960559,0,14.05953,0.7622974,0.3889334,0,0,0,0,0,5.480315,0,0,5.872971,1.106426,113.703,0,5.872971,1.33254,-1,0,0,0,0,0,5,0,0,-0.6387876,-0.2582689,0,99.31969,0.4958106,0.5,0,0,0,0,-1.048943,0,0,20,0,0,171,2,229
11.49.24.162069, 285.0829,43.96778,7.760686,-68.01038,-10.61758,1,0,0,0,0,14.39732,0.7519256,4.507982,0,14.39732,0.7536323,0.04963936,0,0,0,0,0,5.561829,0,0,5.872971,0.9659308,112.5168,0,5.872971,1.106426,-1,0,0,0,0,0,5,0,0,-0.6084056,-0.08266256,0,98.95106,-0.8472254,0.5,0,0,0,0,-1.048943,0,0,20,0,0,172,2,229
11.49.24.261074, 279.1315,59.67709,7.518526,-74.91711,43.96778,1,0,0,0,0,14.39732,0.7615547,1.986878,0,14.39732,0.7519256,0.03257092,0,0,0,0,0,5.558657,0,0,5.872971,0.8223734,113.8668,0,5.872971,0.9659308,-1,0,0,0,0,0,5,0,0,-0.6413481,0.1630125,0,98.95106,-0.2711663,0.5,0,0,0,0,-1.048943,0,0,20,0,0,173,2,229
11.49.24.362080, 271.5508,59.9474,7.264276,-80.86847,59.67709,1,0,0,0,0,14.39732,0.7616081,-2.937086,0,14.39732,0.7615547,0.11128,0,0,0,0,0,5.576557,0,0,5.872971,0.5785578,117.1098,0,5.872971,0.8223734,-1,0,0,0,0,0,5,0,0,-0.6844081,0.0636663,0,98.95106,0.5347461,0.5,0,0,0,0,-1.048943,0,0,20,0,0,174,2,229
11.49.24.461086, 266.9552,50.55423,6.994456,-88.44916,59.9474,1,0,0,0,0,14.39732,0.7250176,-5.667964,0,14.39732,0.7616081,0.263926,0,0,0,0,0,5.576656,0,0,5.872971,0.4546088,117.3271,0,5.872971,0.5785578,-1,0,0,0,0,0,5,0,0,-0.6847472,-0.01239885,0,98.95106,0.2088509,0.5,0,0,0,0,-1.048943,0,0,20,0,0,175,2,229
11.49.24.564092, 262.7614,37.39632,6.443801,-93.0448,50.55423,1,0,0,0,0,14.39732,0.678942,-7.40814,0,14.39732,0.7250176,0.3464746,0,0,0,0,0,5.508635,0,0,5.872971,0.3543204,117.0999,0,5.872971,0.4546088,-1,0,0,0,0,0,5,0,0,-0.6767861,-0.02332273,0,98.95106,-0.04067319,0.5,0,0,0,0,-1.048943,0,0,20,0,0,176,2,229
11.49.24.661097, 257.1765,17.93869,6.162613,-97.23862,37.39632,1,0,0,0,0,14.39732,0.610449,-7.976064,0,14.39732,0.678942,0.3977647,0,0,0,0,0,5.42298,0,0,5.872971,0.2451923,116.9223,0,5.872971,0.3543204,-1,0,0,0,0,0,5,0,0,-0.6723615,-0.0004559656,0,98.95106,-0.07650787,0.5,0,0,0,0,-1.048943,0,0,20,0,0,177,2,229
11.49.24.763103, 253.7746,6.9803,5.871267,-102.8235,17.93869,1,0,0,0,0,14.39732,0.5629649,-7.152394,0,14.39732,0.610449,0.4114232,0,0,0,0,0,5.295651,0,0,5.872971,0.1899744,116.6655,0,5.872971,0.2451923,-1,0,0,0,0,0,5,0,0,-0.6728047,0.005457768,0,98.95106,-0.001495749,0.5,0,0,0,0,-1.048943,0,0,20,0,0,178,2,229
11.49.24.861109, 250.6844,-0.6002285,5.575686,-106.2254,6.9803,1,0,0,0,0,14.39732,0.5162243,-5.696548,0,14.39732,0.5629649,0.383153,0,0,0,0,0,5.207378,0,0,5.872971,0.1451229,116.0921,0,5.872971,0.1899744,-1,0,0,0,0,0,5,0,0,-0.6739922,0.006358102,0,98.95106,0.01790366,0.5,0,0,0,0,-1.048943,0,0,20,0,0,179,2,229
11.49.24.961114, 246.6304,-1.640343,4.980296,-109.3156,-0.6002285,1,0,0,0,0,14.39732,0.4481607,-3.410728,0,14.39732,0.5162243,0.3353281,0,0,0,0,0,5.120488,0,0,5.872971,0.08772559,115.7677,0,5.872971,0.1451229,-1,0,0,0,0,0,5,0,0,-0.6684071,-0.006170261,0,98.95106,0.02085712,0.5,0,0,0,0,-1.048943,0,0,20,0,0,180,2,229
11.49.25.062120, 244.2427,2.762663,4.67727,-113.3696,-1.640343,1,0,0,0,0,14.39732,0.4063447,-2.402003,0,14.39732,0.4481607,0.2605452,0,0,0,0,0,4.993958,0,0,5.872971,0.05781561,115.731,0,5.872971,0.08772559,-1,0,0,0,0,0,5,0,0,-0.6673033,-0.002458683,0,98.95106,-0.02024093,0.5,0,0,0,0,-1.048943,0,0,20,0,0,181,2,229
11.49.25.160126, 242.0733,8.480835,4.372072,-115.7573,2.762663,1,0,0,0,0,14.39732,0.3662105,-2.017063,0,14.39732,0.4063447,0.2268649,0,0,0,0,0,4.916222,0,0,5.872971,0.03189833,115.7119,0,5.872971,0.05781561,-1,0,0,0,0,0,5,0,0,-0.6667061,-0.0006082763,0,98.95106,-0.008065464,0.5,0,0,0,0,-1.048943,0,0,20,0,0,182,2,229
11.49.25.264132, 240.086,13.53735,4.06487,-117.9267,8.480835,1,0,0,0,0,14.39732,0.3273303,-2.239579,0,14.39732,0.3662105,0.2126189,0,0,0,0,0,4.841612,0,0,5.872971,0.009540207,115.7149,0,5.872971,0.03189833,-1,0,0,0,0,0,5,0,0,-0.66646,-0.0001013952,0,98.95106,-0.00199539,0.5,0,0,0,0,-1.048943,0,0,20,0,0,183,2,229
11.49.25.360137, 237.3784,17.11961,3.450657,-119.914,13.53735,1,0,0,0,0,14.39732,0.272413,-3.360694,0,14.39732,0.3273303,0.2172763,0,0,0,0,0,4.769334,0,0,5.872971,-0.01607838,115.7862,0,5.872971,0.009540207,-1,0,0,0,0,0,5,0,0,-0.6665976,0.001216222,0,98.95106,-0.0003326167,0.5,0,0,0,0,-1.048943,0,0,20,0,0,184,2,229
11.49.25.464143, 235.8152,16.09977,3.14152,-122.6216,17.11961,0.9050362,0,0,0,0,14.39732,0.2407978,-4.210228,0,14.39732,0.272413,0.248866,0,0,0,0,0,4.667243,0,0,5.872971,-0.02673445,115.8254,0,5.872971,-0.01607838,-1,0,0,0,0,0,5,0,0,-0.6669496,0.0005351094,0,98.95106,0.003989695,0.5,0,0,0,0,-1.048943,0,0,20,0,0,185,2,229
11.49.25.561149, 234.3976,13.06091,2.831058,-124.1848,16.09977,0.5640036,0,0,0,0,14.39732,0.2125483,-4.875107,0,14.39732,0.2407978,0.2733797,0,0,0,0,0,4.60847,0,0,5.872971,-0.03292869,115.8347,0,5.872971,-0.02673445,-1,0,0,0,0,0,5,0,0,-0.6670156,8.81801E-05,0,98.95106,0.001755373,0.5,0,0,0,0,-1.048943,0,0,20,0,0,186,2,229
11.49.25.664155, 233.0713,8.93578,2.517052,-125.6024,13.06091,0.218762,0,0,0,0,14.39732,0.1864128,-5.22621,0,14.39732,0.2125483,0.2923629,0,0,0,0,0,4.555954,0,0,5.872971,-0.03541928,115.8189,0,5.872971,-0.03292869,-1,0,0,0,0,0,5,0,0,-0.6667097,-0.0008553636,0,98.95106,0.000289266,0.5,0,0,0,0,-1.048943,0,0,20,0,0,187,2,229
11.49.25.761160, 231.3097,3.418254,1.882408,-126.9287,8.93578,-0.4472372,0,0,0,0,15.14526,0.1521316,-5.125249,0,15.14526,0.1864128,0.3017409,0,0,0,0,0,4.723523,0,0,5.817918,-0.03380827,115.7676,0,5.817918,-0.03541928,-1,0,0,0,0,0,5,0,0,-0.6660486,-0.001824528,0,98.95824,-0.002805935,0.5,0,0,0,0,-1.041755,0,0,20,0,0,188,2,229
11.49.25.859166, 230.2483,1.389162,1.560683,-128.6903,3.418254,-0.810674,0,0,0,0,15.14526,0.1316406,-4.79205,0,15.14526,0.1521316,0.3033364,0,0,0,0,0,4.659794,0,0,5.817918,-0.03072455,115.7276,0,5.817918,-0.03380827,-1,0,0,0,0,0,5,0,0,-0.6653053,-0.002823373,0,98.95824,-0.005985183,0.5,0,0,0,0,-1.041755,0,0,20,0,0,189,2,229
