MagYaw,YawVelocityDegreesPerSecond,YawIntegral,YawProportional,YawDerivativeError,YawControl,YawIntegralGain,YawDerivativeGain,YawProportionalGain,YawAntiWindupGain,XNEDBodyFrame,XVelocityMetersPerSecond,ThetaPitchDegrees,XIntegral,XProportional,XDerivativeError,LongitudeControl,XIntegralGain,XDerivativeGain,XProportionalGain,XAntiWindupGain,LongitudeInnerLoopGain,XLongitudeOuterLoopSetpoint,YNEDBodyFrame,YVelocityMetersPerSecond,PhiRollDegrees,YIntegral,YProportional,YDerivativeError,LateralControl,YIntegralGain,YDerivativeGain,YProportionalGain,YAntiWindupGain,LateralInnerLoopGain,YLateralOuterLoopSetpoint,AltitudeFeetAgl,ZVelocityMetersPerSecond,ZIntegral,ZProportional,ZDerivativeError,MainRotorCollectiveControl,ZIntegralGain,ZDerivativeGain,ZProportionalGain,ZAntiWindupGain,ZNEDBodyFrame,LatitudeDegrees,LongitudeDegrees,Timeouts,UnrecognizedMsgTypes,ChecksumErrors,NumOfBlownFrames,MessageType,NumOfBytesInMsg
62.99282,-40.20673,0,0,0,0,0,0,0,0,0,0.6170352,6.57259,0,0,0,0,0,0,0,0,0,0,0,-3.248527,-1.736201,0,0,0,0,0,0,0,0,0,0,0.583982,0.8307537,0,0,0,0,0,0,0,0,0,0,0,73,0,0,0,2,213
59.42868,-34.43842,1.57482,62.99282,-40.20673,1,0,0,0,0,0,0.6036413,5.989303,0,0,0.6170352,-0.1681912,0,0,0,0,0,1.147068,0,-3.235592,-2.227831,0,0,-3.248527,-0.6879389,0,0,0,0,0,-9.213798,0.03311477,1.871932,0.09999999,100,2.725205,1,0,0,0,0,0,0,0,73,0,0,1,2,213
56.57008,-20.87279,0,59.42868,-34.43842,1,0,0,0,0,-0.3377931,0.43413,11.49595,0,0,0.6036413,-0.1508812,0,0,0,0,0,1.122169,0,-2.399299,-5.436689,0,0,-3.235592,-0.6393335,0,0,0,0,0,-9.177109,0.0837215,0.1455667,0,100,6.140687,1,0,0,0,0,0.3686405,0,0,73,0,0,2,2,213
53.3495,-67.83372,0,56.57008,-20.87279,1,0,0,0,0,0.7479421,0.3814563,9.368902,0,-0.3377931,0.43413,-0.3343822,0,0,0,0,0,0.7094253,-0.05505389,-2.524202,-6.245017,0,0,-2.399299,-0.1258968,0,0,0,0,0,-6.805132,0.5700184,-2.992475,0,100.3686,0.4775172,1,0,0,0,0,0.007187665,0,0,73,0,0,3,2,213
43.82179,-108.9703,0,53.3495,-67.83372,1,0,0,0,0,0.3548785,0.6261811,4.694913,0,0.3548785,0.3814563,-0.2617522,0,0,0,0,0,0.8116872,-0.9010898,-2.914773,-10.02441,0,-0.9010898,-2.524202,-0.0914011,0,0,0,0,0,-8.45426,2.138855,-5.20945,0,99.64702,-9.816516,1,0,0,0,0,-0.3529847,0,0,73,0,0,4,2,213
32.08246,-134.1512,0,43.82179,-108.9703,1,0,0,0,0,0.7039012,0.8698573,-0.09959073,0,0.7039012,0.6261811,-0.1031499,0,0,0,0,0,1.367498,-0.9242635,-3.070501,-14.35809,0,-0.9242635,-2.914773,0.03947431,0,0,0,0,0,-9.595339,4.023649,-6.146943,0,97.93233,-17.08908,1,0,0,0,0,-2.06767,0,0,73,0,0,5,2,213
18.84571,-150.0356,0,32.08246,-134.1512,1,0,0,0,0,0.6427748,1.148383,-5.302834,0,0.7039012,0.8698573,0.05952257,0,0,0,0,0,1.820492,-0.8923833,-3.140597,-16.65013,0,-0.9242635,-3.070501,0.4009446,0,0,0,0,0,-10,6.070179,-6.576689,0,97.93233,-20.16443,1,0,0,0,0,-4.158184,0,0,73,0,0,6,2,213
356.4054,-165.9617,0,18.84571,-150.0356,1,0,0,0,0,0.4980631,1.560931,-12.52014,0,0.6427748,1.148383,0.2363266,0,0,0,0,0,2.320607,-0.7822754,-3.241238,-15.77269,0,-0.8923833,-3.140597,0.6118115,0,0,0,0,0,-10,9.23786,-6.748624,0,95.84182,-21.57417,1,0,0,0,0,-5.64712,0,0,73,0,0,7,2,213
339.9301,-173.5468,0,-3.594635,-165.9617,-1,0,0,0,0,0.7771349,1.800611,-15.63123,0,0.7771349,1.560931,0.4825412,0,0,0,0,0,3.126362,-1.941222,-3.254496,-11.19202,0,-1.941222,-3.241238,0.5310876,0,0,0,0,0,-10,11.33105,-6.789495,0,91.21776,-22.13819,1,0,0,0,0,-8.782238,0,0,73,0,0,8,2,213
323.131,-179.4196,0,-20.06992,-173.5468,-1,0,0,0,0,1.053802,2.03362,-16.28607,0,1.053802,1.800611,0.5977766,0,0,0,0,0,3.651885,-1.909341,-3.212168,-3.685389,0,-1.909341,-3.254496,0.1096656,0,0,0,0,0,-10,13.34488,-6.849011,0,88.75861,-22.27226,1,0,0,0,0,-11.24139,0,0,73,0,0,9,2,213
310.5569,-52.71292,0,-36.86899,-179.4196,-1,0,0,0,0,0.8367343,2.16353,-12.33052,0,1.053802,2.03362,0.6315047,0,0,0,0,0,4.085048,-1.74418,-3.541553,4.819434,0,-1.909341,-3.212168,-0.5809442,0,0,0,0,0,-10,16.28931,-6.978487,0,88.75861,-22.4675,1,0,0,0,0,-13.4748,0,0,73,0,0,10,2,213
310.8611,14.59198,0,-49.44315,-52.71292,-1,0,0,0,0,1.46828,2.20866,-8.337619,0,0.8367343,2.16353,0.5144244,0,0,0,0,0,4.263818,-2.613389,-3.623225,7.568933,0,-1.74418,-3.541553,-1,0,0,0,0,0,-10,18.24156,-7.110975,0,86.5252,-22.89223,1,0,0,0,0,-16.28694,0,0,73,0,0,11,2,213
316.0998,69.33173,0,-49.13892,14.59198,-1,0,0,0,0,1.479508,2.1834,-4.079165,0,1.479508,2.20866,0.3989034,0,0,0,0,0,4.533477,-2.636563,-3.670578,7.529949,0,-2.636563,-3.623225,-1,0,0,0,0,0,-10,20.15846,-7.242977,0,82.36702,-23.32684,1,0,0,0,0,-17.63298,0,0,73,0,0,12,2,213
331.5535,139.1856,0,-43.90021,69.33173,-1,0,0,0,0,1.986878,2.050534,3.146407,0,1.986878,2.1834,0.2700817,0,0,0,0,0,4.633148,-3.983845,-3.67157,3.528642,0,-3.983845,-3.670578,-1,0,0,0,0,0,-10,23.15459,-7.433597,0,80.11926,-23.75986,1,0,0,0,0,-19.88074,0,0,73,0,0,13,2,213
345.8856,179.9746,0,-28.44653,139.1856,-1,0,0,0,0,1.853396,1.876241,8.562711,0,1.986878,2.050534,0.03843205,0,0,0,0,0,4.386151,-3.896911,-3.731526,-0.455674,0,-3.983845,-3.67157,-1,0,0,0,0,0,-10,25.16541,-7.493032,0,80.11926,-24.38517,1,0,0,0,0,-22.71572,0,0,73,0,0,14,2,213
13.56969,236.8525,0,-14.11438,179.9746,1,0,0,0,0,1.792271,1.574027,17.74102,0,1.853396,1.876241,-0.1407136,0,0,0,0,0,4.023563,-3.865031,-4.035731,-5.524379,0,-3.896911,-3.731526,-0.878078,0,0,0,0,0,-10,28.19515,-7.375621,0,77.28428,-24.58014,1,0,0,0,0,-24.80623,0,0,73,0,0,15,2,213
37.05074,273.968,0,13.56969,236.8525,1,0,0,0,0,1.577607,1.49446,23.60861,0,1.577607,1.574027,-0.4432049,0,0,0,0,0,3.382045,-4.890696,-4.364288,-6.587177,0,-4.890696,-4.035731,-0.4117571,0,0,0,0,0,-10,30.18377,-7.12787,0,72.28439,-24.19499,1,0,0,0,0,-27.7156,0,0,73,0,0,16,2,213
60.38218,248.4341,0,37.05074,273.968,1,0,0,0,0,2.264422,1.332875,27.55869,0,2.264422,1.49446,-0.6254556,0,0,0,0,0,3.432619,-4.913868,-4.597237,-6.190961,0,-4.913868,-4.364288,-0.3139797,0,0,0,0,0,-10,32.06954,-6.848657,0,70.20107,-23.38226,1,0,0,0,0,-29.79893,0,0,73,0,0,17,2,213
71.25294,232.1603,0,60.38218,248.4341,1,0,0,0,0,2.457504,1.28682,28.73945,0,2.264422,1.332875,-0.7572202,0,0,0,0,0,3.132233,-4.803761,-4.749292,-5.966056,0,-4.913868,-4.597237,-0.3504316,0,0,0,0,0,-10,32.98232,-6.721423,0,70.20107,-22.46634,1,0,0,0,0,-31.65651,0,0,73,0,0,18,2,213
91.551,193.1487,0,71.25294,232.1603,1,0,0,0,0,2.543495,1.229307,29.22764,0,2.457504,1.28682,-0.7947481,0,0,0,0,0,3.102417,-6.072815,-5.064066,-5.177734,0,-4.803761,-4.749292,-0.3711228,0,0,0,0,0,-10,34.87492,-6.611252,0,68.34349,-22.04896,1,0,0,0,0,-32.93404,0,0,73,0,0,19,2,213
108.6049,166.712,0,91.551,193.1487,1,0,0,0,0,2.482368,1.37954,27.77691,0,2.482368,1.229307,-0.812426,0,0,0,0,0,3.002686,-6.040935,-5.361468,-5.102541,0,-6.040935,-5.064066,-0.4436485,0,0,0,0,0,-10,36.72843,-6.621502,0,64.97544,-21.68755,1,0,0,0,0,-35.02456,0,0,73,0,0,20,2,213
124.0375,154.7875,0,108.6049,166.712,1,0,0,0,0,2.493599,1.682793,24.95355,0,2.493599,1.37954,-0.7592425,0,0,0,0,0,3.285215,-6.064108,-5.557646,-5.814744,0,-6.064108,-5.361468,-0.4505662,0,0,0,0,0,-10,38.61982,-6.777561,0,63.62939,-21.72118,1,0,0,0,0,-36.37061,0,0,73,0,0,21,2,213
147.5271,156.9205,0,124.0375,154.7875,1,0,0,0,0,3.01565,2.272097,18.65616,0,2.493599,1.682793,-0.6542421,0,0,0,0,0,3.848962,-7.121653,-5.501812,-8.443973,0,-6.064108,-5.557646,-0.3850436,0,0,0,0,0,-10,41.76551,-7.307163,0,63.62939,-22.23311,1,0,0,0,0,-37.92674,0,0,73,0,0,22,2,213
164.519,167.2615,0,147.5271,156.9205,1,0,0,0,0,3.066423,2.584854,13.71856,0,3.01565,2.272097,-0.420385,0,0,0,0,0,5.095352,-8.092264,-5.181849,-11.41634,0,-7.121653,-5.501812,-0.1431545,0,0,0,0,0,-10,44.11686,-7.821229,0,62.07326,-23.97042,1,0,0,0,0,-41.94922,0,0,73,0,0,23,2,213
183.2384,182.1308,0,164.519,167.2615,1,0,0,0,0,3.259502,2.687566,9.046506,0,3.259502,2.584854,-0.2488409,0,0,0,0,0,5.74724,-7.982156,-4.683749,-15.13252,0,-7.982156,-5.181849,0.1303034,0,0,0,0,0,-10,46.69277,-8.394661,0,56.1932,-25.65676,1,0,0,0,0,-43.8068,0,0,73,0,0,24,2,213
203.4347,198.6467,-37.48788,-176.7616,182.1308,-1,0,0,0,0,3.117197,2.540043,5.793111,0,3.117197,2.687566,-0.09763296,0,0,0,0,0,5.897056,-9.062876,-4.174358,-18.55536,0,-9.062876,-4.683749,0.4721917,0,0,0,0,0,-10,49.41579,-8.900445,0,54.0283,-27.53785,1,0,0,0,0,-45.9717,0,0,73,0,0,25,2,213
224.1817,213.0945,-8.131313,-156.5653,198.6467,-1,0,0,0,0,3.223242,2.227115,4.556324,0,3.117197,2.540043,-0.005279345,0,0,0,0,0,5.62281,-9.18745,-3.82007,-20.4161,0,-9.062876,-4.174358,0.7870929,0,0,0,0,0,-10,52.1615,-9.247648,0,54.0283,-29.19702,1,0,0,0,0,-49.26537,0,0,73,0,0,26,2,213
251.3585,317.3335,0,-135.8183,213.0945,-1,0,0,0,0,4.502058,1.579902,7.026098,0,3.223242,2.227115,0.01597735,0,0,0,0,0,5.071723,-9.132395,-3.552183,-19.2921,0,-9.18745,-3.82007,0.9582812,0,0,0,0,0,-10,54.90364,-9.264746,0,50.73463,-30.33599,1,0,0,0,0,-51.4844,0,0,73,0,0,27,2,213
304.6307,425.7733,0,-108.6415,317.3335,-1,0,0,0,0,4.131454,1.006548,13.0458,0,4.131454,1.579902,-0.08642694,0,0,0,0,0,4.131028,-10.02478,-3.570692,-8.01602,0,-10.02478,-3.552183,0.8548729,0,0,0,0,0,-10,58.84808,-9.099599,0,45.46334,-30.39207,1,0,0,0,0,-54.53666,0,0,73,0,0,28,2,213
342.5432,455.7055,0,-55.36926,425.7733,-1,0,0,0,0,4.165144,0.9027097,12.54893,0,4.165144,1.006548,-0.3090979,0,0,0,0,0,3.074899,-10.0943,-3.449128,4.550369,0,-10.0943,-3.570692,-0.1825262,0,0,0,0,0,-10,61.28209,-9.055946,0,41.42521,-29.85032,1,0,0,0,0,-58.57479,0,0,73,0,0,29,2,213
40.23174,469.0203,0,-17.45682,455.7055,1,0,0,0,0,4.441807,0.4729228,1.981774,0,4.165144,0.9027097,-0.299679,0,0,0,0,0,2.881864,-10.06242,-2.887085,22.20323,0,-10.0943,-3.449128,-1,0,0,0,0,0,-10,64.99494,-9.170551,0,41.42521,-29.70713,1,0,0,0,0,-61.03395,0,0,73,0,0,30,2,213
79.28462,473.9714,0,40.23174,469.0203,1,0,0,0,0,4.746792,0.03332129,-8.972386,0,4.441807,0.4729228,0.005613213,0,0,0,0,0,2.162846,-10.9548,-2.610753,25.40743,0,-10.06242,-2.887085,-1,0,0,0,0,0,-10,67.55013,-9.233904,0,38.96605,-30.08308,1,0,0,0,0,-64.82349,0,0,73,0,0,31,2,213
133.2859,406.6443,0,79.28462,473.9714,1,0,0,0,0,4.431458,-0.8414766,-17.45948,0,4.431458,0.03332129,0.3225908,0,0,0,0,0,1.342636,-11.00115,-2.702968,4.51148,0,-11.00115,-2.610753,-1,0,0,0,0,0,-10,71.18253,-9.076231,0,32.85307,-30.2909,1,0,0,0,0,-67.14693,0,0,73,0,0,32,2,213
176.2203,353.7145,0,133.2859,406.6443,1,0,0,0,0,4.127354,-1.215014,-10.22933,0,4.127354,-0.8414766,0.5297273,0,0,0,0,0,-0.3714998,-11.07067,-2.687824,-20.6662,0,-11.07067,-2.702968,-1,0,0,0,0,0,-10,74.61225,-9.238053,0,29.18356,-29.77367,1,0,0,0,0,-70.81644,0,0,73,0,0,33,2,213
201.2956,332.9506,0,176.2203,353.7145,1,0,0,0,0,4.250488,-1.50462,0.3955334,0,4.127354,-1.215014,0.2840661,0,0,0,0,0,-1.065905,-12.09634,-2.206986,-33.2368,0,-11.07067,-2.687824,0.9812905,0,0,0,0,0,-10,77.10088,-9.54269,0,29.18356,-30.30451,1,0,0,0,0,-74.09444,0,0,73,0,0,34,2,213
225.6391,314.576,-42.29738,-158.7044,332.9506,-1,0,0,0,0,4.527149,-2.064966,14.36126,0,4.250488,-1.50462,-0.06089117,0,0,0,0,0,-1.568698,-12.06446,-1.437165,-40.89111,0,-12.09634,-2.206986,1,0,0,0,0,0,-10,79.87598,-9.827904,0,25.90556,-31.30384,1,0,0,0,0,-76.5536,0,0,73,0,0,35,2,213
249.6824,291.0096,0,-134.3609,314.576,-1,0,0,0,0,3.293251,-2.501374,28.2484,0,3.293251,-2.064966,-0.5236424,0,0,0,0,0,-2.887022,-12.2122,-0.9268442,-38.24874,0,-12.2122,-1.437165,1,0,0,0,0,0,-10,82.7118,-9.914662,0.02437508,20.28125,-32.23946,0.8533194,0,0,0,0,-79.71875,0,0,73,0,0,36,2,213
323.089,409.3848,0,-110.3176,291.0096,-1,0,0,0,0,3.076187,-3.676886,43.30928,0,3.076187,-2.501374,-0.9922925,0,0,0,0,0,-3.761036,-12.04704,-0.5098899,6.274974,0,-12.04704,-0.9268442,1,0,0,0,0,0,-10,87.69467,-9.401948,0.04242293,18.04785,-32.52406,0.7363272,0,0,0,0,-81.95215,0,0,73,0,0,37,2,213
357.9502,429.8022,0,-36.91101,409.3848,-0.122612,0,0,0,0,3.375313,-3.648223,33.07214,0,3.076187,-3.676886,-1,0,0,0,0,0,-5.946312,-12.06151,-0.4427663,30.22065,0,-12.04704,-0.5098899,-1,0,0,0,0,0,-10,89.71606,-8.843721,0.06047078,18.04785,-30.84215,0.7735656,0,0,0,0,-87.10339,0,0,73,0,0,38,2,213
37.46941,450.3833,-0.05124588,-2.049835,429.8022,1,0,0,0,0,3.233006,-3.722072,1.780328,0,3.375313,-3.648223,-1,0,0,0,0,0,-5.806582,-13.14223,-0.1731374,48.40335,0,-12.06151,-0.4427663,-1,0,0,0,0,0,-10,92.65813,-7.840961,0.07336739,12.89661,-29.01094,0.5033813,0,0,0,0,-89.2683,0,0,73,0,0,39,2,213
62.20956,420.674,0,37.46941,450.3833,1,0,0,0,0,2.351582,-4.023011,-22.65602,0,2.351582,-3.722072,-0.240725,0,0,0,0,0,-6.239725,-13.00024,0.07485282,45.92174,0,-13.00024,-0.1731374,-1,0,0,0,0,0,-10,94.58602,-7.178452,0.09198862,7.889534,-25.72149,0.2640678,0,0,0,0,-92.11047,0,0,73,0,0,40,2,213
117.3621,314.4368,0,62.20956,420.674,1,0,0,0,0,1.542511,-4.202459,-47.76239,0,1.542511,-4.023011,0.4843137,0,0,0,0,0,-7.032991,-12.91331,-0.5654681,12.19872,0,-12.91331,0.07485282,-1,0,0,0,0,0,-10,97.20428,-4.98655,0.09778046,5.791832,-23.54819,0.1708716,0,0,0,0,-94.20817,0,0,73,0,0,41,2,213
162.164,242.1555,0,117.3621,314.4368,1,0,0,0,0,1.81918,-3.672528,-44.21984,0,1.542511,-4.202459,1,0,0,0,0,0,-7.366585,-12.88143,-1.517598,-22.74575,0,-12.91331,-0.5654681,-1,0,0,0,0,0,-10,98.64639,-3.188627,0.1035723,5.791832,-16.35788,0.258705,0,0,0,0,-96.66732,0,0,73,0,0,42,2,213
187.0088,187.7848,0,162.164,242.1555,1,0,0,0,0,1.321995,-3.381834,-31.34168,0,1.81918,-3.672528,1,0,0,0,0,0,-6.301486,-13.06106,-1.973299,-41.57097,0,-12.88143,-1.517598,1,0,0,0,0,0,-10,99.49509,-1.920742,0.106905,3.33268,-10.45997,0.1842181,0,0,0,0,-98.47923,0,0,73,0,0,43,2,213
194.6111,161.8449,-9.976582,-172.9912,187.7848,-1,0,0,0,0,0.6576385,-3.524477,-24.13758,0,0.6576385,-3.381834,0.7885442,0,0,0,0,0,-6.096771,-13.08423,-1.927304,-47.70466,0,-13.08423,-1.973299,1,0,0,0,0,0,-10,99.8101,-1.578661,0.1093377,0.9120026,-6.300801,0.09126288,0,0,0,0,-99.088,0,0,73,0,0,44,2,213
202.5581,118.4154,0,-165.3889,161.8449,-1,0,0,0,0,0.5852814,-3.498183,-12.83316,0,0.5852814,-3.524477,0.5503964,0,0,0,0,0,-6.382857,-13.02917,-2.080044,-52.12486,0,-13.02917,-1.927304,1,0,0,0,0,0,-10,100.148,-0.7960621,0.1095053,0.1675262,-5.17864,0.06030272,0,0,0,0,-99.83247,0,0,73,0,0,45,2,213
209.2198,194.9657,0,-157.4419,118.4154,-1,0,0,0,0,0.5852814,-3.510651,-1.108219,0,0.5852814,-3.498183,0.2014748,0,0,0,0,0,-6.333976,-13.02917,-1.993257,-52.51211,0,-13.02917,-2.080044,1,0,0,0,0,0,-10,100.1376,0.2678998,0.1096728,0.1675262,-2.611402,0.08976242,0,0,0,0,-99.83247,0,0,73,0,0,46,2,213
219.3635,253.2493,0,-150.7802,194.9657,-1,0,0,0,0,-0.1626587,-3.613751,15.96018,0,0.5852814,-3.510651,-0.162717,0,0,0,0,0,-6.357154,-12.97412,-1.922874,-49.79692,0,-13.02917,-1.993257,1,0,0,0,0,0,-10,99.86069,1.236685,0.1098403,0.1675262,0.8788185,0.1297534,0,0,0,0,-99.83966,0,0,73,0,0,47,2,213
246.8332,300.6084,0,-140.6365,253.2493,-1,0,0,0,0,-0.7546577,-4.053809,44.2434,0,-0.7546577,-3.613751,-0.7044796,0,0,0,0,0,-6.936059,-13.05235,-1.526428,-31.20405,0,-13.05235,-1.922874,1,0,0,0,0,0,-10,99.093,2.117506,0.1102967,0.296051,4.056823,0.174055,0,0,0,0,-99.70395,0,0,73,0,0,48,2,213
300.0195,321.0728,0,-113.1668,300.6084,-1,0,0,0,0,-1.00301,-4.512148,55.43441,0,-1.00301,-4.053809,-1,0,0,0,0,0,-7.8259,-14.00849,-0.906286,16.32973,0,-14.00849,-1.526428,1,0,0,0,0,0,-10,98.2226,2.556441,0.1117215,1.42482,6.946265,0.275057,0,0,0,0,-98.57518,0,0,73,0,0,49,2,213
352.7945,355.2969,0,-59.98053,321.0728,-1,0,0,0,0,-1.762188,-4.983572,29.75129,0,-1.00301,-4.512148,-1,0,0,0,0,0,-8.677954,-13.93026,-0.03924951,62.31772,0,-14.00849,-0.906286,-1,0,0,0,0,0,-10,97.00188,3.038126,0.1131463,1.42482,8.386148,0.2929109,0,0,0,0,-97.23633,0,0,73,0,0,50,2,213
6.794937,388.6293,0,-7.205475,355.2969,1,0,0,0,0,-2.027618,-5.229668,6.946534,0,-1.762188,-4.983572,-1,0,0,0,0,0,-9.773732,-13.98532,0.5096441,69.95156,0,-13.93026,-0.03924951,-1,0,0,0,0,0,-10,96.27821,3.272662,0.11591,2.763672,9.96627,0.3927094,0,0,0,0,-96.12322,0,0,73,0,0,51,2,213
19.77734,429.8428,0,6.794937,388.6293,1,0,0,0,0,-2.365414,-5.400001,-20.79685,0,-2.365414,-5.229668,-0.5253425,0,0,0,0,0,-10,-13.98532,1.011024,68.80235,0,-13.98532,0.5096441,-1,0,0,0,0,0,-10,95.463,3.512587,0.1240322,4.245422,10.73564,0.4970483,0,0,0,0,-95.75458,0,0,73,0,0,52,2,213
73.32222,360.5512,0,19.77734,429.8428,1,0,0,0,0,-2.630856,-6.005186,-65.08023,0,-2.630856,-5.400001,0.3347023,0,0,0,0,0,-10,-14.04037,2.079747,20.99743,0,-14.04037,1.011024,-1,0,0,0,0,0,-10,93.64402,4.439596,0.1293907,5.358528,11.52269,0.5770714,0,0,0,0,-94.64147,0,0,73,0,0,53,2,213
149.9865,268.1779,0,73.32222,360.5512,1,0,0,0,0,-3.727814,-6.607104,-58.00074,0,-2.630856,-6.005186,1,0,0,0,0,0,-10,-13.96214,3.20388,-59.41377,0,-14.04037,2.079747,-1,0,0,0,0,0,-10,91.8307,5.131656,0.1347493,5.358528,14.56365,0.6171273,0,0,0,0,-92.93398,0,0,73,0,0,54,2,213
170.2968,166.6443,0,149.9865,268.1779,1,0,0,0,0,-4.758282,-7.091023,-38.25956,0,-3.727814,-6.607104,1,0,0,0,0,0,-10,-13.06106,4.393236,-85.18501,0,-13.96214,3.20388,1,0,0,0,0,0,-10,89.83126,5.752302,0.1418153,7.066025,16.83388,0.750856,0,0,0,0,-91.8437,0,0,73,0,0,55,2,213
175.3076,89.42615,0,170.2968,166.6443,1,0,0,0,0,-5.289154,-7.321051,-28.09861,0,-5.289154,-7.091023,0.8760465,0,0,0,0,0,-10,-13.17116,4.95669,-95.72655,0,-13.17116,4.393236,1,0,0,0,0,0,-6.466427,88.03697,6.386679,0.1603541,10.38251,18.86985,0.9883313,0,0,0,0,-89.61749,0,0,73,0,0,56,2,213
176.6244,35.12891,0,175.3076,89.42615,1,0,0,0,0,-5.894791,-7.583645,-24.65853,0,-5.894791,-7.321051,0.5610568,0,0,0,0,0,-10,-12.03539,5.710143,-99.63994,0,-12.03539,4.95669,1,0,0,0,0,0,-3.236197,86.56101,6.790951,0.1728943,12.54022,20.95086,1,0,0,0,0,-87.45978,0,0,73,0,0,57,2,213
175.0853,-38.98012,0,176.6244,35.12891,1,0,0,0,0,-6.243813,-8.053689,-26.69239,0,-5.894791,-7.583645,0.4544143,0,0,0,0,0,-10,-12.01221,7.739225,-96.3997,0,-12.03539,5.710143,1,0,0,0,0,0,-1.099178,83.86089,7.562089,0.1702403,12.54022,22.27704,1,0,0,0,0,-85.74509,0,0,73,0,0,58,2,213
168.5776,-100.5909,0,175.0853,-38.98012,1,0,0,0,0,-7.285507,-8.481124,-36.18476,0,-6.243813,-8.053689,0.5174642,0,0,0,0,0,-10,-11.08795,9.093559,-84.21038,0,-12.01221,7.739225,1,0,0,0,0,0,4.689211,80.85972,8.174382,0.1680533,14.25491,24.80668,1,0,0,0,0,-83.30878,0,0,73,0,0,59,2,213
154.3248,-146.5358,0,168.5776,-100.5909,1,0,0,0,0,-8.410786,-8.963875,-47.98456,0,-8.410786,-8.481124,0.8117275,0,0,0,0,0,-10,-10.08546,10.32591,-63.18932,0,-10.08546,9.093559,1,0,0,0,0,0,10,77.97205,8.452616,0.1306029,19.72911,26.81524,1,0,0,0,0,-80.27089,0,0,73,0,0,60,2,213
120.7043,-168.151,0,154.3248,-146.5358,1,0,0,0,0,-8.944065,-9.715857,-55.01491,0,-8.944065,-8.963875,1,0,0,0,0,0,-10,-9.004744,11.94604,-21.51887,0,-9.004744,10.32591,1,0,0,0,0,0,10,74.66686,8.324231,0.09315619,22.63129,27.72796,1,0,0,0,0,-77.36871,0,0,73,0,0,61,2,213
103.756,-161.9875,0,120.7043,-168.151,1,0,0,0,0,-10.40714,-10.13713,-52.19596,0,-8.944065,-9.715857,1,0,0,0,0,0,-10,-8.002253,12.70788,-1.079972,0,-9.004744,11.94604,1,0,0,0,0,0,10,73.20264,8.06696,0.04128702,22.63129,27.30681,1,0,0,0,0,-73.96219,0,0,73,0,0,62,2,213
85.14804,-125.9091,0,103.756,-161.9875,1,0,0,0,0,-10.77325,-11.08387,-38.5085,0,-10.40714,-10.13713,1,0,0,0,0,0,-10,-7.07799,13.91278,24.78354,0,-8.002253,12.70788,1,0,0,0,0,0,10,70.54526,7.360081,0,26.03781,26.46286,1,0,0,0,0,-72.26315,0,0,73,0,0,63,2,213
82.73512,-77.6966,0,85.14804,-125.9091,1,0,0,0,0,-11.40479,-12.39511,-20.56497,0,-11.40479,-11.08387,0.8837636,0,0,0,0,0,-10,-6.208778,14.65981,37.40062,0,-6.208778,13.91278,-1,0,0,0,0,0,10,68.12903,6.251902,0,30.54898,24.14401,1,0,0,0,0,-69.45102,0,0,73,0,0,64,2,213
86.1744,-49.79292,0,82.73512,-77.6966,1,0,0,0,0,-13.17093,-13.37759,-10.49986,0,-13.17093,-12.39511,0.327514,0,0,0,0,0,-10,-3.772072,14.76526,41.7851,0,-3.772072,14.65981,-1,0,0,0,0,0,10,66.9877,5.379333,0,32.99965,20.50874,1,0,0,0,0,-67.00035,0,0,73,0,0,65,2,213
98.30209,1.113929,0,86.1744,-49.79292,1,0,0,0,0,-13.76533,-15.64854,4.919771,0,-13.17093,-13.37759,0.01549571,0,0,0,0,0,-10,-2.659473,14.07775,44.99247,0,-3.772072,14.76526,-1,0,0,0,0,0,10,65.65238,2.852025,0,32.99965,17.64636,1,0,0,0,0,-66.18869,0,0,73,0,0,66,2,213
110.2289,49.02368,0,98.30209,1.113929,1,0,0,0,0,-15.56082,-17.06391,12.845,0,-13.76533,-15.64854,-0.4625129,0,0,0,0,0,-10,-0.8022404,12.8224,39.47273,0,-2.659473,14.07775,-1,0,0,0,0,0,10,65.41604,0.4076178,0,33.81131,9.355782,1,0,0,0,0,-65.12127,0,0,73,0,0,67,2,213
123.7365,98.2457,0,110.2289,49.02368,1,0,0,0,0,-17.23856,-18.16759,17.64636,0,-17.23856,-17.06391,-0.708195,0,0,0,0,0,-10,-0.8254147,10.81351,30.15276,0,-0.8254147,12.8224,-1,0,0,0,0,0,10,65.93136,-2.546851,0,35.37589,1.33715,1,0,0,0,0,-64.62411,0,0,73,0,0,68,2,213
136.9486,111.7855,0,123.7365,98.2457,1,0,0,0,0,-18.66794,-18.51237,20.14918,0,-18.66794,-18.16759,-0.8570371,0,0,0,0,0,-10,0.1075554,8.704496,21.33659,0,0.1075554,10.81351,-1,0,0,0,0,0,10,67.27496,-5.237852,0,34.74429,-8.354691,1,0,0,0,0,-65.25571,0,0,73,0,0,69,2,213
147.5524,83.33102,0,136.9486,111.7855,1,0,0,0,0,-20.32562,-18.35697,22.0846,0,-18.66794,-18.51237,-0.9346245,0,0,0,0,0,-10,1.228861,7.168558,16.90534,0,0.1075554,8.704496,-1,0,0,0,0,0,10,69.19689,-6.530334,0,34.74429,-17.18225,1,0,0,0,0,-66.77469,0,0,73,0,0,70,2,213
153.3036,32.55663,0,147.5524,83.33102,1,0,0,0,0,-22.23751,-17.91627,24.27577,0,-20.32562,-18.35697,-0.9946226,0,0,0,0,0,-10,2.271938,5.67439,17.95852,0,1.228861,7.168558,-0.6352909,0,0,0,0,0,10,71.50537,-7.528094,0,33.22531,-21.42211,1,0,0,0,0,-68.52659,0,0,73,0,0,71,2,213
153.7466,-16.32622,0,153.3036,32.55663,1,0,0,0,0,-23.06367,-17.06381,26.96083,0,-23.06367,-17.91627,-1,0,0,0,0,0,-10,3.259964,4.022985,21.2839,0,3.259964,5.67439,-0.7321839,0,0,0,0,0,10,74.2383,-8.990002,0,29.36005,-24.69516,1,0,0,0,0,-70.63995,0,0,73,0,0,72,2,213
150.3886,-45.76387,0,153.7466,-16.32622,1,0,0,0,0,-25.62282,-15.67891,30.28627,0,-25.62282,-17.06381,-1,0,0,0,0,0,-10,3.378778,2.331956,20.07504,0,3.378778,4.022985,-1,0,0,0,0,0,10,77.68389,-11.22463,0,27.01505,-29.4908,1,0,0,0,0,-72.98495,0,0,73,0,0,73,2,213
145.6918,-49.61506,0,150.3886,-45.76387,1,0,0,0,0,-26.92908,-14.45864,34.21527,0,-25.62282,-15.67891,-1,0,0,0,0,0,-10,3.286081,1.253014,13.02341,0,3.378778,2.331956,-0.9269038,0,0,0,0,0,10,81.6817,-12.67988,0.001248265,27.01505,-36.82128,1,0,0,0,0,-76.89457,0,0,73,0,0,74,2,213
141.1999,-17.02487,0,145.6918,-49.61506,1,0,0,0,0,-28.13707,-12.55845,40.07377,0,-26.92908,-14.45864,-1,0,0,0,0,0,-10,3.4049,0.4814962,-1.645608,0,3.286081,1.253014,-0.4367594,0,0,0,0,0,8.276023,88.03293,-14.27147,0.00682616,23.10543,-41.59509,0.8956777,0,0,0,0,-80.71415,0,0,73,0,0,75,2,213
141.3785,12.24174,0,141.1999,-17.02487,1,0,0,0,0,-30.5066,-11.13479,43.88997,0,-30.5066,-12.55845,-1,0,0,0,0,0,-10,3.320908,0.3922103,-10.86474,0,3.320908,0.4814962,0.7271788,0,0,0,0,0,6.137812,92.18649,-15.15263,0.03915761,13.0456,-46.81614,0.2748063,0,0,0,0,-86.9544,0,0,73,0,0,76,2,213
145.3993,45.20786,0,141.3785,12.24174,1,0,0,0,0,-31.06491,-9.204213,49.96743,0,-31.06491,-11.13479,-1,0,0,0,0,0,-10,3.173161,0.6521593,-21.43356,0,3.173161,0.3922103,1,0,0,0,0,0,5.672258,98.20063,-15.87761,0.04830078,9.143173,-49.70669,0.02068609,0,0,0,0,-90.85683,0,0,73,0,0,77,2,213
149.5465,52.63863,0,145.3993,45.20786,1,0,0,0,0,-32.40638,-9.615111,54.81956,0,-31.06491,-9.204213,-1,0,0,0,0,0,-10,3.37891,0.5243683,-25.73882,0,3.173161,0.6521593,1,0,0,0,0,0,6.409551,102.1065,-14.67234,0.05744396,9.143173,-52.0849,0.002693892,0,0,0,0,-97.51138,0,0,73,0,0,78,2,213
155.1123,24.86221,0,149.5465,52.63863,1,0,0,0,0,-32.96469,-9.847956,61.1515,0,-32.40638,-9.615111,-1,0,0,0,0,0,-10,3.231159,0.1870096,-28.88667,0,3.37891,0.5243683,1,0,0,0,0,0,6.34276,108.3774,-12.99772,0.05993257,2.488617,-48.13116,-0.3423907,0,0,0,0,-101.4138,0,0,73,0,0,79,2,213
153.5813,-20.28902,0,155.1123,24.86221,1,0,0,0,0,-34.23381,-9.509949,61.56171,0,-34.23381,-9.847956,-1,0,0,0,0,0,-10,3.381855,-0.04293279,-31.12716,0,3.381855,0.1870096,1,0,0,0,0,0,5.390141,113.4577,-11.90187,0.05119484,-7.323914,-42.63773,-0.8674858,0,0,0,0,-107.3239,0,0,73,0,0,80,2,213
152.111,-30.48802,0,153.5813,-20.28902,1,0,0,0,0,-35.52883,-9.924138,60.85231,0,-35.52883,-9.509949,-1,0,0,0,0,0,-10,3.265987,-0.3095113,-31.99176,0,3.265987,-0.04293279,1,0,0,0,0,0,4.571454,114.6257,-11.30856,0.03861528,-12.57957,-39.04288,-1,0,0,0,0,-112.5796,0,0,73,0,0,81,2,213
143.8717,-59.63582,0,152.111,-30.48802,1,0,0,0,0,-35.5176,-13.07762,54.84081,0,-35.52883,-9.924138,-1,0,0,0,0,0,-10,3.242813,-1.993226,-37.33657,0,3.265987,-0.3095113,1,0,0,0,0,0,3.815357,118.6781,-7.70343,0.04095413,-12.57957,-37.09659,-1,0,0,0,0,-113.9256,0,0,73,0,0,82,2,213
138.101,-78.49223,0,143.8717,-59.63582,1,0,0,0,0,-37.16164,-15.05026,48.18456,0,-35.5176,-13.07762,-1,0,0,0,0,0,-10,3.15012,-2.988185,-41.06821,0,3.242813,-1.993226,1,0,0,0,0,0,-0.9934635,120.5262,-5.134468,0.03949234,-13.92561,-25.27033,-1,0,0,0,0,-117.4666,0,0,73,0,0,83,2,213
133.5246,-87.89429,0,138.101,-78.49223,1,0,0,0,0,-38.71866,-16.15144,38.67926,0,-38.71866,-15.05026,-1,0,0,0,0,0,-10,3.292107,-3.530673,-42.45457,0,3.292107,-2.988185,1,0,0,0,0,0,-3.744632,121.6983,-3.036404,0.02889334,-19.57147,-16.84311,-1,0,0,0,0,-119.5715,0,0,73,0,0,84,2,213
131.6715,-86.25831,0,133.5246,-87.89429,1,0,0,0,0,-40.79531,-16.64357,30.69474,0,-40.79531,-16.15144,-1,0,0,0,0,0,-10,3.300816,-3.770675,-41.5223,0,3.300816,-3.530673,1,0,0,0,0,0,-5.270775,122.1232,-1.624945,0.03991707,-20.79619,-9.960619,-1,0,0,0,0,-120.7962,0,0,73,0,0,85,2,213
130.7234,-80.42075,0,131.6715,-86.25831,1,0,0,0,0,-42.03458,-17.00873,21.51339,0,-40.79531,-16.64357,-1,0,0,0,0,0,-10,2.298325,-3.983296,-39.34314,0,3.300816,-3.770675,1,0,0,0,0,0,-5.951493,122.1666,-0.07980841,0.04921255,-20.79619,-5.330471,-1,0,0,0,0,-121.2536,0,0,73,0,0,86,2,213
130.6957,-68.61813,0,130.7234,-80.42075,1,0,0,0,0,-44.03888,-17.25846,11.33481,0,-42.03458,-17.00873,-0.9769151,0,0,0,0,0,-10,2.251972,-4.212442,-36.27944,0,2.298325,-3.983296,1,0,0,0,0,0,-7.99513,121.7038,1.688735,0.05183809,-21.25359,-0.2618035,-1,0,0,0,0,-121.7338,0,0,73,0,0,87,2,213
131.8236,-50.26258,0,130.6957,-68.61813,1,0,0,0,0,-44.95159,-17.36509,0.9419953,0,-44.95159,-17.25846,-0.6613792,0,0,0,0,0,-10,1.272655,-4.49683,-32.88188,0,1.272655,-4.212442,1,0,0,0,0,0,-10,120.6312,3.681096,0.04628968,-21.21384,5.539725,-1,0,0,0,0,-121.2138,0,0,73,0,0,88,2,213
134.3337,-28.79321,0,131.8236,-50.26258,1,0,0,0,0,-46.71291,-17.27576,-9.086776,0,-46.71291,-17.36509,-0.3392019,0,0,0,0,0,-10,1.327709,-4.870151,-29.76082,0,1.327709,-4.49683,1,0,0,0,0,0,-10,118.8721,5.850212,0.04040763,-20.1151,12.07547,-1,0,0,0,0,-120.1151,0,0,73,0,0,89,2,213
140.7197,1.992583,0,134.3337,-28.79321,1,0,0,0,0,-48.06408,-16.74076,-22.45023,0,-46.71291,-17.27576,-0.02830995,0,0,0,0,0,-10,1.327709,-5.542129,-26.87517,0,1.327709,-4.870151,1,0,0,0,0,0,-10,115.024,9.136981,0.02117288,-20.1151,19.19103,-0.9468497,0,0,0,0,-118.6405,0,0,73,0,0,90,2,213
146.9727,23.72113,0,140.7197,1.992583,1,0,0,0,0,-50.54696,-16.22105,-29.9249,0,-48.06408,-16.74076,0.3859572,0,0,0,0,0,-10,-0.02827454,-5.936844,-26.98944,0,1.327709,-5.542129,1,0,0,0,0,0,-10,112.0199,11.05267,0.002532335,-18.64055,29.97295,-0.755455,0,0,0,0,-114.134,0,0,73,0,0,91,2,213
166.2275,67.80596,0,146.9727,23.72113,1,0,0,0,0,-52.30242,-14.8321,-41.53743,0,-52.30242,-16.22105,0.617672,0,0,0,0,0,-10,-0.8511391,-6.768359,-34.14007,0,-0.8511391,-5.936844,1,0,0,0,0,0,-10,105.7335,14.35783,-0.02327518,-11.67354,36.25719,-0.2984361,0,0,0,0,-111.6735,0,0,73,0,0,92,2,213
189.7482,67.76323,0,166.2275,67.80596,1,0,0,0,0,-53.69851,-13.35698,-47.81988,0,-53.69851,-14.8321,0.9776603,0,0,0,0,0,-10,-0.7584419,-7.636351,-46.64246,0,-0.7584419,-6.768359,1,0,0,0,0,0,-10,99.33022,16.75544,-0.02808999,-4.814804,47.09944,0.225193,0,0,0,0,-104.8148,0,0,73,0,0,93,2,213
209.162,30.22337,-35.98738,-170.2518,67.76323,-1,0,0,0,0,-55.50234,-12.38224,-51.09866,0,-53.69851,-13.35698,1,0,0,0,0,0,-10,-1.801521,-8.246704,-56.30774,0,-0.7584419,-7.636351,1,0,0,0,0,0,-10,92.76469,18.18125,-0.03290479,-4.814804,54.96453,0.3101189,0,0,0,0,-99.00785,0,0,73,0,0,94,2,213
218.2472,4.518441,-5.938877,-150.838,30.22337,-1,0,0,0,0,-57.38976,-12.53291,-54.07977,0,-55.50234,-12.38224,1,0,0,0,0,0,-10,-2.766373,-8.402245,-56.83761,0,-1.801521,-8.246704,1,0,0,0,0,0,-10,86.06795,18.81001,-0.03191264,0.9921494,59.64178,0.7071468,0,0,0,0,-92.59932,0,0,73,0,0,95,2,213
220.233,25.54563,0,-141.7528,4.518441,-1,0,0,0,0,-58.45689,-12.5418,-53.42756,0,-58.45689,-12.53291,1,0,0,0,0,0,-10,-3.841328,-8.396214,-54.5397,0,-3.841328,-8.402245,1,0,0,0,0,0,-10,82.48799,19.25573,-0.02157598,14.56086,61.70435,1,0,0,0,0,-85.43914,0,0,73,0,0,96,2,213
219.4311,37.05523,0,-139.767,25.54563,-1,0,0,0,0,-59.13785,-14.01422,-47.9006,0,-59.13785,-12.5418,1,0,0,0,0,0,-10,-4.696072,-8.503288,-45.89429,0,-4.696072,-8.396214,1,0,0,0,0,0,-10,75.43721,19.15423,-0.05774079,18.00589,63.16651,1,0,0,0,0,-81.99411,0,0,73,0,0,97,2,213
213.8546,27.9856,0,-140.5689,37.05523,-1,0,0,0,0,-60.29441,-16.97513,-37.61614,0,-59.13785,-14.01422,1,0,0,0,0,0,-10,-4.814888,-8.878575,-33.4,0,-4.696072,-8.503288,1,0,0,0,0,0,-10,68.85678,17.34268,-0.1122866,18.00589,62.83354,1,0,0,0,0,-75.59406,0,0,73,0,0,98,2,213
207.6876,14.02236,0,-146.1454,27.9856,-1,0,0,0,0,-61.95353,-20.14968,-22.82385,0,-60.29441,-16.97513,0.8561004,0,0,0,0,0,-10,-5.968075,-9.319233,-20.49364,0,-4.814888,-8.878575,1,0,0,0,0,0,-10,63.22055,13.60895,-0.1545978,24.40594,56.89094,1,0,0,0,0,-68.29818,0,0,73,0,0,99,2,213
205.0985,5.305197,0,-152.3124,14.02236,-1,0,0,0,0,-64.33228,-21.37664,-14.06144,0,-64.33228,-20.14968,0.3975395,0,0,0,0,0,-10,-7.990467,-9.433482,-14.62029,0,-7.990467,-9.319233,0.9654145,0,0,0,0,0,-10,60.83675,11.1334,-0.2950811,37.66013,44.6428,1,0,0,0,0,-62.33987,0,0,73,0,0,100,2,213
202.7079,-4.432795,0,-154.9015,5.305197,-1,0,0,0,0,-65.68346,-22.1661,-4.570623,0,-65.68346,-21.37664,0.1259045,0,0,0,0,0,-10,-7.990467,-9.337445,-10.52043,0,-7.990467,-9.433482,0.4250666,0,0,0,0,0,-10,58.67688,8.585791,-0.3996082,39.1347,36.522,1,0,0,0,0,-60.8653,0,0,73,0,0,101,2,213
199.1769,-10.44147,0,-157.2921,-4.432795,-1,0,0,0,0,-66.87283,-22.68303,8.235353,0,-65.68346,-22.1661,-0.1683107,0,0,0,0,0,-10,-9.001667,-8.39154,-13.46893,0,-7.990467,-9.337445,0.04787926,0,0,0,0,0,-10,56.25409,4.152512,-0.4931181,39.1347,28.16483,1,0,0,0,0,-57.88615,0,0,73,0,0,102,2,213
196.5065,-6.402106,0,-160.8231,-10.44147,-1,0,0,0,0,-69.98293,-22.43528,15.49394,0,-66.87283,-22.68303,-0.5652959,0,0,0,0,0,-10,-10.13744,-6.883608,-19.81384,0,-9.001667,-8.39154,0.3191414,0,0,0,0,0,-10,55.74559,0.4717421,-0.5647624,42.11385,13.6219,1,0,0,0,0,-55.98881,0,0,73,0,0,103,2,213
192.774,-4.955173,0,-163.4935,-6.402106,-1,0,0,0,0,-71.40645,-21.65401,23.42064,0,-71.40645,-22.43528,-0.7903122,0,0,0,0,0,-10,-10.08239,-5.717044,-21.66633,0,-10.08239,-6.883608,0.9028732,0,0,0,0,0,-10,56.06173,-1.958469,-0.6822327,44.74128,1.547503,1,0,0,0,0,-55.25872,0,0,73,0,0,104,2,213
186.0492,-19.01877,0,-167.226,-4.955173,-1,0,0,0,0,-73.39366,-19.48005,34.46967,0,-73.39366,-21.65401,-1,0,0,0,0,0,-10,-11.02982,-3.740641,-13.35253,0,-11.02982,-5.717044,1,0,0,0,0,0,-10,57.82168,-5.896974,-0.7355167,44.27669,-6.424561,1,0,0,0,0,-55.72331,0,0,73,0,0,105,2,213
181.3855,-32.56948,0,-173.9508,-19.01877,-1,0,0,0,0,-76.6284,-17.28957,39.6726,0,-73.39366,-19.48005,-1,0,0,0,0,0,-10,-10.91101,-2.373987,-7.236566,0,-11.02982,-3.740641,0.3084331,0,0,0,0,0,-10,59.95678,-8.690205,-0.7716346,44.27669,-19.34443,1,0,0,0,0,-57.33104,0,0,73,0,0,106,2,213
174.2297,-40.8512,0,-178.6145,-32.56948,-1,0,0,0,0,-77.78995,-13.24806,44.56677,0,-76.6284,-17.28957,-1,0,0,0,0,0,-10,-11.11381,-1.364496,0.07850737,0,-10.91101,-2.373987,-0.254236,0,0,0,0,0,-10,64.29316,-12.31333,-0.791007,42.66896,-28.50735,1,0,0,0,0,-59.75173,0,0,73,0,0,107,2,213
168.5309,-31.98516,6.963039,174.2297,-40.8512,1,0,0,0,0,-79.32449,-9.395466,47.62789,0,-79.32449,-13.24806,-1,0,0,0,0,0,-10,-11.01817,-1.286984,5.364613,0,-11.01817,-1.364496,-0.9272227,0,0,0,0,0,-10,69.33084,-14.89938,-0.7677943,35.4513,-40.39266,0.8633066,0,0,0,0,-64.5487,0,0,73,0,0,108,2,213
166.1609,-8.065166,0,168.5309,-31.98516,1,0,0,0,0,-80.94022,-6.256601,50.15451,0,-80.94022,-9.395466,-1,0,0,0,0,0,-10,-12.03513,-1.563536,7.938978,0,-12.03513,-1.286984,-1,0,0,0,0,0,-10,74.80408,-16.5495,-0.7372144,30.57993,-48.87592,0.5096332,0,0,0,0,-69.42007,0,0,73,0,0,109,2,213
157.061,-81.61277,0,166.1609,-8.065166,1,0,0,0,0,-81.8251,-4.155982,52.88151,0,-80.94022,-6.256601,-1,0,0,0,0,0,-10,-12.20605,-2.272735,-0.05208299,0,-12.03513,-1.563536,-1,0,0,0,0,0,-10,80.41904,-17.20875,-0.7066345,30.57993,-54.28899,0.4784499,0,0,0,0,-74.2999,0,0,73,0,0,110,2,213
136.7369,-133.2533,0,157.061,-81.61277,1,0,0,0,0,-82.09207,-3.406735,52.87218,0,-81.8251,-4.155982,-1,0,0,0,0,0,-10,-12.03218,-2.702898,-20.55636,0,-12.20605,-2.272735,-0.9152083,0,0,0,0,0,-10,85.91051,-16.7743,-0.6809344,25.7001,-56.45158,0.1915158,0,0,0,0,-79.96986,0,0,73,0,0,111,2,213
117.4471,-123.7776,0,136.7369,-133.2533,1,0,0,0,0,-82.28427,-1.861639,46.84019,0,-82.28427,-3.406735,-1,0,0,0,0,0,-10,-13.10419,-2.508595,-42.74834,0,-13.10419,-2.702898,0.9711855,0,0,0,0,0,-10,91.59717,-16.73936,-0.6464756,14.42867,-55.0264,-0.4228908,0,0,0,0,-85.57133,0,0,73,0,0,112,2,213
110.1197,-90.46629,0,117.4471,-123.7776,1,0,0,0,0,-82.80544,-1.936646,42.04937,0,-82.80544,-1.861639,-1,0,0,0,0,0,-10,-13.00855,-2.335928,-54.05548,0,-13.00855,-2.508595,1,0,0,0,0,0,-10,95.35741,-15.78468,-0.6379498,8.52578,-54.9118,-0.7613871,0,0,0,0,-91.47422,0,0,73,0,0,113,2,213
104.636,-38.05169,0,110.1197,-90.46629,1,0,0,0,0,-82.77175,-5.145092,37.45867,0,-82.80544,-1.936646,-1,0,0,0,0,0,-10,-13.07808,-3.057728,-65.67816,0,-13.00855,-2.335928,1,0,0,0,0,0,-10,100.1487,-12.29915,-0.629424,8.52578,-51.78007,-0.7171283,0,0,0,0,-95.51235,0,0,73,0,0,114,2,213
103.7983,2.979238,0,104.636,-38.05169,1,0,0,0,0,-83.64195,-8.273714,36.72705,0,-82.77175,-5.145092,-1,0,0,0,0,0,-10,-12.95926,-4.049458,-75.38829,0,-13.07808,-3.057728,1,0,0,0,0,0,-10,103.7565,-9.102294,-0.6249363,4.487648,-40.34614,-0.8204697,0,0,0,0,-99.70057,0,0,73,0,0,115,2,213
105.0091,7.308003,0,103.7983,2.979238,1,0,0,0,0,-84.43739,-9.189928,37.16816,0,-84.43739,-8.273714,-1,0,0,0,0,0,-10,-14.08632,-4.463522,-78.8119,0,-14.08632,-4.049458,1,0,0,0,0,0,-10,105.721,-7.939251,-0.6284572,-3.820282,-29.85917,-1,0,0,0,0,-103.8203,0,0,73,0,0,116,2,213
108.9829,-9.621703,0,105.0091,7.308003,1,0,0,0,0,-85.33005,-10.25736,36.13853,0,-85.33005,-9.189928,-1,0,0,0,0,0,-10,-13.92117,-5.102064,-78.07459,0,-13.92117,-4.463522,1,0,0,0,0,0,-10,108.2302,-6.421403,-0.614315,-5.316406,-26.04392,-1,0,0,0,0,-105.3164,0,0,73,0,0,117,2,213
112.6197,-22.53891,0,108.9829,-9.621703,1,0,0,0,0,-85.64537,-11.20566,33.89795,0,-85.33005,-10.25736,-1,0,0,0,0,0,-10,-13.96751,-5.748336,-74.98052,0,-13.92117,-5.102064,1,0,0,0,0,0,-10,109.5944,-5.252668,-0.5971117,-5.316406,-21.06477,-1,0,0,0,0,-107.6399,0,0,73,0,0,118,2,213
116.7803,-34.32393,0,112.6197,-22.53891,1,0,0,0,0,-86.30732,-11.80149,30.18369,0,-85.64537,-11.20566,-1,0,0,0,0,0,-10,-15.18151,-6.222806,-70.62087,0,-13.96751,-5.748336,1,0,0,0,0,0,-10,110.6989,-4.099227,-0.5896333,-7.639854,-17.23085,-1,0,0,0,0,-108.9246,0,0,73,0,0,119,2,213
123.3116,-46.43491,0,116.7803,-34.32393,1,0,0,0,0,-87.81789,-12.35365,21.83978,0,-87.81789,-11.80149,-1,0,0,0,0,0,-10,-15.36114,-6.786825,-62.98334,0,-15.36114,-6.222806,1,0,0,0,0,0,-10,111.7945,-2.264082,-0.5589898,-9.630577,-13.4471,-1,0,0,0,0,-109.6306,0,0,73,0,0,120,2,213
127.443,-49.7104,0,123.3116,-46.43491,1,0,0,0,0,-89.20188,-12.56353,14.81849,0,-89.20188,-12.35365,-0.9870331,0,0,0,0,0,-10,-16.25352,-7.123496,-58.0204,0,-16.25352,-6.786825,1,0,0,0,0,0,-10,112.1283,-0.953086,-0.5424945,-11.57692,-7.427094,-1,0,0,0,0,-111.5769,0,0,73,0,0,121,2,213
131.3285,-49.31931,0,127.443,-49.7104,1,0,0,0,0,-90.93487,-12.67916,7.091725,0,-89.20188,-12.56353,-0.7693732,0,0,0,0,0,-10,-17.12273,-7.461568,-53.54319,0,-16.25352,-7.123496,1,0,0,0,0,0,-10,112.0256,0.4156556,-0.5230322,-11.57692,-3.126503,-1,0,0,0,0,-111.8086,0,0,73,0,0,122,2,213
135.2882,-45.56058,0,131.3285,-49.31931,1,0,0,0,0,-91.60806,-12.69945,-1.354486,0,-90.93487,-12.67916,-0.5298434,0,0,0,0,0,-10,-18.31356,-7.832668,-49.50447,0,-17.12273,-7.461568,1,0,0,0,0,0,-10,111.5361,1.896338,-0.5106548,-11.80857,1.363517,-1,0,0,0,0,-111.7473,0,0,73,0,0,123,2,213
139.4678,-39.16235,0,135.2882,-45.56058,1,0,0,0,0,-92.28365,-12.61309,-10.10215,0,-92.28365,-12.69945,-0.2680109,0,0,0,0,0,-10,-18.31356,-8.239609,-46.11311,0,-18.31356,-7.832668,1,0,0,0,0,0,-10,110.2459,3.454652,-0.5016763,-11.00998,6.220749,-1,0,0,0,0,-111.01,0,0,73,0,0,124,2,213
144.088,-30.97607,0,139.4678,-39.16235,1,0,0,0,0,-93.97021,-12.4269,-18.8029,0,-93.97021,-12.61309,0.003166797,0,0,0,0,0,-10,-19.50438,-8.640436,-43.54295,0,-19.50438,-8.239609,1,0,0,0,0,0,-10,108.8171,5.034264,-0.5034794,-9.842735,11.33264,-0.9549937,0,0,0,0,-109.8427,0,0,73,0,0,125,2,213
151.6275,-18.73965,0,144.088,-30.97607,1,0,0,0,0,-95.87038,-11.93671,-30.46401,0,-93.97021,-12.4269,0.2728899,0,0,0,0,0,-10,-20.21714,-9.28047,-41.58391,0,-19.50438,-8.640436,1,0,0,0,0,0,-10,105.6682,7.34852,-0.5133221,-9.842735,16.5144,-0.9057127,0,0,0,0,-108.8712,0,0,73,0,0,126,2,213
159.5806,-3.371167,0,151.6275,-18.73965,1,0,0,0,0,-96.9874,-11.3256,-39.16354,0,-95.87038,-11.93671,0.6343844,0,0,0,0,0,-10,-21.28339,-9.775023,-41.78893,0,-20.21714,-9.28047,1,0,0,0,0,0,-10,102.5367,9.252651,-0.5221934,-8.871239,24.10609,-0.7706348,0,0,0,0,-105.1476,0,0,73,0,0,127,2,213
173.8295,24.34876,0,159.5806,-3.371167,1,0,0,0,0,-98.27504,-10.36389,-47.32518,0,-98.27504,-11.3256,0.9040697,0,0,0,0,0,-10,-22.5061,-10.31987,-46.39973,0,-22.5061,-9.775023,1,0,0,0,0,0,-10,97.93587,11.47929,-0.5295995,-2.258499,30.3524,-0.3165527,0,0,0,0,-102.2585,0,0,73,0,0,128,2,213
193.33,50.59317,0,173.8295,24.34876,1,0,0,0,0,-99.53333,-9.35187,-51.07016,0,-99.53333,-10.36389,1,0,0,0,0,0,-10,-23.14933,-10.73041,-56.28666,0,-23.14933,-10.31987,1,0,0,0,0,0,-10,92.85503,13.32478,-0.5275856,2.013855,37.65666,0.02091444,0,0,0,0,-97.98615,0,0,73,0,0,129,2,213
203.2582,53.37161,-36.57956,-166.67,50.59317,-1,0,0,0,0,-100.5056,-9.328943,-51.25484,0,-99.53333,-9.35187,1,0,0,0,0,0,-10,-24.32569,-10.64139,-61.27905,0,-23.14933,-10.73041,1,0,0,0,0,0,-10,90.12753,13.83674,-0.5255718,2.013855,43.71062,0.092004,0,0,0,0,-92.77359,0,0,73,0,0,130,2,213
217.6426,34.38459,-6.995586,-156.7418,53.37161,-1,0,0,0,0,-100.7911,-9.36087,-50.18291,0,-100.5056,-9.328943,1,0,0,0,0,0,-10,-25.52522,-10.59204,-66.2056,0,-24.32569,-10.64139,1,0,0,0,0,0,-10,84.75851,14.72074,-0.5183454,7.22641,45.39003,0.4259853,0,0,0,0,-89.64436,0,0,73,0,0,131,2,213
225.3445,69.14904,0,-142.3574,34.38459,-1,0,0,0,0,-102.0753,-9.248929,-46.60635,0,-102.0753,-9.36087,1,0,0,0,0,0,-10,-26.43502,-10.50022,-65.34754,0,-26.43502,-10.59204,1,0,0,0,0,0,-10,79.241,15.75155,-0.4927073,15.28242,48.2899,0.9600964,0,0,0,0,-84.71758,0,0,73,0,0,132,2,213
228.5124,80.23645,0,-134.6555,69.14904,-1,0,0,0,0,-103.2148,-10.46297,-37.89392,0,-103.2148,-9.248929,1,0,0,0,0,0,-10,-27.45493,-10.31835,-60.60387,0,-27.45493,-10.50022,1,0,0,0,0,0,-10,73.47784,16.0615,-0.4710091,21.69814,51.67138,1,0,0,0,0,-78.30186,0,0,73,0,0,133,2,213
227.8375,77.82357,0,-131.4876,80.23645,-1,0,0,0,0,-104.343,-12.17718,-32.38073,0,-103.2148,-10.46297,0.8647114,0,0,0,0,0,-10,-28.498,-10.13675,-56.49967,0,-27.45493,-10.31835,1,0,0,0,0,0,-10,70.56883,15.46332,-0.4892079,21.69814,52.68816,1,0,0,0,0,-73.2322,0,0,73,0,0,134,2,213
222.6069,61.83676,0,-132.1625,77.82357,-1,0,0,0,0,-105.2205,-15.70266,-17.69039,0,-104.343,-12.17718,0.6938027,0,0,0,0,0,-10,-29.77576,-9.659044,-44.89881,0,-28.498,-10.13675,1,0,0,0,0,0,-10,64.65894,13.27353,-0.5016772,26.7678,50.72588,1,0,0,0,0,-69.96725,0,0,73,0,0,135,2,213
216.1609,29.72134,0,-137.3931,61.83676,-1,0,0,0,0,-106.7702,-18.47856,-3.849599,0,-106.7702,-15.70266,0.2384021,0,0,0,0,0,-10,-30.74061,-8.792091,-33.73777,0,-30.74061,-9.659044,1,0,0,0,0,0,-10,60.74736,9.985886,-0.5744131,36.07264,43.54248,1,0,0,0,0,-63.92736,0,0,73,0,0,136,2,213
211.072,4.526379,0,-143.8391,29.72134,-1,0,0,0,0,-108.5368,-19.85485,6.026561,0,-108.5368,-18.47856,-0.1906624,0,0,0,0,0,-10,-31.5403,-7.798862,-25.60335,0,-31.5403,-8.792091,1,0,0,0,0,0,-10,58.72736,7.040421,-0.6396393,39.8791,32.7577,1,0,0,0,0,-60.1209,0,0,73,0,0,137,2,213
205.9158,-17.66317,0,-148.928,4.526379,-1,0,0,0,0,-110.3906,-20.50008,14.81954,0,-108.5368,-19.85485,-0.4968234,0,0,0,0,0,-10,-32.57468,-6.671871,-18.47663,0,-31.5403,-7.798862,1,0,0,0,0,0,-10,57.45547,4.096128,-0.7084994,39.8791,23.0954,1,0,0,0,0,-57.7505,0,0,73,0,0,138,2,213
201.6219,-24.22413,0,-154.0842,-17.66317,-1,0,0,0,0,-111.3204,-20.61144,20.85096,0,-110.3906,-20.50008,-0.7694056,0,0,0,0,0,-10,-32.6529,-5.422977,-16.03054,0,-32.57468,-6.671871,0.7798502,0,0,0,0,0,-10,56.53047,1.534184,-0.7570784,42.2495,13.43694,1,0,0,0,0,-57.24615,0,0,73,0,0,139,2,213
198.5605,-17.91756,0,-158.3781,-24.22413,-1,0,0,0,0,-113.1629,-20.37999,24.20929,0,-113.1629,-20.61144,-0.9563796,0,0,0,0,0,-10,-33.71045,-4.045983,-19.21928,0,-33.71045,-5.422977,0.5548094,0,0,0,0,0,-10,56.44678,-0.5689121,-0.8371909,43.77819,5.032738,1,0,0,0,0,-56.22181,0,0,73,0,0,140,2,213
196.5558,1.624914,0,-161.4395,-17.91756,-1,0,0,0,0,-115.2508,-19.53214,26.88179,0,-115.2508,-20.37999,-1,0,0,0,0,0,-10,-33.67857,-1.471719,-24.4673,0,-33.67857,-4.045983,0.8481742,0,0,0,0,0,-10,57.68846,-4.248742,-0.8736498,43.89953,-1.866259,1,0,0,0,0,-56.10047,0,0,73,0,0,141,2,213
196.7706,16.88807,0,-163.4442,1.624914,-1,0,0,0,0,-117.5093,-18.78307,29.23313,0,-115.2508,-19.53214,-1,0,0,0,0,0,-10,-33.80314,-0.2285132,-20.53045,0,-33.67857,-1.471719,1,0,0,0,0,0,-10,59.14815,-6.152567,-0.899307,43.89953,-13.93757,1,0,0,0,0,-56.81366,0,0,73,0,0,142,2,213
199.9787,36.74694,0,-163.2294,16.88807,-1,0,0,0,0,-118.9939,-17.31997,34.06688,0,-117.5093,-18.78307,-1,0,0,0,0,0,-10,-33.71621,1.395227,-7.15784,0,-33.80314,-0.2285132,0.968801,0,0,0,0,0,-10,62.34555,-8.781834,-0.9093382,43.18634,-20.18288,1,0,0,0,0,-58.17408,0,0,73,0,0,143,2,213
204.068,41.80329,0,-160.0213,36.74694,-1,0,0,0,0,-121.8796,-15.86327,37.12268,0,-121.8796,-17.31997,-1,0,0,0,0,0,-10,-33.62056,2.242617,4.601126,0,-33.62056,1.395227,-0.2614788,0,0,0,0,0,-10,65.18197,-10.56364,-0.8929946,38.5035,-28.80793,1,0,0,0,0,-61.4965,0,0,73,0,0,144,2,213
211.1518,40.17007,0,-155.932,41.80329,-1,0,0,0,0,-123.4513,-13.00091,39.81392,0,-123.4513,-15.86327,-1,0,0,0,0,0,-10,-33.76831,2.961354,22.85415,0,-33.76831,2.242617,-1,0,0,0,0,0,-10,69.77643,-12.96558,-0.8623275,35.70699,-34.65296,0.8493515,0,0,0,0,-64.29301,0,0,73,0,0,145,2,213
217.7315,34.8499,0,-148.8482,40.17007,-1,0,0,0,0,-124.6481,-10.12078,40.34494,0,-123.4513,-13.00091,-1,0,0,0,0,0,-10,-33.67268,3.183889,36.80153,0,-33.76831,2.961354,-1,0,0,0,0,0,-10,74.95496,-14.45449,-0.8266205,35.70699,-42.5323,0.7951552,0,0,0,0,-69.45862,0,0,73,0,0,146,2,213
222.6139,29.40754,0,-142.2685,34.8499,-1,0,0,0,0,-126.0267,-8.113516,39.47787,0,-124.6481,-10.12078,-1,0,0,0,0,0,-10,-33.71032,3.109821,42.46544,0,-33.67268,3.183889,-1,0,0,0,0,0,-10,80.14697,-14.74498,-0.7960791,30.54138,-47.41652,0.4651454,0,0,0,0,-74.1127,0,0,73,0,0,147,2,213
225.0248,26.65177,0,-137.3861,29.40754,-1,0,0,0,0,-126.7321,-7.076641,38.50417,0,-126.7321,-8.113516,-1,0,0,0,0,0,-10,-32.55713,3.014327,42.57019,0,-32.55713,3.109821,-1,0,0,0,0,0,-10,83.86845,-14.61034,-0.7490199,21.17189,-48.36944,-0.05156201,0,0,0,0,-78.82811,0,0,73,0,0,148,2,213
228.0898,24.76392,0,-134.9752,26.65177,-1,0,0,0,0,-127.4464,-7.14486,36.87489,0,-127.4464,-7.076641,-1,0,0,0,0,0,-10,-32.5716,2.726904,39.89572,0,-32.5716,3.014327,-1,0,0,0,0,0,-10,88.74284,-13.06569,-0.7318934,17.12656,-47.92775,-0.2681108,0,0,0,0,-82.87344,0,0,73,0,0,149,2,213
230.0591,24.13651,0,-131.9102,24.76392,-1,0,0,0,0,-128.233,-8.555338,35.86324,0,-127.4464,-7.14486,-1,0,0,0,0,0,-10,-32.53101,2.290721,37.12668,0,-32.5716,2.726904,-1,0,0,0,0,0,-10,91.69711,-10.72644,-0.7147668,17.12656,-42.86069,-0.1931692,0,0,0,0,-87.66322,0,0,73,0,0,150,2,213
232.8678,25.03947,0,-129.9409,24.13651,-1,0,0,0,0,-129.2127,-10.48041,34.18857,0,-128.233,-8.555338,-1,0,0,0,0,0,-10,-32.60052,1.535471,32.6026,0,-32.53101,2.290721,-1,0,0,0,0,0,-10,94.69262,-7.068174,-0.70243,12.33678,-35.18701,-0.3759206,0,0,0,0,-90.59544,0,0,73,0,0,151,2,213
234.3318,26.29752,0,-127.1322,25.03947,-1,0,0,0,0,-129.6004,-10.95545,32.32866,0,-129.6004,-10.48041,-1,0,0,0,0,0,-10,-32.59182,1.223967,28.96996,0,-32.59182,1.535471,-1,0,0,0,0,0,-10,96.27866,-5.42788,-0.6866888,6.336647,-23.18644,-0.5773206,0,0,0,0,-93.66335,0,0,73,0,0,152,2,213
235.3699,14.80703,0,-125.6682,26.29752,-1,0,0,0,0,-131.0014,-11.83995,28.62276,0,-131.0014,-10.95545,-1,0,0,0,0,0,-10,-32.58311,0.5618555,22.73726,0,-32.58311,1.223967,-1,0,0,0,0,0,-10,97.50255,-2.381289,-0.6823142,4.374649,-17.80562,-0.6273283,0,0,0,0,-95.62535,0,0,73,0,0,153,2,213
234.7249,4.116608,0,-124.6301,14.80703,-1,0,0,0,0,-132.4049,-12.42004,25.69689,0,-131.0014,-11.83995,-1,0,0,0,0,0,-10,-31.38358,0.01670733,18.21528,0,-32.58311,0.5618555,-1,0,0,0,0,0,-10,97.45796,0.07289241,-0.6779396,4.374649,-7.81158,-0.5089217,0,0,0,0,-96.91138,0,0,73,0,0,154,2,213
233.2059,-5.691805,0,-125.2751,4.116608,-1,0,0,0,0,-133.3347,-12.69301,22.18426,0,-132.4049,-12.42004,-1,0,0,0,0,0,-10,-31.46181,-0.3876578,13.68853,0,-31.38358,0.01670733,-1,0,0,0,0,0,-10,96.95376,2.236545,-0.674851,3.088615,0.2391162,-0.4898635,0,0,0,0,-96.40704,0,0,73,0,0,155,2,213
230.919,-15.69691,0,-126.7941,-5.691805,-1,0,0,0,0,-134.9288,-12.58395,17.85292,0,-134.9288,-12.69301,-0.997712,0,0,0,0,0,-10,-31.56321,-0.5026795,8.871527,0,-31.56321,-0.3876578,-1,0,0,0,0,0,-10,96.16826,3.511823,-0.6677695,3.488541,7.336762,-0.3781983,0,0,0,0,-96.51146,0,0,73,0,0,156,2,213
226.4443,-31.50766,0,-129.081,-15.69691,-1,0,0,0,0,-135.6044,-12.30099,10.01126,0,-135.6044,-12.58395,-0.8634406,0,0,0,0,0,-10,-31.56321,-0.5950912,1.549752,0,-31.56321,-0.5026795,-1,0,0,0,0,0,-10,94.0446,5.244053,-0.6635436,4.225822,11.52018,-0.2827325,0,0,0,0,-95.77418,0,0,73,0,0,157,2,213
222.871,-42.21462,0,-133.5557,-31.50766,-1,0,0,0,0,-137.048,-12.06288,3.854166,0,-135.6044,-12.30099,-0.620349,0,0,0,0,0,-10,-32.65264,-0.5834519,-3.312839,0,-31.56321,-0.5950912,-1,0,0,0,0,0,-10,92.18783,5.944117,-0.6593178,4.225822,17.20259,-0.2136705,0,0,0,0,-93.02795,0,0,73,0,0,158,2,213
218.8673,-52.54171,0,-137.129,-42.21462,-1,0,0,0,0,-138.737,-11.86155,-3.014039,0,-137.048,-12.06288,-0.4294792,0,0,0,0,0,-10,-32.65264,-0.5855612,-8.063343,0,-32.65264,-0.5834519,-0.6152189,0,0,0,0,0,-10,90.13278,6.51543,-0.6523457,6.972046,19.49908,-0.01844075,0,0,0,0,-91.18475,0,0,73,0,0,159,2,213
212.5947,-64.49291,0,-141.1327,-52.54171,-1,0,0,0,0,-139.3255,-11.61953,-13.66984,0,-139.3255,-11.86155,-0.2165648,0,0,0,0,0,-10,-32.41795,-0.6594484,-14.23061,0,-32.41795,-0.5855612,-0.1781724,0,0,0,0,0,-10,87.06528,7.544663,-0.6325419,10.98862,21.37322,0.2597648,0,0,0,0,-89.01138,0,0,73,0,0,160,2,213
208.4963,-68.19722,0,-147.4053,-64.49291,-1,0,0,0,0,-140.532,-11.71389,-20.72319,0,-140.532,-11.61953,0.113765,0,0,0,0,0,-10,-32.52806,-0.7282448,-17.57181,0,-32.52806,-0.6594484,0.3892159,0,0,0,0,0,-10,85.15545,7.758385,-0.6185898,13.95211,24.74951,0.4871162,0,0,0,0,-86.04789,0,0,73,0,0,161,2,213
201.5785,-62.63017,0,-151.5037,-68.19722,-1,0,0,0,0,-141.8108,-12.27675,-31.81961,0,-140.532,-11.71389,0.3324189,0,0,0,0,0,-10,-32.58311,-0.8773791,-21.37649,0,-32.52806,-0.7282448,0.6966063,0,0,0,0,0,-10,81.35887,7.890049,-0.6046376,13.95211,25.45061,0.5090678,0,0,0,0,-83.82886,0,0,73,0,0,162,2,213
195.6127,-47.24988,0,-158.4215,-62.63017,-1,0,0,0,0,-143.511,-13.4147,-37.67092,0,-141.8108,-12.27675,0.6764079,0,0,0,0,0,-10,-32.55994,-1.092351,-19.79203,0,-32.58311,-0.8773791,1,0,0,0,0,0,-10,78.14022,7.329798,-0.5884665,16.17114,25.88252,0.6611121,0,0,0,0,-80.63961,0,0,73,0,0,163,2,213
192.7215,-39.79554,0,-164.3873,-47.24988,-1,0,0,0,0,-145.549,-13.82333,-38.57333,0,-145.549,-13.4147,0.8577986,0,0,0,0,0,-10,-32.53677,-1.196656,-17.10747,0,-32.53677,-1.092351,0.9008666,0,0,0,0,0,-10,76.61459,7.29046,-0.5461878,22.91828,24.04467,1,0,0,0,0,-77.08172,0,0,73,0,0,164,2,213
187.5948,-24.85403,0,-167.2785,-39.79554,-1,0,0,0,0,-146.1522,-14.9286,-36.55867,0,-146.1522,-13.82333,0.8857732,0,0,0,0,0,-10,-32.59182,-1.515602,-9.218306,0,-32.59182,-1.196656,0.6538869,0,0,0,0,0,-10,74.07441,6.643733,-0.5298448,24.40003,23.91562,1,0,0,0,0,-75.59997,0,0,73,0,0,165,2,213
185.1569,-3.533159,0,-172.4052,-24.85403,-1,0,0,0,0,-147.431,-16.51418,-28.7701,0,-146.1522,-14.9286,0.8233187,0,0,0,0,0,-10,-32.64688,-2.208838,0.4207569,0,-32.59182,-1.515602,-0.07191589,0,0,0,0,0,-10,72.1209,4.462317,-0.5237325,24.40003,21.7941,1,0,0,0,0,-73.38094,0,0,73,0,0,166,2,213
186.4266,13.4817,0,-174.8431,-3.533159,-1,0,0,0,0,-149.868,-17.36411,-19.11723,0,-147.431,-16.51418,0.581873,0,0,0,0,0,-10,-32.59182,-2.951792,7.419868,0,-32.64688,-2.208838,-0.9587097,0,0,0,0,0,-10,71.05295,2.350183,-0.5135919,26.61906,14.63819,1,0,0,0,0,-71.54492,0,0,73,0,0,167,2,213
189.1992,25.72078,0,-173.5734,13.4817,-1,0,0,0,0,-150.5524,-17.67784,-10.79466,0,-150.5524,-17.36411,0.282634,0,0,0,0,0,-10,-33.75948,-3.528562,11.21078,0,-33.75948,-2.951792,-1,0,0,0,0,0,-10,70.57443,0.5940838,-0.5036505,29.86243,7.709542,1,0,0,0,0,-70.13757,0,0,73,0,0,168,2,213
197.513,52.69529,0,-170.8008,25.72078,-1,0,0,0,0,-152.386,-17.47551,4.407593,0,-152.386,-17.67784,0.02463433,0,0,0,0,0,-10,-33.64936,-4.36734,12.3983,0,-33.64936,-3.528562,-1,0,0,0,0,0,-10,71.28227,-2.910325,-0.5080836,30.21671,1.948833,1,0,0,0,0,-69.78329,0,0,73,0,0,169,2,213
206.077,81.57198,0,-162.487,52.69529,-1,0,0,0,0,-154.0526,-16.79037,14.29164,0,-152.386,-17.47551,-0.4466354,0,0,0,0,0,-10,-33.69571,-4.575006,9.010869,0,-33.64936,-4.36734,-1,0,0,0,0,0,-10,72.6256,-5.416765,-0.5075909,30.21671,-9.54703,1,0,0,0,0,-70.63219,0,0,73,0,0,170,2,213
216.6306,105.0455,0,-153.923,81.57198,-1,0,0,0,0,-155.2082,-15.82415,23.00963,0,-154.0526,-16.79037,-0.7530407,0,0,0,0,0,-10,-34.77643,-4.396063,5.07254,0,-33.69571,-4.575006,-1,0,0,0,0,0,-10,74.48004,-7.557136,-0.4948797,29.36781,-17.76916,1,0,0,0,0,-71.69118,0,0,73,0,0,171,2,213
234.779,115.5329,0,-143.3694,105.0455,-1,0,0,0,0,-156.7652,-14.51783,33.78243,0,-156.7652,-15.82415,-1,0,0,0,0,0,-10,-34.63445,-3.570881,1.881312,0,-34.63445,-4.396063,-1,0,0,0,0,0,-10,78.13929,-9.474617,-0.4439038,26.20395,-24.79043,0.8195325,0,0,0,0,-73.79605,0,0,73,0,0,172,2,213
252.5753,107.1536,0,-125.221,115.5329,-1,0,0,0,0,-158.6635,-13.75878,41.31,0,-158.6635,-14.51783,-1,0,0,0,0,0,-10,-34.80537,-2.636118,1.088345,0,-34.80537,-3.570881,-1,0,0,0,0,0,-10,82.17197,-9.957139,-0.4214738,22.43003,-31.08053,0.5474935,0,0,0,0,-77.56997,0,0,73,0,0,173,2,213
268.0686,95.64053,0,-107.4247,107.1536,-1,0,0,0,0,-160.7006,-13.41541,46.48603,0,-158.6635,-13.75878,-1,0,0,0,0,0,-10,-35.74409,-2.491567,0.07105514,0,-34.80537,-2.636118,-1,0,0,0,0,0,-10,85.51797,-8.862967,-0.3990437,22.43003,-32.6634,0.551863,0,0,0,0,-81.47112,0,0,73,0,0,174,2,213
277.3917,89.02354,0,-91.9314,95.64053,-1,0,0,0,0,-161.5967,-13.08146,49.64304,0,-160.7006,-13.41541,-1,0,0,0,0,0,-10,-35.89185,-3.032616,-1.313166,0,-35.74409,-2.491567,-0.9265371,0,0,0,0,0,-10,87.12166,-7.357776,-0.3805149,18.52888,-29.07408,0.3811395,0,0,0,0,-85.0049,0,0,73,0,0,175,2,213
294.7773,82.68098,0,-82.60834,89.02354,-1,0,0,0,0,-162.3334,-12.25775,55.6151,0,-162.3334,-13.08146,-1,0,0,0,0,0,-10,-35.85996,-3.94212,-4.93463,0,-35.85996,-3.032616,-0.7991887,0,0,0,0,0,-10,89.33905,-4.728028,-0.3518779,13.64186,-24.13645,0.1777314,0,0,0,0,-86.35814,0,0,73,0,0,176,2,213
313.1239,87.96398,0,-65.22269,82.68098,-1,0,0,0,0,-164.5548,-10.66439,61.22939,0,-164.5548,-12.25775,-1,0,0,0,0,0,-10,-35.74115,-5.093985,-7.868605,0,-35.74115,-3.94212,-0.466014,0,0,0,0,0,-10,90.41542,-1.820953,-0.3409497,10.92822,-15.50982,0.1269572,0,0,0,0,-89.07178,0,0,73,0,0,177,2,213
336.7816,101.8691,0,-46.8761,87.96398,-1,0,0,0,0,-165.2021,-8.167829,66.13589,0,-164.5548,-10.66439,-1,0,0,0,0,0,-10,-36.66541,-5.898429,-6.447333,0,-35.74115,-5.093985,-0.1960884,0,0,0,0,0,-10,90.62003,1.137863,-0.3300215,10.92822,-5.973456,0.2466954,0,0,0,0,-89.66489,0,0,73,0,0,178,2,213
352.2664,113.3071,0,-23.21844,101.8691,-1,0,0,0,0,-167.4694,-6.976507,67.70223,0,-165.2021,-8.167829,-1,0,0,0,0,0,-10,-37.95764,-5.977375,-2.263407,0,-36.66541,-5.898429,-0.3268453,0,0,0,0,0,-10,90.18195,2.399261,-0.3196864,10.33511,3.732646,0.3327777,0,0,0,0,-89.70799,0,0,73,0,0,179,2,213
31.1248,148.5771,-0.5484713,-7.733612,113.3071,1,0,0,0,0,-167.2152,-5.607883,65.94609,0,-167.2152,-6.976507,-1,0,0,0,0,0,-10,-37.87942,-5.922864,14.11128,0,-37.87942,-5.977375,-0.7117666,0,0,0,0,0,-10,88.5417,4.192219,-0.2988694,10.52493,7.870534,0.4120097,0,0,0,0,-89.47507,0,0,73,0,0,180,2,213
66.81969,197.7195,0,31.1248,148.5771,1,0,0,0,0,-167.6454,-5.230712,54.09061,0,-167.6454,-5.607883,-1,0,0,0,0,0,-10,-38.96884,-6.153372,27.5174,0,-38.96884,-5.922864,-1,0,0,0,0,0,-10,86.88532,5.223135,-0.2867042,12.16524,13.75216,0.5880786,0,0,0,0,-87.83476,0,0,73,0,0,181,2,213
80.9576,136.9685,0,66.81969,197.7195,1,0,0,0,0,-168.2315,-5.819855,41.66376,0,-167.6454,-5.230712,-1,0,0,0,0,0,-10,-39.92499,-6.744327,27.01501,0,-38.96884,-6.153372,-1,0,0,0,0,0,-10,84.93025,5.395208,-0.2745389,12.16524,17.13397,0.6388303,0,0,0,0,-86.33736,0,0,73,0,0,182,2,213
86.41658,110.015,0,80.9576,136.9685,1,0,0,0,0,-168.9184,-6.381763,33.03191,0,-168.2315,-5.819855,-1,0,0,0,0,0,-10,-39.90181,-7.693133,23.76218,0,-39.92499,-6.744327,-1,0,0,0,0,0,-10,83.81763,4.770417,-0.2608763,13.66264,17.69844,0.7472955,0,0,0,0,-84.25404,0,0,73,0,0,183,2,213
92.706,87.42722,0,86.41658,110.015,1,0,0,0,0,-168.846,-6.969255,19.28908,0,-168.846,-6.381763,-1,0,0,0,0,0,-10,-39.95686,-9.079797,16.55697,0,-39.95686,-7.693133,-1,0,0,0,0,0,-10,82.55812,3.128908,-0.2286399,16.49044,15.64888,0.9230146,0,0,0,0,-83.50956,0,0,73,0,0,184,2,213
97.17923,82.13573,0,92.706,87.42722,1,0,0,0,0,-169.6863,-7.200121,9.53202,0,-169.6863,-6.969255,-0.9079613,0,0,0,0,0,-10,-40.99123,-9.819677,10.22149,0,-40.99123,-9.079797,-1,0,0,0,0,0,-10,82.03237,1.307295,-0.210885,17.7549,10.26407,0.9539446,0,0,0,0,-82.2451,0,0,73,0,0,185,2,213
105.9442,85.53056,0,97.17923,82.13573,1,0,0,0,0,-170.9368,-7.230406,-4.262748,0,-169.6863,-7.200121,-0.6054927,0,0,0,0,0,-10,-41.97055,-10.00921,-1.959529,0,-40.99123,-9.819677,-1,0,0,0,0,0,-10,82.49361,-2.285907,-0.1931301,17.7549,4.288449,0.9035175,0,0,0,0,-81.35645,0,0,73,0,0,186,2,213
114.5546,98.60339,0,105.9442,85.53056,1,0,0,0,0,-171.6653,-7.068538,-12.1566,0,-170.9368,-7.230406,-0.1778548,0,0,0,0,0,-10,-44.00742,-9.317438,-12.45968,0,-41.97055,-10.00921,-0.7397233,0,0,0,0,0,-10,83.52454,-4.429848,-0.1744865,18.64355,-7.498689,0.8401096,0,0,0,0,-82.02394,0,0,73,0,0,187,2,213
132.8833,128.6699,0,114.5546,98.60339,1,0,0,0,0,-172.1478,-6.743918,-18.98749,0,-172.1478,-7.068538,0.06685451,0,0,0,0,0,-10,-43.8973,-7.439888,-31.56164,0,-43.8973,-9.317438,0.2262902,0,0,0,0,0,-10,85.88235,-6.688194,-0.1396547,16.85576,-14.53167,0.6891972,0,0,0,0,-83.14424,0,0,73,0,0,188,2,213
147.695,151.7164,0,132.8833,128.6699,1,0,0,0,0,-172.7262,-6.566336,-18.21931,0,-172.7262,-6.743918,0.2786122,0,0,0,0,0,-10,-45.18954,-5.883116,-45.29934,0,-45.18954,-7.439888,1,0,0,0,0,0,-10,87.81665,-7.547455,-0.1246853,14.96945,-21.93995,0.5083272,0,0,0,0,-85.03055,0,0,73,0,0,189,2,213
162.9368,173.5612,0,147.695,151.7164,1,0,0,0,0,-173.7724,-6.54028,-12.21407,0,-172.7262,-6.566336,0.2547986,0,0,0,0,0,-10,-46.08192,-4.731659,-56.44732,0,-45.18954,-5.883116,1,0,0,0,0,0,-10,89.88898,-7.598821,-0.1097158,14.96945,-24.75867,0.4911351,0,0,0,0,-87.34554,0,0,73,0,0,190,2,213
176.947,189.2304,0,162.9368,173.5612,1,0,0,0,0,-174.2436,-6.608654,-2.037821,0,-173.7724,-6.54028,0.06863606,0,0,0,0,0,-10,-45.99499,-4.158683,-61.70919,0,-46.08192,-4.731659,1,0,0,0,0,0,-10,91.89919,-7.107801,-0.09706135,12.65446,-24.92717,0.3652596,0,0,0,0,-89.81187,0,0,73,0,0,191,2,213
195.0896,192.3436,0,176.947,189.2304,1,0,0,0,0,-174.7237,-6.770834,15.91056,0,-174.7237,-6.608654,-0.2468276,0,0,0,0,0,-10,-47.07571,-3.558986,-58.64617,0,-47.07571,-4.158683,1,0,0,0,0,0,-10,94.59031,-6.339621,-0.07848135,8.391876,-23.31643,0.1506828,0,0,0,0,-91.60812,0,0,73,0,0,192,2,213
206.8245,173.4567,-39.8524,-164.9104,192.3436,-1,0,0,0,0,-175.4492,-6.655251,26.72622,0,-175.4492,-6.770834,-0.8032274,0,0,0,0,0,-10,-47.06699,-3.73857,-50.87704,0,-47.06699,-3.558986,1,0,0,0,0,0,-10,96.15611,-5.62172,-0.07278875,5.692596,-20.79649,0.02584338,0,0,0,0,-94.3074,0,0,73,0,0,193,2,213
223.6945,122.8181,-12.53345,-153.1755,173.4567,-1,0,0,0,0,-175.9317,-6.028243,37.15556,0,-175.4492,-6.655251,-1,0,0,0,0,0,-10,-46.95689,-4.596274,-34.00857,0,-47.06699,-3.73857,1,0,0,0,0,0,-10,97.98078,-4.102765,-0.06709616,5.692596,-18.44149,0.05840652,0,0,0,0,-95.4277,0,0,73,0,0,194,2,213
248.906,184.5936,0,-136.3055,122.8181,-1,0,0,0,0,-176.4118,-5.916183,43.9774,0,-175.9317,-6.028243,-1,0,0,0,0,0,-10,-48.03761,-5.09055,-9.20633,0,-46.95689,-4.596274,1,0,0,0,0,0,-10,99.09727,-2.422351,-0.06252386,4.572296,-13.45871,0.05372345,0,0,0,0,-97.22397,0,0,73,0,0,195,2,213
269.1651,203.6261,0,-111.094,184.5936,-1,0,0,0,0,-177.5846,-5.9307,43.63341,0,-177.5846,-5.916183,-1,0,0,0,0,0,-10,-48.21723,-4.873953,9.672992,0,-48.21723,-5.09055,-0.07301761,0,0,0,0,0,-10,99.57651,-1.957504,-0.05804643,1.701401,-7.94628,-0.04831383,0,0,0,0,-98.2986,0,0,73,0,0,196,2,213
301.9523,223.7506,0,-90.83487,203.6261,-1,0,0,0,0,-178.0759,-5.824772,30.50344,0,-178.0759,-5.9307,-1,0,0,0,0,0,-10,-49.27478,-3.990129,38.62958,0,-49.27478,-4.873953,-1,0,0,0,0,0,-10,100.2989,-1.579667,-0.05679526,1.251175,-6.421397,-0.05623156,0,0,0,0,-98.74883,0,0,73,0,0,197,2,213
319.3937,240.6416,0,-58.04767,223.7506,-1,0,0,0,0,-179.1504,-5.705387,12.66735,0,-178.0759,-5.824772,-1,0,0,0,0,0,-10,-49.2429,-3.605329,50.43134,0,-49.27478,-3.990129,-1,0,0,0,0,0,-10,100.6647,-0.9580693,-0.05554408,1.251175,-5.181939,-0.04083817,0,0,0,0,-99.73341,0,0,73,0,0,198,2,213
329.5482,257.7256,0,-40.60632,240.6416,-1,0,0,0,0,-179.2893,-5.596847,-2.23152,0,-179.1504,-5.705387,-0.7026879,0,0,0,0,0,-10,-50.01071,-3.323867,52.46096,0,-49.2429,-3.605329,-1,0,0,0,0,0,-10,100.808,-0.5893652,-0.0552775,0.2665863,-3.142851,-0.07540616,0,0,0,0,-99.86066,0,0,73,0,0,199,2,213
340.395,279.7025,0,-30.45175,257.7256,-1,0,0,0,0,-179.6994,-5.422113,-18.85223,0,-179.6994,-5.596847,-0.2408229,0,0,0,0,0,-10,-49.95566,-2.972375,48.62271,0,-49.95566,-3.323867,-1,0,0,0,0,0,-10,100.8913,-0.3577344,-0.05537463,-0.2364807,-1.933354,-0.09138893,0,0,0,0,-100.2365,0,0,73,0,0,200,2,213
18.38138,333.5817,0,-19.60504,279.7025,1,0,0,0,0,-179.9536,-4.915395,-49.98401,0,-179.9536,-5.422113,0.274419,0,0,0,0,0,-10,-50.03388,-2.40766,16.93735,0,-50.03388,-2.972375,-1,0,0,0,0,0,-10,100.8864,0.1524489,-0.05584405,-0.4694214,-1.173512,-0.09693438,0,0,0,0,-100.4694,0,0,73,0,0,201,2,213
87.14911,369.622,0,18.38138,333.5817,1,0,0,0,0,-180.7016,-4.288343,-49.40389,0,-179.9536,-4.915395,1,0,0,0,0,0,-10,-49.97883,-1.863003,-46.89933,0,-50.03388,-2.40766,-1,0,0,0,0,0,-10,100.6734,0.7366164,-0.05631347,-0.4694214,0.5000933,-0.07830796,0,0,0,0,-100.4766,0,0,73,0,0,202,2,213
116.3735,326.0533,0,87.14911,369.622,1,0,0,0,0,-181.6143,-4.025849,-27.82186,0,-180.7016,-4.288343,1,0,0,0,0,0,-10,-50.95815,-1.413062,-71.41411,0,-49.97883,-1.863003,1,0,0,0,0,0,-10,100.3666,1.160077,-0.05679008,-0.4766006,2.416397,-0.0573432,0,0,0,0,-99.9566,0,0,73,0,0,203,2,213
133.2195,240.5176,0,116.3735,326.0533,1,0,0,0,0,-181.9521,-3.797359,-3.305638,0,-181.9521,-4.025849,0.5524776,0,0,0,0,0,-10,-50.95815,-1.009924,-81.30017,0,-50.95815,-1.413062,1,0,0,0,0,0,-10,99.84263,1.67136,-0.05633465,0.4120331,3.805518,0.01140038,0,0,0,0,-99.58797,0,0,73,0,0,204,2,213
141.6736,175.2146,0,133.2195,240.5176,1,0,0,0,0,-182.2899,-3.577745,11.21358,0,-182.2899,-3.797359,-0.2075252,0,0,0,0,0,-10,-50.95815,-0.7620926,-82.77596,0,-50.95815,-1.009924,1,0,0,0,0,0,-10,99.28639,2.152155,-0.05555397,0.7806778,5.482729,0.05307176,0,0,0,0,-99.21932,0,0,73,0,0,205,2,213
148.2512,109.4313,0,141.6736,175.2146,1,0,0,0,0,-182.2175,-3.255921,21.37407,0,-182.2899,-3.577745,-0.6576209,0,0,0,0,0,-10,-51.01321,-0.3898441,-79.41386,0,-50.95815,-0.7620926,1,0,0,0,0,0,-10,98.55683,2.624974,-0.05477329,0.7806778,7.059928,0.07184829,0,0,0,0,-98.47484,0,0,73,0,0,206,2,213
153.2994,49.05396,0,148.2512,109.4313,1,0,0,0,0,-182.1452,-2.946507,26.19464,0,-182.2175,-3.255921,-0.9725961,0,0,0,0,0,-10,-51.06826,0.007650943,-72.76471,0,-51.01321,-0.3898441,1,0,0,0,0,0,-10,97.66585,3.113665,-0.05324813,1.525162,8.610964,0.1350028,0,0,0,0,-97.73038,0,0,73,0,0,207,2,213
