MagYaw,YawVelocityDegreesPerSecond,YawIntegral,YawProportional,YawDerivativeError,YawControl,YawIntegralGain,YawDerivativeGain,YawProportionalGain,YawAntiWindupGain,XNEDBodyFrame,XVelocityMetersPerSecond,ThetaPitchDegrees,XIntegral,XProportional,XDerivativeError,LongitudeControl,XIntegralGain,XDerivativeGain,XProportionalGain,XAntiWindupGain,LongitudeInnerLoopGain,XLongitudeOuterLoopSetpoint,PitchAngularVelocityRadsPerSecond,PitchAngularVelocityGain,YNEDBodyFrame,YVelocityMetersPerSecond,PhiRollDegrees,YIntegral,YProportional,YDerivativeError,LateralControl,YIntegralGain,YDerivativeGain,YProportionalGain,YAntiWindupGain,LateralInnerLoopGain,YLateralOuterLoopSetpoint,RollAngularVelocityRadsPerSecond,RollAngularVelocityGain,AltitudeFeetAgl,ZVelocityMetersPerSecond,ZIntegral,ZProportional,ZDerivativeError,MainRotorCollectiveControl,ZIntegralGain,ZDerivativeGain,ZProportionalGain,ZAntiWindupGain,ZNEDBodyFrame,LatitudeDegrees,LongitudeDegrees,Timeouts,UnrecognizedMsgTypes,ChecksumErrors,NumOfBlownFrames,MessageType,NumOfBytesInMsg
6.166092,10.04649,0,0,0,0,0,0,0,0,0,0.01185683,-1.196829,0,0,0,0,0,0,0,0,0,0,0,0,0,0.003795789,0.7667555,0,0,0,0,0,0,0,0,0,0,0,0,0.09310722,0.0002744845,0,0,0,0,0,0,0,0,0,0,0,769,0,0,0,2,229
6.571098,9.688713,0.1541523,6.166092,10.04649,1,0,0,0,0,0,0.01187615,-1.200053,0,0,0.01185683,0.03778499,0,0,0,0,0,0.02204185,0,0,0,0.003965162,0.7547611,0,0,0.003795789,-0.06955104,0,0,0,0,0,0.010766,0,0,0.09315722,0.0001480996,0.09999999,100,0.0009004188,1,0,0,0,0,0,0,0,769,0,0,1,2,229
6.815802,6.747697,0,6.571098,9.688713,1,0,0,0,0,-0.07217097,0.006603029,-1.20127,0,0,0.01187615,0.03788605,0,0,0,0,0,0.02207775,0,0,0.05503213,0.01517888,0.7761833,0,0,0.003965162,-0.06840336,0,0,0,0,0,0.01124639,0,0,0.09330821,-0.001156007,0,100,0.000485826,1,0,0,0,0,-0.7444882,0,0,769,0,0,2,2,229
5.78632,-20.58853,0,6.815802,6.747697,1,0,0,0,0,-0.07217097,0.04716229,-1.200799,0,-0.07217097,0.006603029,0.03697331,0,0,0,0,0,-0.008582382,0,0,0.05503213,0.1863514,0.7960353,0,0.05503213,0.01517888,-0.06017263,0,0,0,0,0,0.122133,0,0,0.5914113,-3.035266,0,99.25551,-0.003792166,1,0,0,0,0,-0.7444882,0,0,769,0,0,3,2,229
1.388876,-50.52775,0,5.78632,-20.58853,1,0,0,0,0,-0.3263178,0.04408029,-0.3951242,0,-0.3263178,0.04716229,0.03929611,0,0,0,0,0,-0.006631151,0,0,-0.02320892,0.3577444,0.7912467,0,-0.02320892,0.1863514,-0.01733332,0,0,0,0,0,0.4951972,0,0,1.978456,-4.486216,0,99.02251,-9.956886,1,0,0,0,0,-0.9774855,0,0,769,0,0,4,2,229
358.3689,-60.41674,0,1.388876,-50.52775,-1,0,0,0,0,-0.1327744,0.0317855,0.258563,0,-0.1327744,0.04408029,0.01359963,0,0,0,0,0,0.04357347,0,0,0.08685535,0.4233056,0.7327732,0,0.08685535,0.3577444,0.03203761,0,0,0,0,0,1.139482,0,0,2.779721,-4.864068,0,97.16499,-14.71658,1,0,0,0,0,-2.835018,0,0,769,0,0,5,2,229
351.3044,-73.35758,0,-1.631104,-60.41674,-1,0,0,0,0,-0.1472728,-0.01299299,1.99187,0,-0.1327744,0.0317855,-0.007373212,0,0,0,0,0,0.02071745,0,0,-0.2028998,0.5279592,0.4349935,0,0.08685535,0.4233056,0.05452469,0,0,0,0,0,1.325433,0,0,4.506121,-5.336317,0,97.16499,-15.95609,1,0,0,0,0,-3.526633,0,0,769,0,0,6,2,229
345.6715,-35.07693,0,-8.695557,-73.35758,-1,0,0,0,0,-0.2916148,-0.06497614,4.19401,0,-0.1472728,-0.01299299,-0.06381617,0,0,0,0,0,-0.06671582,0,0,-0.09283566,0.4163198,-0.3294476,0,-0.2028998,0.5279592,0.07092188,0,0,0,0,0,1.205884,0,0,6.335801,-5.607502,0,96.47337,-17.50525,1,0,0,0,0,-5.01561,0,0,769,0,0,7,2,229
346.0474,7.5332,0,-14.32852,-35.07693,-1,0,0,0,0,-0.3522182,-0.09783573,5.425251,0,-0.3522182,-0.06497614,-0.1363714,0,0,0,0,0,-0.2225817,0,0,-0.06101251,0.2543321,-0.9888058,0,-0.06101251,0.4163198,0.1266702,0,0,0,0,0,1.093133,0,0,7.273736,-5.689909,0,92.89386,-18.39485,1,0,0,0,0,-7.106139,0,0,769,0,0,8,2,229
352.9689,88.378,0,-13.95264,7.5332,-1,0,0,0,0,-0.08650351,-0.1857583,8.217255,0,-0.08650351,-0.09783573,-0.174596,0,0,0,0,0,-0.2068761,0,0,-0.005980015,-0.087962,-2.184502,0,-0.005980015,0.2543321,0.1565449,0,0,0,0,0,0.7127689,0,0,9.172248,-5.779878,0,91.78082,-18.66518,1,0,0,0,0,-8.219183,0,0,769,0,0,9,2,229
6.915516,153.001,0,-7.031067,88.378,1,0,0,0,0,-0.07493591,-0.2764966,11.30628,0,-0.08650351,-0.1857583,-0.2662149,0,0,0,0,0,-0.3703242,0,0,-0.02918911,-0.3976605,-2.246253,0,-0.005980015,-0.087962,0.1772308,0,0,0,0,0,-0.2580799,0,0,11.0831,-5.810958,0,91.78082,-18.96031,1,0,0,0,0,-9.565226,0,0,769,0,0,10,2,229
6.915516,153.001,0.1024092,6.915516,153.001,1,0,0,0,0,-0.1355391,-0.2764966,11.30628,0,-0.07493591,-0.2764966,-0.3671002,0,0,0,0,0,-0.5356637,0,0,0.002634048,-0.3976605,-2.246253,0,-0.02918911,-0.3976605,0.09903102,0,0,0,0,0,-1.169829,0,0,11.0831,-5.810958,0,90.43478,-19.06227,1,0,0,0,0,-11.65575,0,0,769,0,0,11,2,229
6.915516,153.001,0,6.915516,153.001,1,0,0,0,0,-0.1355391,-0.2764966,11.30628,0,-0.1355391,-0.2764966,-0.3676432,0,0,0,0,0,-0.5531781,0,0,0.002634048,-0.3976605,-2.246253,0,0.002634048,-0.3976605,0.1032382,0,0,0,0,0,-1.124099,0,0,11.0831,-5.810958,0,88.34425,-19.06227,1,0,0,0,0,-11.65575,0,0,769,0,0,12,2,229
24.03782,153.8372,0,6.915516,153.001,1,0,0,0,0,-0.1355391,-0.4689782,13.93324,0,-0.1355391,-0.2764966,-0.3676432,0,0,0,0,0,-0.5531781,0,0,0.002634048,-0.4879034,-0.4138605,0,0.002634048,-0.3976605,0.1032382,0,0,0,0,0,-1.124099,0,0,12.99762,-5.825282,0,88.34425,-19.06227,1,0,0,0,0,-11.65575,0,0,769,0,0,13,2,229
30.73837,129.3743,0,24.03782,153.8372,1,0,0,0,0,-0.1961427,-0.6443046,14.86829,0,-0.1355391,-0.4689782,-0.4601714,0,0,0,0,0,-0.9110013,0,0,0.03445721,-0.4654321,0.8686655,0,0.002634048,-0.4879034,-0.08888992,0,0,0,0,0,-1.380055,0,0,13.9586,-5.843958,0,88.34425,-19.10925,1,0,0,0,0,-13.74628,0,0,769,0,0,14,2,229
41.07632,89.48213,0,30.73837,129.3743,1,0,0,0,0,-0.2683134,-1.021402,16.25234,0,-0.1961427,-0.6443046,-0.4998049,0,0,0,0,0,-1.254447,0,0,0.08948946,-0.4942301,3.623697,0,0.03445721,-0.4654321,-0.1968115,0,0,0,0,0,-1.27059,0,0,15.89126,-5.892782,0,86.25372,-19.17052,1,0,0,0,0,-14.49077,0,0,769,0,0,15,2,229
44.98894,73.9641,0,41.07632,89.48213,1,0,0,0,0,-0.4271536,-1.19581,16.74296,0,-0.4271536,-1.021402,-0.5650887,0,0,0,0,0,-2.022234,0,0,-0.09020138,-0.5388759,4.787282,0,-0.09020138,-0.4942301,-0.4505134,0,0,0,0,0,-1.531404,0,0,16.86366,-5.920363,0,83.32864,-19.33068,1,0,0,0,0,-16.67136,0,0,769,0,0,16,2,229
50.9257,50.37145,0,44.98894,73.9641,1,0,0,0,0,-0.7534714,-1.543372,17.41266,0,-0.7534714,-1.19581,-0.5946954,0,0,0,0,0,-2.440764,0,0,-0.1134105,-0.6685905,6.330451,0,-0.1134105,-0.5388759,-0.5960374,0,0,0,0,0,-1.691385,0,0,18.81887,-5.969056,0,82.35115,-19.42116,1,0,0,0,0,-17.64885,0,0,769,0,0,17,2,229
55.02877,35.02306,0,50.9257,50.37145,1,0,0,0,0,-0.8140755,-1.840614,17.70061,0,-0.7534714,-1.543372,-0.6354857,0,0,0,0,0,-3.086881,0,0,-0.08158731,-0.8426156,6.373745,0,-0.1134105,-0.6685905,-0.7718565,0,0,0,0,0,-2.059294,0,0,20.78857,-6.020964,0,82.35115,-19.58089,1,0,0,0,0,-19.73938,0,0,769,0,0,18,2,229
57.98257,26.27012,0,55.02877,35.02306,1,0,0,0,0,-0.620532,-2.047551,17.50491,0,-0.8140755,-1.840614,-0.6620849,0,0,0,0,0,-3.65697,0,0,0.02847719,-1.051944,3.99068,0,-0.08158731,-0.8426156,-0.8170425,0,0,0,0,0,-2.507151,0,0,22.77922,-6.095478,0,80.26062,-19.75117,1,0,0,0,0,-21.59691,0,0,769,0,0,19,2,229
59.24372,24.31786,0,57.98257,26.27012,1,0,0,0,0,-1.091191,-2.098485,17.2044,0,-1.091191,-2.047551,-0.6662098,0,0,0,0,0,-4.121751,0,0,0.1153321,-1.167329,1.83628,0,0.1153321,-1.051944,-0.6378716,0,0,0,0,0,-2.817896,0,0,23.78579,-6.148622,0,75.93663,-19.99561,1,0,0,0,0,-24.06337,0,0,769,0,0,20,2,229
60.48748,23.92993,0,59.24372,24.31786,1,0,0,0,0,-1.007453,-2.118985,16.76684,0,-1.007453,-2.098485,-0.6632959,0,0,0,0,0,-4.192238,0,0,0.03709173,-1.287738,-0.9089413,0,0.03709173,-1.167329,-0.4686365,0,0,0,0,0,-3.257595,0,0,24.80275,-6.212974,0,75.33508,-20.16994,1,0,0,0,0,-24.66493,0,0,769,0,0,21,2,229
63.31884,27.74717,0,60.48748,23.92993,1,0,0,0,0,-1.250031,-2.036351,15.52123,0,-1.007453,-2.118985,-0.6509126,0,0,0,0,0,-4.230347,0,0,-0.06435871,-1.530122,-7.756707,0,0.03709173,-1.287738,-0.2474954,0,0,0,0,0,-3.599109,0,0,26.87618,-6.380119,0,75.33508,-20.38104,1,0,0,0,0,-26.24397,0,0,769,0,0,22,2,229
65.08984,31.74576,0,63.31884,27.74717,1,0,0,0,0,-1.986405,-1.939137,14.79147,0,-1.250031,-2.036351,-0.6097101,0,0,0,0,0,-4.146836,0,0,-0.03253555,-1.645709,-11.3675,0,-0.06435871,-1.530122,0.3058392,0,0,0,0,0,-4.432368,0,0,27.93565,-6.475087,0,73.75603,-20.92934,1,0,0,0,0,-27.59738,0,0,769,0,0,23,2,229
67.18842,36.81868,0,65.08984,31.74576,1,0,0,0,0,-1.564782,-1.78356,14.06206,0,-1.564782,-1.939137,-0.5880822,0,0,0,0,0,-4.057077,0,0,-0.1107769,-1.755351,-15.00593,0,-0.1107769,-1.645709,0.6120782,0,0,0,0,0,-4.826911,0,0,29.01246,-6.579705,0,71.43251,-21.24088,1,0,0,0,0,-28.56749,0,0,769,0,0,24,2,229
69.66184,42.7859,0,67.18842,36.81868,1,0,0,0,0,-2.047009,-1.598409,13.38896,0,-2.047009,-1.78356,-0.5570477,0,0,0,0,0,-3.907223,0,0,-0.0007123947,-1.852808,-18.41291,0,-0.0007123947,-1.755351,0.9224108,0,0,0,0,0,-4.979725,0,0,30.10697,-6.687083,0,70.31209,-21.58406,1,0,0,0,0,-29.68791,0,0,769,0,0,25,2,229
75.80217,57.06628,0,69.66184,42.7859,1,0,0,0,0,-2.373327,-1.231977,12.52694,0,-2.047009,-1.598409,-0.5255116,0,0,0,0,0,-3.563029,0,0,-0.02392006,-2.002117,-22.50902,0,-0.0007123947,-1.852808,1,0,0,0,0,0,-5.256144,0,0,32.34208,-6.8663,0,70.31209,-21.93631,1,0,0,0,0,-30.6654,0,0,769,0,0,26,2,229
79.43813,64.84346,0,75.80217,57.06628,1,0,0,0,0,-2.078938,-1.039722,12.44166,0,-2.373327,-1.231977,-0.4805954,0,0,0,0,0,-2.976137,0,0,-0.8931866,-2.054392,-22.88061,0,-0.02392006,-2.002117,1,0,0,0,0,0,-5.712979,0,0,33.47767,-6.931401,0,69.3346,-22.52421,1,0,0,0,0,-33.1088,0,0,769,0,0,27,2,229
83.42194,72.57661,0,79.43813,64.84346,1,0,0,0,0,-2.659401,-0.8444452,12.57058,0,-2.659401,-1.039722,-0.4642347,0,0,0,0,0,-2.70141,0,0,-0.9946365,-2.091043,-22.23286,0,-0.9946365,-2.054392,1,0,0,0,0,0,-7.256166,0,0,34.62315,-6.989062,0,65.68072,-22.73777,1,0,0,0,0,-34.31928,0,0,769,0,0,28,2,229
92.27116,85.98665,0,83.42194,72.57661,1,0,0,0,0,-2.237778,-0.5168748,13.29122,0,-2.237778,-0.8444452,-0.4584007,0,0,0,0,0,-2.216541,0,0,-1.072878,-2.153085,-18.30641,0,-1.072878,-2.091043,1,0,0,0,0,0,-7.472552,0,0,36.93616,-7.069873,0,64.71061,-22.92692,1,0,0,0,0,-35.28939,0,0,769,0,0,29,2,229
97.07911,91.48295,0,92.27116,85.98665,1,0,0,0,0,-2.29838,-0.4040464,13.75248,0,-2.237778,-0.5168748,-0.4618631,0,0,0,0,0,-1.607588,0,0,-1.041055,-2.188873,-15.18878,0,-1.072878,-2.153085,0.9805257,0,0,0,0,0,-7.648521,0,0,38.09896,-7.089195,0,64.71061,-23.19201,1,0,0,0,0,-37.37992,0,0,769,0,0,30,2,229
107.2399,98.66101,0,97.07911,91.48295,1,0,0,0,0,-2.442724,-0.2858843,14.45837,0,-2.29838,-0.4040464,-0.4702029,0,0,0,0,0,-1.415354,0,0,-0.9309902,-2.314374,-7.056434,0,-1.041055,-2.188873,0.6885727,0,0,0,0,0,-7.704295,0,0,40.43221,-7.113684,0,62.62008,-23.2554,1,0,0,0,0,-38.8689,0,0,769,0,0,31,2,229
112.4564,100.0623,0,107.2399,98.66101,1,0,0,0,0,-2.503326,-0.2866023,14.56691,0,-2.503326,-0.2858843,-0.486569,0,0,0,0,0,-1.25492,0,0,-0.8991661,-2.41982,-2.184309,0,-0.8991661,-2.314374,-0.07780052,0,0,0,0,0,-7.85636,0,0,41.59652,-7.098994,0,59.04057,-23.33573,1,0,0,0,0,-40.95943,0,0,769,0,0,32,2,229
117.6547,99.93929,0,112.4564,100.0623,1,0,0,0,0,-2.081701,-0.3217409,14.4477,0,-2.081701,-0.2866023,-0.4867409,0,0,0,0,0,-1.134405,0,0,-0.9774075,-2.562852,3.125954,0,-0.9774075,-2.41982,-0.5596875,0,0,0,0,0,-8.267869,0,0,42.75507,-7.065773,0,58.07047,-23.28754,1,0,0,0,0,-41.92953,0,0,769,0,0,33,2,229
127.6009,94.46487,0,117.6547,99.93929,1,0,0,0,0,-2.208937,-0.4050661,13.43879,0,-2.081701,-0.3217409,-0.4850702,0,0,0,0,0,-1.199728,0,0,-1.768433,-2.910124,13.43137,0,-0.9774075,-2.562852,-1,0,0,0,0,0,-8.673552,0,0,45.05129,-6.989913,0,58.07047,-23.17856,1,0,0,0,0,-43.40283,0,0,769,0,0,34,2,229
132.1238,89.13857,0,127.6009,94.46487,1,0,0,0,0,-2.777832,-0.4379733,12.55049,0,-2.208937,-0.4050661,-0.459736,0,0,0,0,0,-1.391401,0,0,-1.893092,-3.10263,16.95693,0,-1.768433,-2.910124,-1,0,0,0,0,0,-10,0,0,46.19094,-6.95793,0,56.59717,-22.92971,1,0,0,0,0,-45.95935,0,0,769,0,0,35,2,229
136.2694,83.33038,0,132.1238,89.13857,1,0,0,0,0,-2.694096,-0.4919342,11.44589,0,-2.694096,-0.4379733,-0.4391916,0,0,0,0,0,-1.592786,0,0,-1.971333,-3.339316,19.40302,0,-1.971333,-3.10263,-1,0,0,0,0,0,-10,0,0,47.32085,-6.902421,0,53.43909,-22.82479,1,0,0,0,0,-46.56091,0,0,769,0,0,36,2,229
143.5546,73.45619,0,136.2694,83.33038,1,0,0,0,0,-2.500551,-0.5642132,8.814587,0,-2.500551,-0.4919342,-0.4055746,0,0,0,0,0,-1.637165,0,0,-1.861269,-3.80707,20.68936,0,-1.861269,-3.339316,-1,0,0,0,0,0,-10,0,0,49.55865,-6.820738,0,51.58156,-22.6427,1,0,0,0,0,-48.41844,0,0,769,0,0,37,2,229
146.8234,70.09079,0,143.5546,73.45619,1,0,0,0,0,-2.561155,-0.587278,7.386136,0,-2.500551,-0.5642132,-0.3281697,0,0,0,0,0,-1.771532,0,0,-1.829445,-4.031739,19.82093,0,-1.861269,-3.80707,-1,0,0,0,0,0,-10,0,0,50.67075,-6.804819,0,51.58156,-22.37475,1,0,0,0,0,-50.50897,0,0,769,0,0,38,2,229
146.8234,70.09079,0,146.8234,70.09079,1,0,0,0,0,-2.460308,-0.587278,7.386136,0,-2.561155,-0.587278,-0.2857598,0,0,0,0,0,-1.831924,0,0,-2.808775,-4.031739,19.82093,0,-1.829445,-4.031739,-1,0,0,0,0,0,-10,0,0,50.67075,-6.804819,0,49.49103,-22.32253,1,0,0,0,0,-51.09484,0,0,769,0,0,39,2,229
149.994,68.58493,0,146.8234,70.09079,1,0,0,0,0,-2.460308,-0.598658,5.933488,0,-2.460308,-0.587278,-0.2848563,0,0,0,0,0,-1.802779,0,0,-2.808775,-4.233171,18.09284,0,-2.808775,-4.031739,-1,0,0,0,0,0,-10,0,0,51.7844,-6.817733,0,48.90516,-22.32253,1,0,0,0,0,-51.09484,0,0,769,0,0,40,2,229
156.5511,71.39832,0,149.994,68.58493,1,0,0,0,0,-2.60465,-0.5939615,3.126136,0,-2.60465,-0.598658,-0.2417732,0,0,0,0,0,-1.865649,0,0,-2.698711,-4.534019,12.43646,0,-2.698711,-4.233171,-1,0,0,0,0,0,-10,0,0,54.03822,-6.943412,0,47.41618,-22.36489,1,0,0,0,0,-52.58382,0,0,769,0,0,41,2,229
160.1687,75.71132,0,156.5511,71.39832,1,0,0,0,0,-2.763491,-0.5936433,1.823375,0,-2.60465,-0.5939615,-0.1544747,0,0,0,0,0,-1.856918,0,0,-2.878401,-4.617037,8.650457,0,-2.698711,-4.534019,-1,0,0,0,0,0,-10,0,0,55.19156,-7.068099,0,47.41618,-22.77717,1,0,0,0,0,-54.7644,0,0,769,0,0,42,2,229
164.1497,81.77871,0,160.1687,75.71132,1,0,0,0,0,-2.341867,-0.6015978,0.6352185,0,-2.763491,-0.5936433,-0.1154938,0,0,0,0,0,-1.902232,0,0,-2.956644,-4.645644,4.290725,0,-2.878401,-4.617037,-1,0,0,0,0,0,-10,0,0,56.37222,-7.235216,0,45.2356,-23.18619,1,0,0,0,0,-55.73451,0,0,769,0,0,43,2,229
173.5017,97.85479,0,164.1497,81.77871,1,0,0,0,0,-2.567339,-0.6539664,-1.015999,0,-2.567339,-0.6015978,-0.07534204,0,0,0,0,0,-1.860331,0,0,-3.959181,-4.51147,-5.961823,0,-3.959181,-4.645644,-1,0,0,0,0,0,-10,0,0,58.84284,-7.696175,0,42.70213,-23.7344,1,0,0,0,0,-57.29787,0,0,769,0,0,44,2,229
178.9521,107.4225,0,173.5017,97.85479,1,0,0,0,0,-2.700113,-0.7200565,-1.226196,0,-2.700113,-0.6539664,-0.03038177,0,0,0,0,0,-1.996056,0,0,-3.872326,-4.333681,-11.68658,0,-3.872326,-4.51147,-0.3715123,0,0,0,0,0,-10,0,0,60.14548,-7.979309,0,39.86711,-25.24653,1,0,0,0,0,-60.13289,0,0,769,0,0,45,2,229
178.9521,107.4225,0,178.9521,107.4225,1,0,0,0,0,-2.78124,-0.7200565,-1.226196,0,-2.700113,-0.7200565,-0.02767436,0,0,0,0,0,-2.118918,0,0,-4.98493,-4.333681,-11.68658,0,-3.872326,-4.333681,0.1551652,0,0,0,0,0,-10,0,0,60.14548,-7.979309,0,39.86711,-26.17533,1,0,0,0,0,-60.20727,0,0,769,0,0,46,2,229
191.3696,128.6504,0,178.9521,107.4225,1,0,0,0,0,-2.78124,-0.9730021,0.2016741,0,-2.78124,-0.7200565,-0.02840118,0,0,0,0,0,-2.142364,0,0,-4.98493,-3.794379,-23.23462,0,-4.98493,-4.333681,0.1551652,0,0,0,0,0,-10,0,0,62.89376,-8.546453,0,39.79273,-26.17533,1,0,0,0,0,-60.20727,0,0,769,0,0,47,2,229
198.1882,139.3595,-10.36691,-168.6304,128.6504,-1,0,0,0,0,-2.674368,-1.137269,2.0829,0,-2.674368,-0.9730021,-0.08724217,0,0,0,0,0,-2.581703,0,0,-5.109589,-3.509712,-27.63989,0,-5.109589,-3.794379,1,0,0,0,0,0,-10,0,0,64.32758,-8.771445,0,36.4991,-28.03579,1,0,0,0,0,-63.5009,0,0,769,0,0,48,2,229
205.2689,149.2066,0,-161.8118,139.3595,-1,0,0,0,0,-2.6628,-1.353498,4.764661,0,-2.6628,-1.137269,-0.1539656,0,0,0,0,0,-2.883732,0,0,-5.132797,-3.179671,-30.92556,0,-5.132797,-3.509712,1,0,0,0,0,0,-10,0,0,65.79565,-8.976947,0,35.15306,-28.77385,1,0,0,0,0,-64.84694,0,0,769,0,0,49,2,229
212.5324,157.4504,0,-154.7311,149.2066,-1,0,0,0,0,-2.807144,-1.60206,8.138259,0,-2.6628,-1.353498,-0.2495612,0,0,0,0,0,-3.285701,0,0,-5.022734,-2.839716,-33.09174,0,-5.132797,-3.179671,1,0,0,0,0,0,-10,0,0,67.29262,-9.151577,0,35.15306,-29.44798,1,0,0,0,0,-66.33592,0,0,769,0,0,50,2,229
222.2391,215.2842,0,-147.4676,157.4504,-1,0,0,0,0,-2.79557,-1.954674,13.3692,0,-2.807144,-1.60206,-0.3697604,0,0,0,0,0,-3.789495,0,0,-5.045942,-2.476004,-33.15482,0,-5.022734,-2.839716,1,0,0,0,0,0,-10,0,0,68.7897,-9.151758,0,33.66408,-30.02083,1,0,0,0,0,-67.68196,0,0,769,0,0,51,2,229
222.2391,215.2842,0,-137.7609,215.2842,-1,0,0,0,0,-2.584927,-1.954674,13.3692,0,-2.584927,-1.954674,-0.5521367,0,0,0,0,0,-4.380783,0,0,-5.836967,-2.476004,-33.15482,0,-5.836967,-2.476004,1,0,0,0,0,0,-10,0,0,68.7897,-9.151758,0,30.47619,-30.02143,1,0,0,0,0,-69.52381,0,0,769,0,0,52,2,229
250.9498,323.5679,0,-137.7609,215.2842,-1,0,0,0,0,-2.584927,-2.689075,27.28576,0,-2.584927,-1.954674,-0.5502495,0,0,0,0,0,-4.380783,0,0,-5.836967,-1.920899,-24.33204,0,-5.836967,-2.476004,1,0,0,0,0,0,-10,0,0,71.75575,-9.035739,0,30.47619,-30.02143,1,0,0,0,0,-69.52381,0,0,769,0,0,53,2,229
250.9498,323.5679,0,-109.0502,323.5679,-1,0,0,0,0,-3.563877,-2.689075,27.28576,0,-2.584927,-2.689075,-1,0,0,0,0,0,-5.746034,0,0,-5.906593,-1.920899,-24.33204,0,-5.836967,-1.920899,1,0,0,0,0,0,-10,0,0,71.75575,-9.035739,0,30.47619,-29.64084,1,0,0,0,0,-72.45627,0,0,769,0,0,54,2,229
250.9498,323.5679,0,-109.0502,323.5679,-1,0,0,0,0,-3.563877,-2.689075,27.28576,0,-3.563877,-2.689075,-1,0,0,0,0,0,-6.028951,0,0,-5.906593,-1.920899,-24.33204,0,-5.906593,-1.920899,1,0,0,0,0,0,-10,0,0,71.75575,-9.035739,0,27.54373,-29.64084,1,0,0,0,0,-72.45627,0,0,769,0,0,55,2,229
250.9498,323.5679,0,-109.0502,323.5679,-1,0,0,0,0,-3.563877,-2.689075,27.28576,0,-3.563877,-2.689075,-1,0,0,0,0,0,-6.028951,0,0,-5.906593,-1.920899,-24.33204,0,-5.906593,-1.920899,1,0,0,0,0,0,-10,0,0,71.75575,-9.035739,0,27.54373,-29.64084,1,0,0,0,0,-72.45627,0,0,769,0,0,56,2,229
294.2346,385.4014,0,-109.0502,323.5679,-1,0,0,0,0,-3.563877,-3.120104,35.19397,0,-3.563877,-2.689075,-1,0,0,0,0,0,-6.028951,0,0,-5.906593,-1.556873,0.7256097,0,-5.906593,-1.920899,1,0,0,0,0,0,-10,0,0,74.68802,-8.951264,0,27.54373,-29.64084,1,0,0,0,0,-72.45627,0,0,769,0,0,57,2,229
318.2811,401.9482,0,-65.76535,385.4014,-1,0,0,0,0,-3.696651,-3.238071,32.47662,0,-3.563877,-3.120104,-1,0,0,0,0,0,-6.830235,0,0,-5.819738,-1.284152,16.25325,0,-5.906593,-1.556873,-0.9867561,0,0,0,0,0,-10,0,0,76.15203,-8.951012,0,27.54373,-29.36373,1,0,0,0,0,-75.29129,0,0,769,0,0,58,2,229
340.2876,412.8657,0,-41.71893,401.9482,-1,0,0,0,0,-3.685085,-3.346216,25.01746,0,-3.696651,-3.238071,-1,0,0,0,0,0,-7.087907,0,0,-5.842947,-0.9083125,29.57785,0,-5.819738,-1.284152,-1,0,0,0,0,0,-10,0,0,77.61737,-8.95776,0,24.70871,-29.3629,1,0,0,0,0,-76.63733,0,0,769,0,0,59,2,229
16.78107,427.8248,-3.61517,-19.7124,412.8657,1,0,0,0,0,-3.673519,-3.622951,1.012707,0,-3.673519,-3.346216,-1,0,0,0,0,0,-7.282262,0,0,-5.866156,-0.1412211,42.72423,0,-5.866156,-0.9083125,-1,0,0,0,0,0,-10,0,0,80.5388,-8.890982,0.02763551,22.01663,-29.38504,0.9915537,0,0,0,0,-77.98337,0,0,769,0,0,60,2,229
33.94334,434.1182,-5.956486,16.78107,427.8248,1,0,0,0,0,-3.806293,-3.802746,-12.74825,0,-3.806293,-3.622951,-0.2742815,0,0,0,0,0,-7.835084,0,0,-5.779301,0.2453839,40.53637,0,-5.779301,-0.1412211,-1,0,0,0,0,0,-8.7054,0,0,81.98258,-8.81374,0.04681713,19.18162,-29.16598,0.8459406,0,0,0,0,-80.81838,0,0,769,0,0,61,2,229
75.14869,416.4763,-14.624,33.94334,434.1182,1,0,0,0,0,-4.303017,-4.338784,-35.35861,0,-3.806293,-3.802746,0.1419466,0,0,0,0,0,-8.169324,0,0,-5.95899,0.9631119,18.25814,0,-5.779301,0.2453839,-1,0,0,0,0,0,-7.608873,0,0,84.79565,-8.51387,0.06599875,19.18162,-28.91259,0.8680134,0,0,0,0,-82.63042,0,0,769,0,0,62,2,229
140.5501,336.7477,-24.6693,75.14869,416.4763,1,0,0,0,0,-4.845844,-5.013508,-34.50094,0,-4.303017,-4.338784,0.8075264,0,0,0,0,0,-9.309371,0,0,-5.817102,1.481512,-33.21038,0,-5.95899,0.9631119,-1,0,0,0,0,0,-5.831395,0,0,88.65066,-7.821327,0.08336832,17.36958,-27.9289,0.7896782,0,0,0,0,-85.84137,0,0,769,0,0,63,2,229
156.3221,321.3051,-63.39883,140.5501,336.7477,1,0,0,0,0,-5.642826,-5.148172,-26.72077,0,-5.642826,-5.013508,0.7595291,0,0,0,0,0,-10,0,0,-5.753456,1.813652,-45.27646,0,-5.753456,1.481512,1,0,0,0,0,0,-4.065704,0,0,89.86639,-7.688098,0.1082416,10.71468,-25.65708,0.4477678,0,0,0,0,-89.28532,0,0,769,0,0,64,2,229
179.3591,293.6409,-84.60997,156.3221,321.3051,1,0,0,0,0,-5.631256,-5.345492,-6.585497,0,-5.631256,-5.148172,0.5183439,0,0,0,0,0,-10,0,0,-5.776669,2.541008,-60.52441,0,-5.776669,1.813652,1,0,0,0,0,0,-3.157013,0,0,92.24303,-7.282125,0.1176103,9.368637,-25.22004,0.3826929,0,0,0,0,-90.63136,0,0,769,0,0,65,2,229
188.2786,277.057,-105.7806,179.3591,293.6409,1,0,0,0,0,-6.399239,-5.205274,4.135465,0,-5.631256,-5.345492,-0.1058496,0,0,0,0,0,-10,0,0,-5.133509,1.854091,-62.87305,0,-5.776669,2.541008,1,0,0,0,0,0,-1.094012,0,0,93.30724,-6.588387,0.1269789,9.368637,-23.88828,0.4072569,0,0,0,0,-92.69208,0,0,769,0,0,66,2,229
196.4447,257.1667,-137.4064,-171.7214,277.057,-1,0,0,0,0,-7.135609,-5.102679,14.34946,0,-6.399239,-5.205274,-0.4381994,0,0,0,0,0,-10,0,0,-5.101685,1.464117,-62.76184,0,-5.133509,1.854091,1,0,0,0,0,0,-2.118094,0,0,94.26983,-5.944715,0.1342868,7.307922,-21.61255,0.3189282,0,0,0,0,-94.04549,0,0,769,0,0,67,2,229
212.4718,203.1194,-68.92131,-163.5553,257.1667,-1,0,0,0,0,-6.869896,-4.793383,31.01957,0,-6.869896,-5.102679,-0.7548334,0,0,0,0,0,-10,0,0,-5.046656,0.6805228,-56.033,0,-5.046656,1.464117,1,0,0,0,0,0,-3.099369,0,0,95.92228,-4.855007,0.1450828,4.841461,-19.50104,0.2082705,0,0,0,0,-95.15854,0,0,769,0,0,68,2,229
240.5088,284.2185,-39.8822,-147.5282,203.1194,-1,0,0,0,0,-7.606266,-4.714103,47.95375,0,-7.606266,-4.793383,-1,0,0,0,0,0,-10,0,0,-5.01483,0.05090972,-35.35467,0,-5.01483,0.6805228,1,0,0,0,0,0,-5.276144,0,0,97.12115,-3.372904,0.1485708,3.488045,-15.92636,0.1726805,0,0,0,0,-96.51196,0,0,769,0,0,69,2,229
264.0339,309.939,-15.10797,-119.4912,284.2185,-1,0,0,0,0,-7.93259,-4.572698,53.255,0,-7.606266,-4.714103,-1,0,0,0,0,0,-10,0,0,-5.038042,-0.3351571,-15.28933,0,-5.01483,0.05090972,1,0,0,0,0,0,-7.061915,0,0,97.53994,-2.612635,0.1520589,3.488045,-11.06447,0.2316428,0,0,0,0,-97.48944,0,0,769,0,0,70,2,229
316.0724,346.4996,0,-95.96606,309.939,-1,0,0,0,0,-8.342648,-4.486119,45.66146,0,-7.93259,-4.572698,-1,0,0,0,0,0,-10,0,0,-4.983009,-0.6051057,30.70836,0,-5.038042,-0.3351571,0.6531136,0,0,0,0,0,-8.190272,0,0,98.08556,-1.453391,0.1545694,2.510559,-8.570488,0.2049283,0,0,0,0,-97.86537,0,0,769,0,0,71,2,229
333.9211,362.3939,0,-43.92761,346.4996,-1,0,0,0,0,-9.006847,-4.508142,33.75443,0,-9.006847,-4.486119,-1,0,0,0,0,0,-10,0,0,-5.006216,-0.5647275,45.23552,0,-5.006216,-0.6051057,-1,0,0,0,0,0,-8.910193,0,0,98.2432,-1.031603,0.1582298,1.525696,-4.767704,0.1938616,0,0,0,0,-98.4743,0,0,769,0,0,72,2,229
347.1399,379.4047,0,-26.07895,362.3939,1,0,0,0,0,-9.006847,-4.593985,18.84656,0,-9.006847,-4.508142,-1,0,0,0,0,0,-10,0,0,-5.006216,-0.2806602,54.27619,0,-5.006216,-0.5647275,-1,0,0,0,0,0,-8.79567,0,0,98.36465,-0.8104059,0.1597555,1.525696,-3.384069,0.2111745,0,0,0,0,-98.4743,0,0,769,0,0,73,2,229
8.983179,424.1324,-1.428861,-12.86014,379.4047,1,0,0,0,0,-9.079018,-4.66116,-16.51394,0,-9.006847,-4.593985,-0.8942433,0,0,0,0,0,-10,0,0,-4.951183,0.08251195,59.07111,0,-5.006216,-0.2806602,-1,0,0,0,0,0,-7.989969,0,0,98.47005,-0.256591,0.1612812,1.525696,-2.658456,0.2209795,0,0,0,0,-99.2188,0,0,769,0,0,74,2,229
32.74801,331.5572,-4.893185,8.983179,424.1324,1,0,0,0,0,-9.925201,-4.957088,-46.12671,0,-9.079018,-4.66116,0.2019322,0,0,0,0,0,-10,0,0,-5.107666,0.7225806,45.00825,0,-4.951183,0.08251195,-1,0,0,0,0,0,-6.880822,0,0,98.29391,0.6919637,0.1620624,0.7812042,-0.8417212,0.1985572,0,0,0,0,-99.31623,0,0,769,0,0,75,2,229
74.69432,274.2154,-21.61763,32.74801,331.5572,1,0,0,0,0,-9.925201,-5.222802,-63.21105,0,-9.925201,-4.957088,1,0,0,0,0,0,-10,0,0,-5.107666,1.300844,5.658588,0,-5.107666,0.7225806,-1,0,0,0,0,0,-5.290261,0,0,97.86187,1.453301,0.1634299,0.6837692,2.269918,0.2296789,0,0,0,0,-99.31623,0,0,769,0,0,76,2,229
124.337,230.1183,-29.04916,74.69432,274.2154,1,0,0,0,0,-10.26308,-5.405088,-60.28913,0,-10.26308,-5.222802,1,0,0,0,0,0,-10,0,0,-5.107666,1.769017,-44.96203,0,-5.107666,1.300844,-0.8564022,0,0,0,0,0,-3.650132,0,0,97.23736,2.124133,0.1644822,1.052322,4.767408,0.2809759,0,0,0,0,-98.94768,0,0,769,0,0,77,2,229
146.7573,182.506,-41.29114,124.337,230.1183,1,0,0,0,0,-10.76844,-5.523833,-47.01925,0,-10.26308,-5.405088,1,0,0,0,0,0,-10,0,0,-4.951183,2.439777,-70.21039,0,-5.107666,1.769017,1,0,0,0,0,0,-2.322252,0,0,96.4332,2.693061,0.1655346,1.052322,6.968005,0.307137,0,0,0,0,-97.37601,0,0,769,0,0,78,2,229
154.6144,126.5506,-60.18484,146.7573,182.506,1,0,0,0,0,-11.61463,-5.592679,-34.54652,0,-10.76844,-5.523833,1,0,0,0,0,0,-10,0,0,-5.107666,3.141053,-82.74875,0,-4.951183,2.439777,1,0,0,0,0,0,-0.19491,0,0,95.42278,3.31267,0.1681585,2.623985,8.834317,0.4237995,0,0,0,0,-97.47345,0,0,769,0,0,79,2,229
156.1049,94.73946,-99.00549,154.6144,126.5506,1,0,0,0,0,-11.7821,-5.658307,-30.02278,0,-11.7821,-5.592679,0.760942,0,0,0,0,0,-10,0,0,-4.951183,3.431054,-85.50366,0,-4.951183,3.141053,1,0,0,0,0,0,1.794117,0,0,94.83844,3.603239,0.1744148,3.729652,10.86688,0.5184926,0,0,0,0,-96.27035,0,0,769,0,0,80,2,229
156.29,31.71331,-115.7649,156.1049,94.73946,1,0,0,0,0,-11.88295,-5.7244,-25.33224,0,-11.88295,-5.658307,0.6207061,0,0,0,0,0,-10,0,0,-3.971855,4.241123,-85.08993,0,-3.971855,3.431054,1,0,0,0,0,0,4.023942,0,0,93.51925,4.166278,0.1787303,4.315521,11.82006,0.5682561,0,0,0,0,-95.68448,0,0,769,0,0,81,2,229
155.0739,1.047156,-130.5902,156.29,31.71331,1,0,0,0,0,-13.23449,-5.714127,-25.18011,0,-11.88295,-5.7244,0.4752995,0,0,0,0,0,-10,0,0,-3.971855,5.03968,-82.29143,0,-3.971855,4.241123,1,0,0,0,0,0,6.321541,0,0,92.80729,4.358689,0.1830458,4.315521,13.66706,0.5936459,0,0,0,0,-94.21025,0,0,769,0,0,82,2,229
153.0137,-28.33587,-142.9499,155.0739,1.047156,1,0,0,0,0,-13.64716,-5.710552,-26.33939,0,-13.23449,-5.714127,0.4705834,0,0,0,0,0,-10,0,0,-2.725979,5.840682,-78.11023,0,-3.971855,5.03968,1,0,0,0,0,0,8.586489,0,0,92.0683,4.520762,0.1888355,5.789749,14.29824,0.6936315,0,0,0,0,-93.91025,0,0,769,0,0,83,2,229
145.8499,-83.02694,-161.9184,153.0137,-28.33587,1,0,0,0,0,-13.50282,-5.753308,-31.79742,0,-13.50282,-5.710552,0.506521,0,0,0,0,0,-10,0,0,-2.83604,7.169054,-65.96456,0,-2.83604,5.840682,1,0,0,0,0,0,10,0,0,90.52697,4.757203,0.202504,7.57872,14.82991,0.8189335,0,0,0,0,-92.42128,0,0,769,0,0,84,2,229
132.9318,-128.5749,-169.7724,145.8499,-83.02694,1,0,0,0,0,-14.10641,-5.864398,-39.28847,0,-14.10641,-5.753308,0.67572,0,0,0,0,0,-10,0,0,-2.891073,8.64665,-47.92588,0,-2.891073,7.169054,1,0,0,0,0,0,10,0,0,88.97475,4.668369,0.2115643,9.060318,15.60553,0.9242728,0,0,0,0,-90.93968,0,0,769,0,0,85,2,229
112.4937,-156.1266,-174.9315,132.9318,-128.5749,1,0,0,0,0,-14.88303,-6.107832,-43.90417,0,-14.10641,-5.864398,0.9079426,0,0,0,0,0,-10,0,0,-1.911745,10.6224,-22.92521,0,-2.891073,8.64665,1,0,0,0,0,0,10,0,0,87.65808,3.91514,0.2206247,9.060318,15.31412,0.9300081,0,0,0,0,-89.6167,0,0,769,0,0,86,2,229
89.41028,-160.6711,-176.9425,112.4937,-156.1266,1,0,0,0,0,-15.50374,-6.606638,-40.43182,0,-14.88303,-6.107832,1,0,0,0,0,0,-10,0,0,-1.065687,12.32979,4.312204,0,-1.911745,10.6224,1,0,0,0,0,0,10,0,0,86.68858,2.795218,0.231008,10.3833,12.84322,0.9902677,0,0,0,0,-88.15078,0,0,769,0,0,87,2,229
73.47689,-146.672,-169.2953,89.41028,-160.6711,-1,0,0,0,0,-15.60459,-7.316742,-29.14791,0,-15.60459,-6.606638,0.9433864,0,0,0,0,0,-10,0,0,-0.08635712,13.32365,25.08092,0,-0.08635712,12.32979,0.5232772,0,0,0,0,0,10,0,0,86.02099,1.906981,0.250622,12.43509,9.169434,1,0,0,0,0,-87.56491,0,0,769,0,0,88,2,229
68.97872,-136.6702,-164.4729,73.47689,-146.672,-1,0,0,0,0,-16.42992,-7.814495,-22.03946,0,-16.42992,-7.316742,0.5935852,0,0,0,0,0,-10,0,0,2.405397,13.68574,32.56998,0,2.405397,13.32365,-1,0,0,0,0,0,10,0,0,85.81268,1.416835,0.2547531,13.03508,6.255661,1,0,0,0,0,-86.96492,0,0,769,0,0,89,2,229
66.45856,-83.95853,-157.5348,68.97872,-136.6702,-1,0,0,0,0,-16.7678,-8.85016,-7.716417,0,-16.42992,-7.814495,0.3732232,0,0,0,0,0,-10,0,0,2.405397,14.05742,43.63001,0,2.405397,13.68574,-1,0,0,0,0,0,10,0,0,85.55261,0.5854929,0.2582552,13.03508,4.647785,1,0,0,0,0,-86.59636,0,0,769,0,0,90,2,229
68.80824,-42.08023,-150.6889,66.45856,-83.95853,-1,0,0,0,0,-17.71483,-9.395588,-2.170764,0,-16.7678,-8.85016,-0.07079108,0,0,0,0,0,-10,0,0,3.228243,14.1408,45.72154,0,2.405397,14.05742,-1,0,0,0,0,0,10,0,0,85.54488,-0.02621152,0.2636102,13.40364,1.920651,1,0,0,0,0,-86.10793,0,0,769,0,0,91,2,229
73.11615,2.981796,-140.7815,68.80824,-42.08023,-1,0,0,0,0,-17.73193,-9.946936,1.85998,0,-17.73193,-9.395588,-0.2427063,0,0,0,0,0,-10,0,0,4.12933,14.10481,45.43137,0,4.12933,14.1408,-1,0,0,0,0,0,10,0,0,85.66445,-0.632638,0.2748667,13.87639,-0.08598426,1,0,0,0,0,-86.12361,0,0,769,0,0,92,2,229
87.59126,111.5582,-136.9855,73.11615,2.981796,-1,0,0,0,0,-18.89254,-10.98034,4.828642,0,-18.89254,-9.946936,-0.3676594,0,0,0,0,0,-10,0,0,5.430239,13.81496,39.53326,0,5.430239,14.10481,-1,0,0,0,0,0,10,0,0,86.22935,-1.927794,0.2797626,14.16901,-2.075306,1,0,0,0,0,-85.83099,0,0,769,0,0,93,2,229
98.06013,173.4344,-134.752,87.59126,111.5582,1,0,0,0,0,-19.91174,-11.44972,3.79725,0,-18.89254,-10.98034,-0.4596879,0,0,0,0,0,-10,0,0,6.308121,13.58828,34.40825,0,5.430239,13.81496,-1,0,0,0,0,0,10,0,0,86.64818,-2.711654,0.2847119,14.16901,-6.323936,1,0,0,0,0,-86.08704,0,0,769,0,0,94,2,229
124.3235,262.7093,-136.7588,98.06013,173.4344,1,0,0,0,0,-21.15901,-12.31356,-0.5163323,0,-19.91174,-11.44972,-0.4277147,0,0,0,0,0,-10,0,0,7.374306,12.96722,20.63414,0,6.308121,13.58828,-1,0,0,0,0,0,10,0,0,87.9482,-4.418918,0.2937579,13.91296,-8.895311,1,0,0,0,0,-87.23053,0,0,769,0,0,95,2,229
137.0127,242.9942,-150.9066,124.3235,262.7093,1,0,0,0,0,-21.16455,-12.70892,-1.380515,0,-21.16455,-12.31356,-0.2939937,0,0,0,0,0,-10,0,0,8.252186,12.52696,13.09468,0,8.252186,12.96722,-0.9783412,0,0,0,0,0,10,0,0,88.79418,-5.009584,0.3166085,11.40775,-14.49582,0.8243823,0,0,0,0,-88.59225,0,0,769,0,0,96,2,229
148.7263,225.9157,-159.6216,137.0127,242.9942,1,0,0,0,0,-22.15768,-12.93813,-1.003945,0,-22.15768,-12.70892,-0.267204,0,0,0,0,0,-10,0,0,9.396612,12.15261,5.745129,0,9.396612,12.52696,-0.2847106,0,0,0,0,0,10,0,0,89.69205,-5.466436,0.3271058,10.49726,-16.43344,0.7590436,0,0,0,0,-89.50274,0,0,769,0,0,97,2,229
168.9708,191.8484,-169.1884,148.7263,225.9157,1,0,0,0,0,-23.07603,-13.01198,2.699888,0,-22.15768,-12.93813,-0.2788777,0,0,0,0,0,-10,0,0,9.29516,11.66333,-7.686078,0,9.396612,12.15261,0.3914482,0,0,0,0,0,10,0,0,91.46641,-5.437397,0.3376031,10.49726,-17.9321,0.7524412,0,0,0,0,-90.34467,0,0,769,0,0,98,2,229
177.5003,175.0727,-179.1721,168.9708,191.8484,1,0,0,0,0,-25.31644,-12.94444,5.470033,0,-23.07603,-13.01198,-0.3936965,0,0,0,0,0,-10,0,0,11.50578,11.44187,-13.29356,0,9.29516,11.66333,1,0,0,0,0,0,10,0,0,92.28715,-4.985093,0.3472584,9.655334,-17.83684,0.7135015,0,0,0,0,-92.39863,0,0,769,0,0,99,2,229
191.2486,138.4421,-203.1645,177.5003,175.0727,1,0,0,0,0,-25.05072,-12.71292,12.07435,0,-25.05072,-12.94444,-0.479571,0,0,0,0,0,-10,0,0,11.5608,11.02879,-21.79137,0,11.5608,11.44187,1,0,0,0,0,0,10,0,0,93.68736,-3.980668,0.3613481,6.488327,-16.3531,0.5576355,0,0,0,0,-93.51167,0,0,769,0,0,100,2,229
196.5347,120.102,-222.6633,-168.7514,138.4421,-1,0,0,0,0,-26.38174,-12.56703,15.57355,0,-26.38174,-12.71292,-0.6843047,0,0,0,0,0,-10,0,0,12.70523,10.81698,-23.94319,0,12.70523,11.02879,1,0,0,0,0,0,10,0,0,94.23074,-3.497928,0.3672945,5.946396,-13.05818,0.5691974,0,0,0,0,-94.0536,0,0,769,0,0,101,2,229
203.9929,81.66763,-175.715,-163.4653,120.102,-1,0,0,0,0,-27.47311,-12.24135,22.3918,0,-26.38174,-12.56703,-0.79278,0,0,0,0,0,-10,0,0,13.63815,10.31116,-25.73429,0,12.70523,10.81698,1,0,0,0,0,0,10,0,0,95.03584,-2.165579,0.3732409,5.946396,-11.4746,0.5932125,0,0,0,0,-95.05415,0,0,769,0,0,102,2,229
206.9987,77.33249,-133.9466,-156.0071,81.66763,-1,0,0,0,0,-28.56448,-12.10703,25.73778,0,-27.47311,-12.24135,-1,0,0,0,0,0,-10,0,0,14.57106,10.08493,-25.66381,0,13.63815,10.31116,1,0,0,0,0,0,10,0,0,95.29281,-1.487321,0.3781868,4.945854,-7.103966,0.5889854,0,0,0,0,-96.05469,0,0,769,0,0,103,2,229
212.5982,67.60255,-64.26639,-153.0013,77.33249,-1,0,0,0,0,-28.56448,-11.80192,32.0812,0,-28.56448,-12.10703,-1,0,0,0,0,0,-10,0,0,14.57106,9.888747,-23.06664,0,14.57106,10.08493,1,0,0,0,0,0,10,0,0,95.53529,-0.5892352,0.3860774,3.945313,-4.879006,0.5632208,0,0,0,0,-96.05469,0,0,769,0,0,104,2,229
218.0902,57.473,-34.64949,-147.4018,67.60255,-1,0,0,0,0,-29.92156,-11.45263,37.30353,0,-29.92156,-11.80192,-1,0,0,0,0,0,-10,0,0,15.44894,9.992398,-17.00833,0,15.44894,9.888747,1,0,0,0,0,0,10,0,0,95.56387,-0.1753194,0.3901352,4.0578,-1.932927,0.6075313,0,0,0,0,-95.9422,0,0,769,0,0,105,2,229
223.4429,45.68471,-8.729523,-141.9098,57.473,-1,0,0,0,0,-31.49222,-11.00249,41.07727,0,-29.92156,-11.45263,-1,0,0,0,0,0,-10,0,0,16.80488,10.29266,-8.096463,0,15.44894,9.992398,1,0,0,0,0,0,10,0,0,95.58813,-0.05620755,0.394193,4.0578,-0.5751179,0.6270817,0,0,0,0,-96.02551,0,0,769,0,0,106,2,229
225.9291,39.33618,0,-136.5571,45.68471,-1,0,0,0,0,-32.51142,-10.67413,42.31037,0,-31.49222,-11.00249,-1,0,0,0,0,0,-10,0,0,17.68276,10.62332,-2.774351,0,16.80488,10.29266,1,0,0,0,0,0,10,0,0,95.63767,-0.2750967,0.3981675,3.974495,-0.1843832,0.6305987,0,0,0,0,-96.28156,0,0,769,0,0,107,2,229
230.0397,26.63456,0,-134.0709,39.33618,-1,0,0,0,0,-32.37262,-9.763717,43.52053,0,-32.37262,-10.67413,-1,0,0,0,0,0,-10,0,0,18.45057,11.40775,8.798207,0,18.45057,10.62332,1,0,0,0,0,0,10,0,0,95.85351,-0.9479727,0.4057316,3.845688,-0.9024273,0.6223689,0,0,0,0,-96.15431,0,0,769,0,0,108,2,229
232.4973,15.59198,0,-129.9603,26.63456,-1,0,0,0,0,-33.52166,-8.440544,43.30096,0,-33.52166,-9.763717,-1,0,0,0,0,0,-10,0,0,19.72827,12.24105,20.51033,0,19.72827,11.40775,0.1105649,0,0,0,0,0,10,0,0,96.36504,-1.834053,0.4085239,2.792267,-3.10973,0.5378135,0,0,0,0,-97.20773,0,0,769,0,0,109,2,229
233.0538,7.295555,0,-127.5027,15.59198,-1,0,0,0,0,-35.03465,-6.668149,42.01541,0,-33.52166,-8.440544,-1,0,0,0,0,0,-10,0,0,20.73943,12.94872,31.65256,0,19.72827,12.24105,-0.9669504,0,0,0,0,0,10,0,0,97.24494,-2.776496,0.4113162,2.792267,-6.016427,0.5074404,0,0,0,0,-97.23817,0,0,769,0,0,110,2,229
231.8557,1.847564,0,-126.9462,7.295555,-1,0,0,0,0,-35.61772,-5.125884,40.16811,0,-35.03465,-6.668149,-1,0,0,0,0,0,-10,0,0,21.82882,13.22795,39.50358,0,20.73943,12.94872,-1,0,0,0,0,0,10,0,0,98.23781,-3.162091,0.414078,2.761826,-9.108018,0.4731308,0,0,0,0,-97.77272,0,0,769,0,0,111,2,229
230.6675,-0.1216128,0,-128.1443,1.847564,-1,0,0,0,0,-36.11705,-4.526687,39.0703,0,-36.11705,-5.125884,-1,0,0,0,0,0,-10,0,0,22.83997,13.26158,41.02519,0,22.83997,13.22795,-1,0,0,0,0,0,10,0,0,98.76688,-3.179175,0.4173964,1.091179,-10.37292,0.3634319,0,0,0,0,-98.90882,0,0,769,0,0,112,2,229
227.3976,-2.445047,0,-129.3325,-0.1216128,-1,0,0,0,0,-36.1081,-3.358465,36.37803,0,-36.1081,-4.526687,-1,0,0,0,0,0,-10,0,0,24.00761,13.26817,39.18944,0,24.00761,13.26158,-1,0,0,0,0,0,10,0,0,99.87472,-3.22331,0.4178175,0.4210663,-10.42896,0.3236701,0,0,0,0,-99.57893,0,0,769,0,0,113,2,229
223.7913,-3.014608,0,-132.6024,-2.445047,-1,0,0,0,0,-36.28665,-2.696465,33.0483,0,-36.1081,-3.358465,-1,0,0,0,0,0,-10,0,0,25.91985,13.10664,33.70049,0,24.00761,13.26817,-1,0,0,0,0,0,10,0,0,100.8733,-2.868882,0.4182386,0.4210663,-10.57374,0.3224393,0,0,0,0,-101.0993,0,0,769,0,0,114,2,229
222.1391,-2.284309,0,-136.2087,-3.014608,-1,0,0,0,0,-37.12387,-2.60496,31.15313,0,-36.28665,-2.696465,-1,0,0,0,0,0,-10,0,0,26.93101,12.98264,30.35221,0,25.91985,13.10664,-1,0,0,0,0,0,10,0,0,101.3026,-2.486274,0.4171393,-1.099274,-9.411079,0.2448907,0,0,0,0,-101.8668,0,0,769,0,0,115,2,229
219.4099,1.079641,0,-137.8609,-2.284309,-1,0,0,0,0,-37.04013,-2.406258,26.75626,0,-37.04013,-2.60496,-1,0,0,0,0,0,-10,0,0,26.85276,12.76722,22.98625,0,26.85276,12.98264,-1,0,0,0,0,0,10,0,0,102.0092,-1.82024,0.4128041,-2.468384,-8.155972,0.1740851,0,0,0,0,-102.4684,0,0,769,0,0,116,2,229
218.4589,3.578701,0,-140.5901,1.079641,-1,0,0,0,0,-37.36906,-2.440409,24.29154,0,-37.36906,-2.406258,-1,0,0,0,0,0,-10,0,0,28.0204,12.64189,19.15385,0,28.0204,12.76722,-1,0,0,0,0,0,10,0,0,102.231,-1.316361,0.4100342,-2.769928,-5.971115,0.1784503,0,0,0,0,-102.7699,0,0,769,0,0,117,2,229
217.5303,9.757073,0,-141.5411,3.578701,-1,0,0,0,0,-37.38617,-2.508018,18.82253,0,-37.36906,-2.440409,-1,0,0,0,0,0,-10,0,0,28.92149,12.40328,11.37974,0,28.0204,12.64189,-0.8421544,0,0,0,0,0,10,0,0,102.4569,-0.2974911,0.4072643,-2.769928,-4.318191,0.1945403,0,0,0,0,-102.7856,0,0,769,0,0,118,2,229
217.6106,13.4125,0,-142.4697,9.757073,-1,0,0,0,0,-37.7322,-2.529328,15.874,0,-37.38617,-2.508018,-0.8934983,0,0,0,0,0,-10,0,0,30.99021,12.29583,7.476425,0,28.92149,12.40328,-0.1269364,0,0,0,0,0,10,0,0,102.4625,0.178186,0.4044786,-2.785614,-0.9758897,0.2289647,0,0,0,0,-103.1029,0,0,769,0,0,119,2,229
218.9563,21.28113,0,-142.3894,13.4125,-1,0,0,0,0,-37.7322,-2.521127,9.704868,0,-37.7322,-2.529328,-0.8020939,0,0,0,0,0,-10,0,0,30.99021,12.12618,-0.3614503,0,30.99021,12.29583,0.2321689,0,0,0,0,0,10,0,0,102.2594,0.8576162,0.3982729,-3.102859,0.5845214,0.2218426,0,0,0,0,-103.1029,0,0,769,0,0,120,2,229
220.2532,25.6085,0,-141.0437,21.28113,-1,0,0,0,0,-38.55492,-2.497085,6.522117,0,-38.55492,-2.521127,-0.6108509,0,0,0,0,0,-10,0,0,32.29112,12.07853,-3.724705,0,32.29112,12.12618,0.9532534,0,0,0,0,0,10,0,0,102.1295,0.8385819,0.3950941,-3.178787,2.813324,0.2396139,0,0,0,0,-103.1788,0,0,769,0,0,121,2,229
224.1537,36.45609,0,-139.7468,25.6085,-1,0,0,0,0,-38.00607,-2.521583,0.2263439,0,-38.55492,-2.497085,-0.5121856,0,0,0,0,0,-10,0,0,33.00391,11.94587,-8.363956,0,32.29112,12.07853,1,0,0,0,0,0,10,0,0,101.93,0.7377108,0.3919154,-3.178787,2.750884,0.2357227,0,0,0,0,-102.6756,0,0,769,0,0,122,2,229
229.866,51.87246,0,-135.8463,36.45609,-1,0,0,0,0,-38.43323,-2.627221,-5.587385,0,-38.00607,-2.521583,-0.3170167,0,0,0,0,0,-10,0,0,33.96003,11.74028,-8.473535,0,33.00391,11.94587,1,0,0,0,0,0,10,0,0,101.8524,0.2065545,0.3892398,-2.675606,2.419986,0.2589643,0,0,0,0,-103.0672,0,0,769,0,0,123,2,229
233.4247,62.09134,0,-130.134,51.87246,-1,0,0,0,0,-38.50801,-2.700406,-8.211119,0,-38.50801,-2.627221,-0.1367911,0,0,0,0,0,-10,0,0,35.2059,11.59474,-7.103516,0,35.2059,11.74028,1,0,0,0,0,0,10,0,0,101.8734,-0.1034459,0.3830368,-3.13578,0.6775814,0.2057256,0,0,0,0,-103.1358,0,0,769,0,0,124,2,229
242.2888,88.15776,0,-126.5753,62.09134,-1,0,0,0,0,-39.27306,-2.87349,-12.94977,0,-39.27306,-2.700406,-0.05545532,0,0,0,0,0,-10,0,0,36.16202,11.18827,-3.175857,0,36.16202,11.59474,1,0,0,0,0,0,10,0,0,102.179,-0.9310461,0.3798779,-3.158836,-0.3393438,0.1896031,0,0,0,0,-103.1588,0,0,769,0,0,125,2,229
254.269,122.5659,0,-117.7112,88.15776,-1,0,0,0,0,-39.29017,-2.965695,-16.74195,0,-39.27306,-2.87349,0.09144284,0,0,0,0,0,-10,0,0,37.06311,10.74434,0.4201533,0,36.16202,11.18827,1,0,0,0,0,0,10,0,0,102.8728,-1.514602,0.3767191,-3.158836,-3.054204,0.1554677,0,0,0,0,-103.1745,0,0,769,0,0,126,2,229
269.9953,162.6868,0,-105.731,122.5659,-1,0,0,0,0,-39.53535,-2.971237,-19.50503,0,-39.29017,-2.965695,0.2090003,0,0,0,0,0,-10,0,0,38.1525,10.27135,2.138681,0,37.06311,10.74434,0.8813459,0,0,0,0,0,10,0,0,103.4664,-1.966975,0.3735446,-3.174522,-4.9685,0.1295254,0,0,0,0,-104.0776,0,0,769,0,0,127,2,229
279.8845,188.7309,0,-90.0047,162.6868,-1,0,0,0,0,-39.96252,-2.985314,-20.40261,0,-39.96252,-2.971237,0.294656,0,0,0,0,0,-10,0,0,39.10863,10.06579,1.945427,0,39.10863,10.27135,0.7232414,0,0,0,0,0,10,0,0,103.9465,-1.999489,0.3649977,-4.469246,-6.452465,0.02764487,0,0,0,0,-104.4692,0,0,769,0,0,128,2,229
304.9577,253.4614,0,-80.11554,188.7309,-1,0,0,0,0,-39.62464,-3.03937,-20.43067,0,-39.62464,-2.985314,0.3224809,0,0,0,0,0,-10,0,0,39.10863,9.628718,-0.997562,0,39.10863,10.06579,0.7410207,0,0,0,0,0,10,0,0,104.3584,-1.791903,0.3601599,-4.837799,-6.559123,-0.0001582503,0,0,0,0,-104.8378,0,0,769,0,0,129,2,229
337.1507,324.9192,0,-55.0423,253.4614,-1,0,0,0,0,-40.36362,-3.12477,-16.31819,0,-39.62464,-3.03937,0.3233507,0,0,0,0,0,-10,0,0,40.3313,9.217825,-6.209917,0,39.10863,9.628718,1,0,0,0,0,0,10,0,0,104.8408,-0.921131,0.3553221,-4.837799,-5.878157,0.002773762,0,0,0,0,-105.5153,0,0,769,0,0,130,2,229
355.242,357.7779,0,-22.84933,324.9192,1,0,0,0,0,-40.45289,-3.164215,-12.24963,0,-40.36362,-3.12477,0.1958638,0,0,0,0,0,-10,0,0,41.28741,9.045157,-8.420381,0,40.3313,9.217825,1,0,0,0,0,0,10,0,0,104.7557,-0.2544161,0.3498068,-5.515289,-3.021678,-0.01012778,0,0,0,0,-106.2755,0,0,769,0,0,131,2,229
33.63767,403.376,-6.167646,-4.758026,357.7779,1,0,0,0,0,-40.45551,-3.082477,-1.180285,0,-40.45551,-3.164215,0.06973838,0,0,0,0,0,-10,0,0,42.47826,8.767801,-8.579356,0,42.47826,9.045157,1,0,0,0,0,0,10,0,0,104.7703,0.8492417,0.3379318,-5.599533,-0.8345866,-0.002019302,0,0,0,0,-105.5995,0,0,769,0,0,132,2,229
51.39702,366.7349,-9.678749,33.63767,403.376,1,0,0,0,0,-40.45551,-3.163748,4.175541,0,-40.45551,-3.082477,-0.2734112,0,0,0,0,0,-10,0,0,42.47826,8.821256,-5.381455,0,42.47826,8.767801,1,0,0,0,0,0,10,0,0,104.5279,1.238777,0.3323323,-5.599533,2.785852,0.03369038,0,0,0,0,-105.5995,0,0,769,0,0,133,2,229
81.67995,279.3494,-20.24485,51.39702,366.7349,1,0,0,0,0,-40.96641,-3.41453,11.52183,0,-40.45551,-3.163748,-0.4394418,0,0,0,0,0,-10,0,0,43.51262,8.810128,5.405115,0,42.47826,8.821256,1,0,0,0,0,0,10,0,0,104.0151,1.593472,0.3267327,-5.599533,4.063685,0.04267092,0,0,0,0,-105.3896,0,0,769,0,0,134,2,229
93.90538,232.4847,-31.66847,81.67995,279.3494,1,0,0,0,0,-42.06934,-3.597172,13.36421,0,-40.96641,-3.41453,-0.6671766,0,0,0,0,0,-10,0,0,44.46874,8.694094,11.58996,0,43.51262,8.810128,0.4227294,0,0,0,0,0,10,0,0,103.7612,1.55331,0.3213431,-5.389595,5.227224,0.06294577,0,0,0,0,-105.0441,0,0,769,0,0,135,2,229
111.6714,138.61,-59.9689,93.90538,232.4847,1,0,0,0,0,-42.06934,-4.074748,14.76579,0,-42.06934,-3.597172,-0.7242906,0,0,0,0,0,-10,0,0,44.46874,8.229873,23.01423,0,44.46874,8.694094,-0.1462764,0,0,0,0,0,10,0,0,103.1273,1.275773,0.3112549,-5.044098,5.095479,0.07174212,0,0,0,0,-105.0441,0,0,769,0,0,136,2,229
117.075,92.84936,-72.29029,111.6714,138.61,1,0,0,0,0,-42.09801,-4.355964,15.05843,0,-42.09801,-4.074748,-0.7677396,0,0,0,0,0,-10,0,0,45.39304,7.870193,27.69392,0,45.39304,8.229873,-1,0,0,0,0,0,10,0,0,103.0931,1.112512,0.3075412,-3.713745,4.185046,0.1361444,0,0,0,0,-103.7137,0,0,769,0,0,137,2,229
121.3707,10.5795,-84.96545,117.075,92.84936,1,0,0,0,0,-42.35216,-4.901989,16.26311,0,-42.09801,-4.355964,-0.7768113,0,0,0,0,0,-10,0,0,45.3148,7.048591,34.02397,0,45.39304,7.870193,-1,0,0,0,0,0,10,0,0,102.7995,0.8628016,0.3038274,-3.713745,3.649483,0.1263199,0,0,0,0,-103.9467,0,0,769,0,0,138,2,229
120.7232,-22.30931,-96.50308,121.3707,10.5795,1,0,0,0,0,-43.17488,-5.168649,17.36483,0,-42.35216,-4.901989,-0.8141564,0,0,0,0,0,-10,0,0,46.61571,6.556047,34.81036,0,45.3148,7.048591,-1,0,0,0,0,0,10,0,0,102.6219,0.6438431,0.2998807,-3.946739,2.830334,0.09927769,0,0,0,0,-104.0227,0,0,769,0,0,139,2,229
115.1887,-68.82527,-114.5059,120.7232,-22.30931,1,0,0,0,0,-43.10272,-5.527922,20.18621,0,-43.10272,-5.168649,-0.8483098,0,0,0,0,0,-10,0,0,46.56068,5.773676,31.36146,0,46.56068,6.556047,-1,0,0,0,0,0,10,0,0,102.4268,0.4580505,0.2925798,-3.278183,2.112063,0.1232328,0,0,0,0,-103.2782,0,0,769,0,0,140,2,229
110.7737,-84.50981,-122.0035,115.1887,-68.82527,1,0,0,0,0,-43.37397,-5.651081,21.58274,0,-43.37397,-5.527922,-0.9357725,0,0,0,0,0,-10,0,0,47.38353,5.496061,27.91779,0,47.38353,5.773676,-1,0,0,0,0,0,10,0,0,102.3362,0.5391054,0.2890529,-3.526863,1.502589,0.09807726,0,0,0,0,-103.5269,0,0,769,0,0,141,2,229
99.47854,-106.7512,-127.0662,110.7737,-84.50981,1,0,0,0,0,-43.37397,-5.844605,23.48224,0,-43.37397,-5.651081,-0.9790648,0,0,0,0,0,-10,0,0,47.38353,4.985338,18.65971,0,47.38353,5.496061,-1,0,0,0,0,0,10,0,0,102.0958,0.6435404,0.285526,-3.526863,1.768481,0.09758423,0,0,0,0,-103.5269,0,0,769,0,0,142,2,229
93.04936,-112.9933,-130.8287,99.47854,-106.7512,1,0,0,0,0,-43.96862,-5.896495,23.67061,0,-43.37397,-5.844605,-1,0,0,0,0,0,-10,0,0,48.49612,4.785348,13.21856,0,47.38353,4.985338,-0.796693,0,0,0,0,0,10,0,0,101.9197,0.7232745,0.2819992,-3.526863,2.11107,0.0979663,0,0,0,0,-102.7154,0,0,769,0,0,143,2,229
86.41913,-116.688,-131.6102,93.04936,-112.9933,1,0,0,0,0,-43.96862,-5.922434,23.20344,0,-43.96862,-5.896495,-1,0,0,0,0,0,-10,0,0,48.49612,4.593425,7.507722,0,48.49612,4.785348,-0.2961074,0,0,0,0,0,10,0,0,101.767,0.76523,0.2765684,-2.715378,2.37263,0.1434057,0,0,0,0,-102.7154,0,0,769,0,0,144,2,229
73.3972,-119.1596,-131.4975,86.41913,-116.688,1,0,0,0,0,-44.71655,-5.879727,20.19033,0,-44.71655,-5.922434,-1,0,0,0,0,0,-10,0,0,48.55116,4.227367,-3.983695,0,48.55116,4.593425,0.2292895,0,0,0,0,0,10,0,0,101.6923,0.7334221,0.2738456,-2.722755,2.510261,0.1418179,0,0,0,0,-102.7228,0,0,769,0,0,145,2,229
61.61717,-118.6825,-130.4355,73.3972,-119.1596,-1,0,0,0,0,-45.39232,-5.669343,14.61427,0,-44.71655,-5.879727,-0.9359001,0,0,0,0,0,-10,0,0,48.55116,3.867134,-14.31395,0,48.55116,4.227367,1,0,0,0,0,0,10,0,0,101.4731,0.4949409,0.2711229,-2.722755,2.405918,0.1379046,0,0,0,0,-101.9856,0,0,769,0,0,146,2,229
56.32061,-118.3292,-127.5278,61.61717,-118.6825,-1,0,0,0,0,-46.31329,-5.534584,11.03751,0,-45.39232,-5.669343,-0.7630425,0,0,0,0,0,-10,0,0,49.64056,3.716435,-17.94181,0,48.55116,3.867134,1,0,0,0,0,0,10,0,0,101.274,0.3874786,0.2691372,-1.985641,1.623604,0.1704898,0,0,0,0,-102.1516,0,0,769,0,0,147,2,229
48.21376,-84.81829,-117.7157,56.32061,-118.3292,-1,0,0,0,0,-46.56744,-5.138,3.353956,0,-46.56744,-5.534584,-0.6521627,0,0,0,0,0,-10,0,0,49.56231,3.462463,-21.03986,0,49.56231,3.716435,1,0,0,0,0,0,10,0,0,101.1525,0.3086257,0.264601,-2.384628,1.271085,0.1383871,0,0,0,0,-102.3846,0,0,769,0,0,148,2,229
47.24501,-11.76591,-113.2747,48.21376,-84.81829,-1,0,0,0,0,-46.82418,-4.572816,-2.584902,0,-46.82418,-5.138,-0.4139726,0,0,0,0,0,-10,0,0,50.67492,3.237042,-19.51031,0,50.67492,3.462463,1,0,0,0,0,0,10,0,0,101.2766,0.2888965,0.2626593,-1.941696,1.012416,0.1596314,0,0,0,0,-101.9417,0,0,769,0,0,149,2,229
49.45034,27.08205,-108.3616,47.24501,-11.76591,-1,0,0,0,0,-47.23424,-4.318049,-4.674409,0,-46.82418,-4.572816,-0.229868,0,0,0,0,0,-10,0,0,50.72995,3.154009,-18.18957,0,50.67492,3.237042,1,0,0,0,0,0,10,0,0,101.2258,0.4590423,0.2607175,-1.941696,0.9476961,0.1569512,0,0,0,0,-102.3176,0,0,769,0,0,150,2,229
59.36862,105.1517,-104.9202,49.45034,27.08205,-1,0,0,0,0,-47.16207,-3.791318,-7.069961,0,-47.23424,-4.318049,-0.1650933,0,0,0,0,0,-10,0,0,50.67492,3.042946,-15.62346,0,50.72995,3.154009,1,0,0,0,0,0,10,0,0,100.8498,0.8086419,0.2583999,-2.317627,1.505842,0.1388184,0,0,0,0,-101.5731,0,0,769,0,0,151,2,229
74.65108,152.4557,-103.4951,59.36862,105.1517,1,0,0,0,0,-47.91001,-3.415358,-7.523562,0,-47.91001,-3.791318,-0.09083121,0,0,0,0,0,-10,0,0,50.72995,3.059535,-13.04628,0,50.72995,3.042946,1,0,0,0,0,0,10,0,0,100.362,1.164804,0.2552463,-1.580521,2.652669,0.1922467,0,0,0,0,-101.5805,0,0,769,0,0,152,2,229
83.19686,165.0805,-103.8934,74.65108,152.4557,1,0,0,0,0,-48.26501,-3.303542,-7.284939,0,-48.26501,-3.415358,-0.07676956,0,0,0,0,0,-10,0,0,51.63103,3.09386,-11.52748,0,51.63103,3.059535,1,0,0,0,0,0,10,0,0,100.1239,1.397887,0.2540186,-1.227646,3.821022,0.2251731,0,0,0,0,-101.2276,0,0,769,0,0,153,2,229
99.39404,142.8115,-107.6473,83.19686,165.0805,1,0,0,0,0,-49.35084,-3.295265,-6.570443,0,-48.26501,-3.303542,-0.08416688,0,0,0,0,0,-10,0,0,51.68607,3.159887,-7.41433,0,51.63103,3.09386,1,0,0,0,0,0,10,0,0,99.68244,1.649277,0.252791,-1.227646,4.585628,0.2326696,0,0,0,0,-100.8665,0,0,769,0,0,154,2,229
108.6016,72.58506,-112.4093,99.39404,142.8115,1,0,0,0,0,-48.94078,-3.530454,-6.567776,0,-49.35084,-3.295265,-0.1063163,0,0,0,0,0,-10,0,0,51.63103,3.125034,-0.8712935,0,51.68607,3.159887,1,0,0,0,0,0,10,0,0,99.22286,1.672279,0.2519245,-0.8664703,5.410288,0.2625254,0,0,0,0,-100.4905,0,0,769,0,0,155,2,229
110.7048,41.52842,-125.6293,108.6016,72.58506,1,0,0,0,0,-49.20649,-3.665289,-6.67045,0,-49.20649,-3.530454,-0.1063989,0,0,0,0,0,-10,0,0,51.576,3.086618,3.051902,0,51.576,3.125034,1,0,0,0,0,0,10,0,0,98.93523,1.661655,0.2520564,0.6225052,5.485743,0.3513828,0,0,0,0,-99.37749,0,0,769,0,0,156,2,229
111.0596,-7.907397,-131.4652,110.7048,41.52842,1,0,0,0,0,-49.61655,-3.975557,-6.575977,0,-49.61655,-3.665289,-0.103216,0,0,0,0,0,-10,0,0,51.63103,2.970227,11.6198,0,51.63103,3.086618,0.639225,0,0,0,0,0,10,0,0,98.2765,1.661495,0.252303,0.246582,5.450893,0.3290485,0,0,0,0,-99.75342,0,0,769,0,0,157,2,229
109.7708,-26.36115,-136.5808,111.0596,-7.907397,1,0,0,0,0,-49.97154,-4.20238,-6.215218,0,-49.61655,-3.975557,-0.1061447,0,0,0,0,0,-10,0,0,52.53212,2.886756,16.06636,0,51.63103,2.970227,-0.1490215,0,0,0,0,0,10,0,0,98.00908,1.458343,0.2525496,0.246582,5.450367,0.3292891,0,0,0,0,-99.40055,0,0,769,0,0,158,2,229
105.2699,-53.60161,-140.4608,109.7708,-26.36115,1,0,0,0,0,-49.97154,-4.645277,-4.513371,0,-49.97154,-4.20238,-0.1173283,0,0,0,0,0,-10,0,0,52.53212,2.682181,24.91777,0,52.53212,2.886756,-0.558105,0,0,0,0,0,10,0,0,97.59566,1.42087,0.2531491,0.5994492,4.783947,0.3431074,0,0,0,0,-99.40055,0,0,769,0,0,159,2,229
102.4166,-62.56651,-144.9901,105.2699,-53.60161,1,0,0,0,0,-50.64731,-4.85402,-3.153872,0,-50.64731,-4.645277,-0.1700855,0,0,0,0,0,-10,0,0,52.53212,2.584018,28.48055,0,52.53212,2.682181,-1,0,0,0,0,0,10,0,0,97.34846,1.480144,0.2550851,1.336563,4.661021,0.3871379,0,0,0,0,-98.66344,0,0,769,0,0,160,2,229
96.19196,-72.60521,-146.384,102.4166,-62.56651,1,0,0,0,0,-50.9852,-5.251192,0.3352826,0,-50.9852,-4.85402,-0.21223,0,0,0,0,0,-10,0,0,52.53212,2.400649,32.67661,0,52.53212,2.584018,-1,0,0,0,0,0,10,0,0,96.70165,1.659965,0.2567902,1.705116,4.855465,0.4128099,0,0,0,0,-98.29488,0,0,769,0,0,161,2,229
92.98358,-74.35301,-147.1181,96.19196,-72.60521,1,0,0,0,0,-50.91302,-5.490333,2.282676,0,-50.9852,-5.251192,-0.3203937,0,0,0,0,0,-10,0,0,52.47709,2.292013,32.88296,0,52.53212,2.400649,-1,0,0,0,0,0,10,0,0,96.44685,1.636828,0.2584953,1.705116,5.445349,0.4212456,0,0,0,0,-97.55039,0,0,769,0,0,162,2,229
86.62787,-72.20679,-146.5423,92.98358,-74.35301,1,0,0,0,0,-51.57983,-5.941183,6.061954,0,-50.91302,-5.490333,-0.3807629,0,0,0,0,0,-10,0,0,53.64473,2.080262,30.01245,0,52.47709,2.292013,-1,0,0,0,0,0,10,0,0,96.14341,1.592836,0.2609449,2.449608,5.369451,0.4667617,0,0,0,0,-97.48339,0,0,769,0,0,163,2,229
83.54428,-69.09395,-143.5402,86.62787,-72.20679,1,0,0,0,0,-51.91772,-6.155265,7.728836,0,-51.91772,-5.941183,-0.4979206,0,0,0,0,0,-10,0,0,53.64473,1.971787,27.29275,0,53.64473,2.080262,-1,0,0,0,0,0,10,0,0,95.90612,1.537244,0.2663467,2.885162,5.225138,0.4962189,0,0,0,0,-97.11484,0,0,769,0,0,164,2,229
77.71086,-59.7815,-141.7982,83.54428,-69.09395,1,0,0,0,0,-52.66566,-6.573395,10.23462,0,-52.66566,-6.155265,-0.5495939,0,0,0,0,0,-10,0,0,53.69976,1.734449,19.99754,0,53.69976,1.971787,-1,0,0,0,0,0,10,0,0,95.33749,1.20345,0.2692244,2.877785,5.042776,0.4965806,0,0,0,0,-97.12222,0,0,769,0,0,165,2,229
75.02954,-54.0316,-139.8585,77.71086,-59.7815,-1,0,0,0,0,-53.34143,-6.766268,10.94255,0,-52.66566,-6.573395,-0.6272734,0,0,0,0,0,-10,0,0,53.69976,1.602998,15.61836,0,53.69976,1.734449,-0.9197736,0,0,0,0,0,10,0,0,95.25093,0.876779,0.2721022,2.877785,3.947797,0.4869646,0,0,0,0,-96.3851,0,0,769,0,0,166,2,229
70.39724,-41.51133,-137.4571,75.02954,-54.0316,-1,0,0,0,0,-53.75149,-6.981946,11.17742,0,-53.34143,-6.766268,-0.649219,0,0,0,0,0,-10,0,0,53.75479,1.358126,6.018587,0,53.69976,1.602998,-0.5168893,0,0,0,0,0,10,0,0,95.08173,0.1782471,0.2757171,3.614899,2.876186,0.5218496,0,0,0,0,-96.76103,0,0,769,0,0,167,2,229
71.11258,24.88383,-132.1638,70.39724,-41.51133,-1,0,0,0,0,-54.42726,-6.720957,9.625689,0,-54.42726,-6.981946,-0.6565,0,0,0,0,0,-10,0,0,53.75479,1.136642,-3.832548,0,53.75479,1.358126,0.36629,0,0,0,0,0,10,0,0,95.01891,-0.5791068,0.2829322,3.976074,0.5847217,0.524232,0,0,0,0,-96.02393,0,0,769,0,0,168,2,229
74.2699,60.4637,-129.5826,71.11258,24.88383,1,0,0,0,0,-54.76515,-6.477221,8.567171,0,-54.76515,-6.720957,-0.6083964,0,0,0,0,0,-10,0,0,53.75479,1.044272,-8.4343,0,53.75479,1.136642,1,0,0,0,0,0,10,0,0,95.23557,-1.01365,0.2872768,4.344635,-1.899702,0.5219781,0,0,0,0,-95.65536,0,0,769,0,0,169,2,229
86.59348,136.3741,-128.2165,74.2699,60.4637,1,0,0,0,0,-54.76515,-5.844054,7.124263,0,-54.76515,-6.477221,-0.5755823,0,0,0,0,0,-10,0,0,53.75479,0.9820864,-15.8121,0,53.75479,1.044272,1,0,0,0,0,0,10,0,0,95.6381,-1.671772,0.2916214,4.344635,-3.325178,0.5100581,0,0,0,0,-95.65536,0,0,769,0,0,170,2,229
93.03133,118.9445,-127.8535,86.59348,136.3741,1,0,0,0,0,-55.42935,-5.7594,6.435351,0,-54.76515,-5.844054,-0.5308521,0,0,0,0,0,-10,0,0,53.73158,0.9496692,-17.46203,0,53.75479,0.9820864,1,0,0,0,0,0,10,0,0,95.84061,-1.913014,0.2959661,4.344635,-5.484082,0.4897696,0,0,0,0,-96.2643,0,0,769,0,0,171,2,229
104.081,92.80292,-134.5491,93.03133,118.9445,1,0,0,0,0,-55.50153,-5.56985,4.601987,0,-55.50153,-5.7594,-0.5094959,0,0,0,0,0,-10,0,0,53.78662,0.9477578,-17.0108,0,53.78662,0.9496692,1,0,0,0,0,0,10,0,0,96.59063,-2.22872,0.302693,2.991211,-6.275452,0.4076014,0,0,0,0,-97.00879,0,0,769,0,0,172,2,229
108.7562,82.14768,-137.5533,104.081,92.80292,1,0,0,0,0,-56.50361,-5.500941,3.470235,0,-56.50361,-5.56985,-0.4526616,0,0,0,0,0,-10,0,0,53.7634,0.9671352,-15.48308,0,53.7634,0.9477578,1,0,0,0,0,0,10,0,0,97.02718,-2.278395,0.3054438,2.750839,-7.311094,0.3843513,0,0,0,0,-97.24916,0,0,769,0,0,173,2,229
116.502,63.34291,-141.7466,108.7562,82.14768,1,0,0,0,0,-56.93078,-5.497903,0.8366582,0,-56.50361,-5.500941,-0.4175773,0,0,0,0,0,-10,0,0,54.71953,0.9707897,-10.84483,0,53.7634,0.9671352,1,0,0,0,0,0,10,0,0,97.61972,-1.940711,0.3081947,2.750839,-7.474048,0.3852428,0,0,0,0,-97.64078,0,0,769,0,0,174,2,229
119.5796,54.42167,-146.0134,116.502,63.34291,1,0,0,0,0,-57.00294,-5.541068,-0.6375289,0,-56.93078,-5.497903,-0.3359364,0,0,0,0,0,-10,0,0,54.77456,0.9454499,-7.9654,0,54.71953,0.9707897,1,0,0,0,0,0,10,0,0,97.83447,-1.616027,0.3105539,2.359222,-6.36631,0.377132,0,0,0,0,-98.38527,0,0,769,0,0,175,2,229
124.1714,37.49318,-155.7079,119.5796,54.42167,1,0,0,0,0,-57.2571,-5.650509,-3.791066,0,-57.2571,-5.541068,-0.2902366,0,0,0,0,0,-10,0,0,54.69632,0.8762298,-1.308162,0,54.69632,0.9454499,1,0,0,0,0,0,10,0,0,98.36317,-1.029492,0.3135503,1.381737,-5.301217,0.3345997,0,0,0,0,-98.61826,0,0,769,0,0,176,2,229
125.7191,29.71811,-159.9251,124.1714,37.49318,1,0,0,0,0,-58.0772,-5.717654,-5.372583,0,-58.0772,-5.650509,-0.1924769,0,0,0,0,0,-10,0,0,54.80638,0.8267921,2.407677,0,54.80638,0.8762298,1,0,0,0,0,0,10,0,0,98.54211,-0.7410709,0.3141802,0.6298676,-3.377145,0.3128155,0,0,0,0,-99.37013,0,0,769,0,0,177,2,229
127.4468,15.63414,-164.2486,125.7191,29.71811,1,0,0,0,0,-58.41509,-5.869099,-8.353297,0,-58.0772,-5.717654,-0.1434499,0,0,0,0,0,-10,0,0,54.80638,0.7016141,10.50019,0,54.80638,0.8267921,0.6984937,0,0,0,0,0,10,0,0,98.50135,-0.0706967,0.3148101,0.6298676,-2.431009,0.3242407,0,0,0,0,-99.00157,0,0,769,0,0,178,2,229
127.6985,9.384726,-168.2532,127.4468,15.63414,1,0,0,0,0,-58.66924,-5.939342,-9.65374,0,-58.41509,-5.869099,-0.05104778,0,0,0,0,0,-10,0,0,54.72815,0.6297194,14.83422,0,54.80638,0.7016141,-0.04601737,0,0,0,0,0,10,0,0,98.43233,0.336765,0.3158085,0.9984283,-0.2319135,0.3720796,0,0,0,0,-99.23457,0,0,769,0,0,179,2,229
127.213,-1.34566,-175.1931,127.6985,9.384726,1,0,0,0,0,-59.00713,-6.118618,-11.6714,0,-59.00713,-5.939342,-0.01073406,0,0,0,0,0,-10,0,0,54.72815,0.4631794,23.85078,0,54.72815,0.6297194,-0.4447483,0,0,0,0,0,10,0,0,98.27187,1.061883,0.3177079,1.133987,1.104724,0.3972294,0,0,0,0,-98.86601,0,0,769,0,0,180,2,229
125.8639,-8.779932,-178.1367,127.213,-1.34566,1,0,0,0,0,-60.5175,-6.394804,-12.75269,0,-60.5175,-6.118618,0.0518134,0,0,0,0,0,-10,0,0,54.54845,0.2355295,32.2642,0,54.54845,0.4631794,-1,0,0,0,0,0,10,0,0,97.60106,1.587319,0.3181355,0.4276199,3.483402,0.383115,0,0,0,0,-99.57238,0,0,769,0,0,181,2,229
125.0581,-11.31296,-180.5516,125.8639,-8.779932,1,0,0,0,0,-60.52908,-6.589924,-12.93418,0,-60.5175,-6.394804,0.08533331,0,0,0,0,0,-10,0,0,54.57166,0.09001775,35.11106,0,54.54845,0.2355295,-1,0,0,0,0,0,10,0,0,97.2674,1.72281,0.3185632,0.4276199,5.20704,0.4032094,0,0,0,0,-98.22633,0,0,769,0,0,182,2,229
123.4208,-14.10509,-182.3723,125.0581,-11.31296,1,0,0,0,0,-60.93913,-6.937374,-12.79787,0,-60.52908,-6.589924,0.0909595,0,0,0,0,0,-10,0,0,54.62669,-0.1708026,37.85326,0,54.57166,0.09001775,-1,0,0,0,0,0,10,0,0,96.69373,2.125588,0.3203368,1.773666,5.651506,0.4894845,0,0,0,0,-98.60227,0,0,769,0,0,183,2,229
122.057,-13.09305,-184.852,123.4208,-14.10509,1,0,0,0,0,-61.54273,-7.29817,-12.28116,0,-61.54273,-6.937374,0.08673405,0,0,0,0,0,-10,0,0,54.57166,-0.4236339,36.71626,0,54.57166,-0.1708026,-1,0,0,0,0,0,10,0,0,95.68652,2.489045,0.3246139,2.879333,6.972781,0.5740828,0,0,0,0,-97.12067,0,0,769,0,0,184,2,229
121.5959,-11.08788,-185.7779,122.057,-13.09305,1,0,0,0,0,-62.62856,-7.596967,-11.95063,0,-62.62856,-7.29817,0.07071588,0,0,0,0,0,-10,0,0,54.62669,-0.6192025,34.83435,0,54.62669,-0.4236339,-1,0,0,0,0,0,10,0,0,95.33418,2.425753,0.3278544,3.240509,8.165065,0.6122402,0,0,0,0,-96.75949,0,0,769,0,0,185,2,229
121.326,-3.992781,-186.3877,121.5959,-11.08788,1,0,0,0,0,-62.62856,-8.245862,-11.23735,0,-62.62856,-7.596967,0.06046944,0,0,0,0,0,-10,0,0,54.62669,-1.006489,28.93254,0,54.62669,-0.6192025,-1,0,0,0,0,0,10,0,0,94.60441,2.069182,0.3310949,3.240509,7.95744,0.6131117,0,0,0,0,-96.75949,0,0,769,0,0,186,2,229
122.1691,7.138097,-186.8914,121.326,-3.992781,1,0,0,0,0,-63.64222,-8.904891,-10.503,0,-62.62856,-8.245862,0.03835789,0,0,0,0,0,-10,0,0,54.62669,-1.326738,20.76959,0,54.62669,-1.006489,-1,0,0,0,0,0,10,0,0,94.09769,1.366713,0.3343354,3.240509,6.787744,0.6030059,0,0,0,0,-95.65382,0,0,769,0,0,187,2,229
123.0776,13.95438,-188.1829,122.1691,7.138097,1,0,0,0,0,-64.57213,-9.187446,-10.11041,0,-64.57213,-8.904891,0.01559301,0,0,0,0,0,-10,0,0,54.54845,-1.423176,16.07416,0,54.54845,-1.326738,-0.9908026,0,0,0,0,0,10,0,0,93.99166,0.9444097,0.3435318,4.850288,4.483366,0.6809025,0,0,0,0,-95.14971,0,0,769,0,0,188,2,229
125.9353,28.87428,-188.8722,123.0776,13.95438,1,0,0,0,0,-64.91001,-9.601748,-9.107304,0,-64.91001,-9.187446,0.00342279,0,0,0,0,0,-10,0,0,54.54845,-1.449707,5.852731,0,54.54845,-1.423176,-0.5588227,0,0,0,0,0,10,0,0,93.78677,0.05766903,0.3487507,5.218849,3.098042,0.6920636,0,0,0,0,-94.78115,0,0,769,0,0,189,2,229
127.8524,36.26133,-189.7023,125.9353,28.87428,1,0,0,0,0,-65.64085,-9.770951,-8.401331,0,-64.91001,-9.601748,-0.02767359,0,0,0,0,0,-10,0,0,53.7024,-1.368473,0.4401419,0,54.54845,-1.449707,0.3815488,0,0,0,0,0,10,0,0,93.97676,-0.6204867,0.3539695,5.218849,0.1891775,0.6640924,0,0,0,0,-94.77284,0,0,769,0,0,190,2,229
132.4475,49.64862,-191.1772,127.8524,36.26133,1,0,0,0,0,-66.64294,-9.906701,-6.270593,0,-65.64085,-9.770951,-0.04955874,0,0,0,0,0,-10,0,0,53.67919,-0.9957624,-10.47823,0,53.7024,-1.368473,0.8795069,0,0,0,0,0,10,0,0,94.29431,-1.892437,0.3591967,5.227158,-2.035444,0.6444269,0,0,0,0,-95.01321,0,0,769,0,0,191,2,229
134.9739,54.93415,-195.4586,132.4475,49.64862,1,0,0,0,0,-67.46305,-9.915469,-4.766128,0,-67.46305,-9.906701,-0.1156116,0,0,0,0,0,-10,0,0,53.78925,-0.8072392,-14.66599,0,53.78925,-0.9957624,1,0,0,0,0,0,10,0,0,94.76772,-2.30575,0.3684184,4.234909,-6.20795,0.5474876,0,0,0,0,-95.76509,0,0,769,0,0,192,2,229
140.0512,60.72281,-197.7281,134.9739,54.93415,1,0,0,0,0,-67.46305,-9.86031,-0.8382694,0,-67.46305,-9.915469,-0.16225,0,0,0,0,0,-10,0,0,53.78925,-0.4169829,-18.81882,0,53.78925,-0.8072392,1,0,0,0,0,0,10,0,0,95.52093,-3.039598,0.3726533,4.234909,-7.563783,0.5362525,0,0,0,0,-95.76509,0,0,769,0,0,193,2,229
142.5137,61.54411,-200.1983,140.0512,60.72281,1,0,0,0,0,-68.8752,-9.820529,1.481411,0,-67.46305,-9.86031,-0.2840137,0,0,0,0,0,-10,0,0,53.82107,-0.2938251,-18.92815,0,53.78925,-0.4169829,1,0,0,0,0,0,10,0,0,96.16098,-3.08401,0.3768882,4.234909,-9.971099,0.5130199,0,0,0,0,-96.38139,0,0,769,0,0,194,2,229
144.8795,60.39428,-203.3939,142.5137,61.54411,1,0,0,0,0,-69.28526,-9.762856,3.909842,0,-68.8752,-9.820529,-0.3559237,0,0,0,0,0,-10,0,0,53.87611,-0.1701435,-17.99173,0,53.82107,-0.2938251,1,0,0,0,0,0,10,0,0,96.64134,-3.186145,0.3805068,3.618607,-10.11679,0.4786082,0,0,0,0,-96.75732,0,0,769,0,0,195,2,229
149.0768,50.90162,-210.0541,144.8795,60.39428,1,0,0,0,0,-70.04769,-9.623145,8.727371,0,-70.04769,-9.762856,-0.4312051,0,0,0,0,0,-10,0,0,53.64138,-0.01491408,-13.74811,0,53.64138,-0.1701435,1,0,0,0,0,0,10,0,0,97.7757,-3.336188,0.3862932,2.543686,-10.45183,0.4171407,0,0,0,0,-97.45631,0,0,769,0,0,196,2,229
