MagYaw,YawVelocityDegreesPerSecond,YawIntegral,YawProportional,YawDerivativeError,YawControl,YawIntegralGain,YawDerivativeGain,YawProportionalGain,YawAntiWindupGain,XNEDBodyFrame,XVelocityMetersPerSecond,ThetaPitchDegrees,XIntegral,XProportional,XDerivativeError,LongitudeControl,XIntegralGain,XDerivativeGain,XProportionalGain,XAntiWindupGain,LongitudeInnerLoopGain,XLongitudeOuterLoopSetpoint,PitchAngularVelocityRadsPerSecond,PitchAngularVelocityGain,YNEDBodyFrame,YVelocityMetersPerSecond,PhiRollDegrees,YIntegral,YProportional,YDerivativeError,LateralControl,YIntegralGain,YDerivativeGain,YProportionalGain,YAntiWindupGain,LateralInnerLoopGain,YLateralOuterLoopSetpoint,RollAngularVelocityRadsPerSecond,RollAngularVelocityGain,AltitudeFeetAgl,ZVelocityMetersPerSecond,ZIntegral,ZProportional,ZDerivativeError,MainRotorCollectiveControl,ZIntegralGain,ZDerivativeGain,ZProportionalGain,ZAntiWindupGain,ZNEDBodyFrame,LatitudeDegrees,LongitudeDegrees,Timeouts,UnrecognizedMsgTypes,ChecksumErrors,NumOfBlownFrames,MessageType,NumOfBytesInMsg
157.6044,14.6281,0,0,0,0,0,0,0,0,0,-0.01240722,-1.268649,0,0,0,0,0,0,0,0,0,0,0,0,0,0.003271122,-0.2055366,0,0,0,0,0,0,0,0,0,0,0,0,0.09352992,0.0005259201,0,0,0,0,0,0,0,0,0,0,0,294,0,0,0,2,229
157.6044,14.6281,0.3940109,157.6044,14.6281,1,0,0,0,0,-0.2282977,-0.01240722,-1.268649,0,0,-0.01240722,0.03861312,0,0,0,0,0,-0.02306503,0,0,0.1883344,0.003271122,-0.2055366,0,0,0.003271122,0.01976294,0,0,0,0,0,0.009277882,0,0,0.09352992,0.0005259201,0.09999999,100,0.001725228,1,0,0,0,0,-0.8873613,0,0,295,0,0,1,2,229
160.5814,22.22998,0.5005389,157.6044,14.6281,1,0,0,0,0,-0.2282977,-0.01571237,-1.323286,0,-0.2282977,-0.01240722,0.0365678,0,0,0,0,0,-0.08904305,0,0,0.1883344,0.002431219,-0.2241931,0,0.1883344,0.003271122,0.04466149,0,0,0,0,0,0.2799143,0,0,0.09361494,-0.0003222898,0,99.11264,0.001725228,1,0,0,0,0,-0.8873613,0,0,295,0,0,2,2,229
160.1015,-9.554244,0.6134444,160.5814,22.22998,1,0,0,0,0,-0.2282977,-0.07488608,-1.358682,0,-0.2282977,-0.01571237,0.03807107,0,0,0,0,0,-0.09518732,0,0,0.1883344,-0.09900385,-0.02618321,0,0.1883344,0.002431219,0.04615872,0,0,0,0,0,0.2775321,0,0,0.5617419,-2.840424,0,99.11264,-0.001057239,1,0,0,0,0,-0.8873613,0,0,295,0,0,3,2,229
159.1048,-19.81767,0.8262044,160.1015,-9.554244,1,0,0,0,0,-0.3006536,-0.1080998,-1.147632,0,-0.3006536,-0.07488608,0.03575821,0,0,0,0,0,-0.2261021,0,0,0.2433876,-0.1456806,0.2193523,0,0.2433876,-0.09900385,0.001473387,0,0,0,0,0,0.06894332,0,0,1.173523,-3.712441,0,98.36817,-9.317727,1,0,0,0,0,-1.63183,0,0,295,0,0,4,2,229
157.6076,-29.79564,0.9315691,159.1048,-19.81767,1,0,0,0,0,0.03713936,-0.1288183,-0.7676447,0,0.03713936,-0.1080998,0.02967964,0,0,0,0,0,-0.1902242,0,0,0.2433876,-0.2115498,0.5467685,0,0.2433876,-0.1456806,-0.02601744,0,0,0,0,0,-0.06344604,0,0,1.869512,-4.223924,0,97.99953,-12.17829,1,0,0,0,0,-2.000471,0,0,295,0,0,5,2,229
153.5807,-42.9934,1.035684,157.6076,-29.79564,1,0,0,0,0,-0.2894239,-0.1495086,0.4677034,0,0.03713936,-0.1288183,0.01670605,0,0,0,0,0,-0.2287399,0,0,0.2202128,-0.341499,1.274535,0,0.2433876,-0.2115498,-0.0733276,0,0,0,0,0,-0.2502707,0,0,3.426737,-4.861202,0,97.99953,-13.85616,1,0,0,0,0,-2.977875,0,0,295,0,0,6,2,229
151.2271,-47.10526,1.133116,153.5807,-42.9934,1,0,0,0,0,-0.5324018,-0.1492869,1.308135,0,-0.2894239,-0.1495086,-0.02570779,0,0,0,0,0,-0.36158,0,0,0.1188099,-0.4051569,1.535625,0,0.2202128,-0.341499,-0.1772548,0,0,0,0,0,-0.6521479,0,0,4.261683,-5.06754,0,97.02213,-15.94669,1,0,0,0,0,-4.556855,0,0,295,0,0,7,2,229
148.7354,-49.94484,1.337554,151.2271,-47.10526,1,0,0,0,0,-0.1110229,-0.14173,2.277385,0,-0.1110229,-0.1492869,-0.05392523,0,0,0,0,0,-0.30961,0,0,0.04058206,-0.4666082,1.644076,0,0.04058206,-0.4051569,-0.2312918,0,0,0,0,0,-1.09083,0,0,5.123247,-5.230177,0,94.47293,-16.62356,1,0,0,0,0,-5.527072,0,0,295,0,0,8,2,229
146.1574,-51.68836,1.434516,148.7354,-49.94484,1,0,0,0,0,-0.5211718,-0.1254048,3.363557,0,-0.5211718,-0.14173,-0.08343588,0,0,0,0,0,-0.4140947,0,0,0.09563518,-0.5308939,1.599803,0,0.09563518,-0.4666082,-0.2603682,0,0,0,0,0,-1.186013,0,0,6.006656,-5.36266,0,94.0971,-17.15707,1,0,0,0,0,-5.9029,0,0,295,0,0,9,2,229
143.5507,-52.19201,1.529138,146.1574,-51.68836,1,0,0,0,0,-0.2557347,-0.1009666,4.528487,0,-0.5211718,-0.1254048,-0.1161664,0,0,0,0,0,-0.3837462,0,0,0.1506884,-0.5841402,1.283098,0,0.09563518,-0.5308939,-0.2730698,0,0,0,0,0,-1.368346,0,0,6.908622,-5.475876,0,94.0971,-17.59167,1,0,0,0,0,-7.016009,0,0,295,0,0,10,2,229
140.9488,-51.87992,1.621349,143.5507,-52.19201,1,0,0,0,0,-0.6634774,-0.06620924,5.74216,0,-0.2557347,-0.1009666,-0.1484928,0,0,0,0,0,-0.2616043,0,0,-0.9850852,-0.633509,0.6529163,0,0.1506884,-0.5841402,-0.2505488,0,0,0,0,0,-1.440258,0,0,7.826998,-5.575409,0,92.98399,-17.96306,1,0,0,0,0,-8.0678,0,0,295,0,0,11,2,229
135.8856,-48.87297,1.804571,140.9488,-51.87992,1,0,0,0,0,-0.3980403,0.0389167,8.209524,0,-0.3980403,-0.06620924,-0.1877666,0,0,0,0,0,-0.2381166,0,0,-0.9300323,-0.7159889,-1.555729,0,-0.9300323,-0.633509,-0.3556081,0,0,0,0,0,-3.133278,0,0,9.707506,-5.7512,0,90.81909,-18.28957,1,0,0,0,0,-9.180908,0,0,295,0,0,12,2,229
133.4871,-46.20929,1.884517,135.8856,-48.87297,1,0,0,0,0,-0.3868108,0.1114409,9.4196,0,-0.3868108,0.0389167,-0.255718,0,0,0,0,0,-0.03944217,0,0,-0.953207,-0.7483147,-3.066713,0,-0.953207,-0.7159889,-0.1697205,0,0,0,0,0,-3.400518,0,0,10.66804,-5.832367,0,89.47305,-18.86624,1,0,0,0,0,-10.52695,0,0,295,0,0,13,2,229
131.2185,-42.85096,1.96652,133.4871,-46.20929,1,0,0,0,0,-0.1213737,0.2055175,10.59185,0,-0.3868108,0.1114409,-0.2890508,0,0,0,0,0,0.09538035,0,0,-0.8981538,-0.7600277,-4.929672,0,-0.953207,-0.7483147,-0.03914518,0,0,0,0,0,-3.492204,0,0,11.64174,-5.912211,0,89.47305,-19.1325,1,0,0,0,0,-11.64006,0,0,295,0,0,14,2,229
129.1069,-38.83474,2.046019,131.2185,-42.85096,1,0,0,0,0,-0.4479365,0.3203534,11.72559,0,-0.1213737,0.2055175,-0.3175908,0,0,0,0,0,0.3469801,0,0,-0.9213288,-0.7647448,-7.103317,0,-0.8981538,-0.7600277,0.1364689,0,0,0,0,0,-3.446314,0,0,12.62841,-5.990313,0,88.35994,-19.39442,1,0,0,0,0,-12.61747,0,0,295,0,0,15,2,229
127.1878,-34.10506,2.202594,129.1069,-38.83474,1,0,0,0,0,-0.1824999,0.4415068,12.79666,0,-0.1824999,0.3203534,-0.3490446,0,0,0,0,0,0.5427945,0,0,-0.8662753,-0.7709945,-9.331462,0,-0.8662753,-0.7647448,0.3321497,0,0,0,0,0,-3.413883,0,0,13.62751,-6.06577,0,86.26942,-19.65062,1,0,0,0,0,-13.73058,0,0,295,0,0,16,2,229
125.4944,-28.76702,2.27652,127.1878,-34.10506,1,0,0,0,0,-0.3531213,0.5795754,13.82331,0,-0.3531213,0.4415068,-0.3744166,0,0,0,0,0,0.7187091,0,0,-1.022731,-0.7711352,-11.46257,0,-1.022731,-0.7709945,0.5221024,0,0,0,0,0,-3.656436,0,0,14.6381,-6.135466,0,85.43491,-19.89815,1,0,0,0,0,-14.56509,0,0,295,0,0,17,2,229
122.8848,-16.9667,2.348232,125.4944,-28.76702,1,0,0,0,0,-0.6796846,0.8883373,15.83328,0,-0.3531213,0.5795754,-0.3982858,0,0,0,0,0,0.9753786,0,0,-1.045906,-0.7779014,-14.66554,0,-1.022731,-0.7711352,0.7181277,0,0,0,0,0,-3.656836,0,0,16.69073,-6.260622,0,85.43491,-20.12678,1,0,0,0,0,-15.54249,0,0,295,0,0,18,2,229
121.9982,-10.9365,2.414943,122.8848,-16.9667,1,0,0,0,0,-0.3306618,1.050932,16.86586,0,-0.6796846,0.8883373,-0.4457269,0,0,0,0,0,1.45499,0,0,-1.069081,-0.7937925,-15.38095,0,-1.045906,-0.7779014,1,0,0,0,0,0,-3.709329,0,0,17.73066,-6.313318,0,84.4575,-20.53734,1,0,0,0,0,-17.25718,0,0,295,0,0,19,2,229
121.3894,-5.212284,2.548284,121.9982,-10.9365,1,0,0,0,0,0.2725677,1.226668,17.94689,0,0.2725677,1.050932,-0.46524,0,0,0,0,0,2.032455,0,0,-1.014028,-0.811688,-15.52626,0,-1.014028,-0.7937925,1,0,0,0,0,0,-3.708591,0,0,18.77804,-6.358651,0,81.26107,-20.71021,1,0,0,0,0,-18.73893,0,0,295,0,0,20,2,229
121.0457,-0.06623359,2.61275,121.3894,-5.212284,1,0,0,0,0,0.6215906,1.391014,19.06738,0,0.6215906,1.226668,-0.4800932,0,0,0,0,0,2.460016,0,0,-1.037202,-0.8576958,-14.93424,0,-1.037202,-0.811688,1,0,0,0,0,0,-3.79265,0,0,19.83214,-6.399396,0,79.54639,-20.85892,1,0,0,0,0,-20.45361,0,0,295,0,0,21,2,229
121.0677,7.685116,2.675884,121.0457,-0.06623359,1,0,0,0,0,0.5492344,1.69699,21.35746,0,0.6215906,1.391014,-0.5053571,0,0,0,0,0,2.765534,0,0,-0.9821496,-1.011365,-11.5894,0,-1.037202,-0.8576958,1,0,0,0,0,0,-3.923142,0,0,21.95587,-6.460577,0,79.54639,-20.99258,1,0,0,0,0,-21.19808,0,0,295,0,0,22,2,229
121.3571,9.88808,2.738223,121.0677,7.685116,1,0,0,0,0,0.4881086,1.832049,22.48096,0,0.5492344,1.69699,-0.5593647,0,0,0,0,0,3.313434,0,0,-0.9502707,-1.130733,-8.988417,0,-0.9821496,-1.011365,0.6724755,0,0,0,0,0,-4.279883,0,0,23.02306,-6.479427,0,78.80192,-21.19328,1,0,0,0,0,-23.2886,0,0,295,0,0,23,2,229
121.7651,10.88793,2.858928,121.3571,9.88808,1,0,0,0,0,0.7535448,1.949291,23.5619,0,0.7535448,1.832049,-0.5869575,0,0,0,0,0,3.623553,0,0,-0.8952174,-1.286081,-5.847123,0,-0.8952174,-1.130733,0.4062516,0,0,0,0,0,-4.493526,0,0,24.09154,-6.488375,0,75.5983,-21.25511,1,0,0,0,0,-24.4017,0,0,295,0,0,24,2,229
122.2363,10.688,2.918949,121.7651,10.88793,1,0,0,0,0,0.6811895,2.043367,24.56968,0,0.6811895,1.949291,-0.6119803,0,0,0,0,0,3.820597,0,0,-0.8401647,-1.477967,-2.212899,0,-0.8401647,-1.286081,0.09127274,0,0,0,0,0,-4.855028,0,0,25.16006,-6.489894,0,74.85383,-21.28446,1,0,0,0,0,-25.14617,0,0,295,0,0,25,2,229
122.7066,9.272953,2.978628,122.2363,10.688,1,0,0,0,0,0.7647753,2.119641,25.46616,0,0.6811895,2.043367,-0.6377999,0,0,0,0,0,3.995483,0,0,-0.9183922,-1.696024,1.702851,0,-0.8401647,-1.477967,-0.2931464,0,0,0,0,0,-5.399273,0,0,26.22796,-6.486733,0,74.85383,-21.28945,1,0,0,0,0,-25.74775,0,0,295,0,0,26,2,229
123.0968,6.630109,3.038049,122.7066,9.272953,1,0,0,0,0,0.5217981,2.186353,26.23019,0,0.7647753,2.119641,-0.6604464,0,0,0,0,0,4.161432,0,0,-1.019795,-1.934907,5.530916,0,-0.9183922,-1.696024,-0.7206371,0,0,0,0,0,-6.130161,0,0,27.29446,-6.478805,0,74.25225,-21.27908,1,0,0,0,0,-27.32673,0,0,295,0,0,27,2,229
123.324,2.939905,3.155514,123.0968,6.630109,1,0,0,0,0,0.5330267,2.242466,26.8422,0,0.5330267,2.186353,-0.6824637,0,0,0,0,0,4.218474,0,0,-1.042971,-2.191101,8.890693,0,-1.042971,-1.934907,-1,0,0,0,0,0,-6.986726,0,0,28.35838,-6.465026,0,71.32722,-21.25307,1,0,0,0,0,-28.67278,0,0,295,0,0,28,2,229
123.3126,-1.47387,3.213794,123.324,2.939905,1,0,0,0,0,1.208612,2.295693,27.28223,0,1.208612,2.242466,-0.6920493,0,0,0,0,0,4.518033,0,0,-1.042971,-2.452594,11.32967,0,-1.042971,-2.191101,-1,0,0,0,0,0,-7.713367,0,0,29.41965,-6.450118,0,70.58994,-21.20787,1,0,0,0,0,-29.41006,0,0,295,0,0,29,2,229
123.0109,-6.160437,3.271657,123.3126,-1.47387,1,0,0,0,0,1.392871,2.352325,27.53712,0,1.208612,2.295693,-0.7026227,0,0,0,0,0,4.616983,0,0,-2.100516,-2.705723,12.44203,0,-1.042971,-2.452594,-1,0,0,0,0,0,-8.455041,0,0,30.47756,-6.430527,0,70.58994,-21.15897,1,0,0,0,0,-30.59755,0,0,295,0,0,30,2,229
122.4115,-10.45858,3.328942,123.0109,-6.160437,1,0,0,0,0,1.320515,2.392892,27.57451,0,1.392871,2.352325,-0.7056097,0,0,0,0,0,4.775511,0,0,-2.045463,-2.965907,12.32729,0,-2.100516,-2.705723,-1,0,0,0,0,0,-10,0,0,31.53109,-6.405032,0,69.40245,-21.0947,1,0,0,0,0,-31.34202,0,0,295,0,0,31,2,229
122.4115,-10.45858,3.443299,122.4115,-10.45858,1,0,0,0,0,1.585953,2.392892,27.57451,0,1.585953,2.392892,-0.7050793,0,0,0,0,0,4.906726,0,0,-1.99041,-2.965907,12.32729,0,-1.99041,-2.965907,-1,0,0,0,0,0,-10,0,0,31.53109,-6.405032,0,67.54488,-21.01107,1,0,0,0,0,-32.45513,0,0,295,0,0,32,2,229
121.5764,-13.65392,3.500527,122.4115,-10.45858,1,0,0,0,0,1.585953,2.434103,27.39345,0,1.585953,2.392892,-0.7027012,0,0,0,0,0,4.906726,0,0,-1.99041,-3.217603,11.16875,0,-1.99041,-2.965907,-1,0,0,0,0,0,-10,0,0,32.58059,-6.3818,0,67.54488,-21.01107,1,0,0,0,0,-32.45513,0,0,295,0,0,33,2,229
120.5966,-15.56312,3.555095,121.5764,-13.65392,1,0,0,0,0,2.007332,2.487273,26.99754,0,1.585953,2.434103,-0.6947135,0,0,0,0,0,4.983337,0,0,-2.068638,-3.446755,9.119811,0,-1.99041,-3.217603,-1,0,0,0,0,0,-10,0,0,33.62751,-6.366739,0,67.54488,-20.93486,1,0,0,0,0,-33.42534,0,0,295,0,0,34,2,229
119.5766,-16.11789,3.608741,120.5966,-15.56312,1,0,0,0,0,2.272768,2.557781,26.38887,0,2.007332,2.487273,-0.6756009,0,0,0,0,0,5.203959,0,0,-2.013584,-3.645666,6.317838,0,-2.068638,-3.446755,-1,0,0,0,0,0,-10,0,0,34.67345,-6.362123,0,66.57466,-20.88545,1,0,0,0,0,-34.53845,0,0,295,0,0,35,2,229
118.6286,-15.24596,3.715565,119.5766,-16.11789,1,0,0,0,0,1.790262,2.649305,25.57095,0,1.790262,2.557781,-0.650291,0,0,0,0,0,5.2723,0,0,-1.903478,-3.80831,2.897923,0,-1.903478,-3.645666,-1,0,0,0,0,0,-10,0,0,35.72034,-6.368969,0,64.34125,-20.87031,1,0,0,0,0,-35.65875,0,0,295,0,0,36,2,229
117.8676,-12.9045,3.766791,118.6286,-15.24596,1,0,0,0,0,1.873848,2.773355,24.56013,0,1.873848,2.649305,-0.6232349,0,0,0,0,0,5.4666,0,0,-1.981707,-3.934396,-1.04274,0,-1.981707,-3.80831,-1,0,0,0,0,0,-10,0,0,36.7732,-6.406505,0,63.73967,-20.89277,1,0,0,0,0,-36.26033,0,0,295,0,0,37,2,229
117.4063,-9.047929,3.817208,117.8676,-12.9045,1,0,0,0,0,1.731544,2.933931,23.3935,0,1.873848,2.773355,-0.5847504,0,0,0,0,0,5.697208,0,0,-3.062427,-4.017336,-5.4172,0,-1.981707,-3.934396,-0.824068,0,0,0,0,0,-10,0,0,37.83661,-6.472209,0,63.73967,-21.0159,1,0,0,0,0,-38.42522,0,0,295,0,0,38,2,229
117.3506,-3.629641,3.866983,117.4063,-9.047929,1,0,0,0,0,1.81513,3.135337,22.12797,0,1.731544,2.933931,-0.5406061,0,0,0,0,0,5.954594,0,0,-3.140655,-4.049996,-10.14872,0,-3.062427,-4.017336,-0.4216176,0,0,0,0,0,-10,0,0,38.91504,-6.565778,0,61.57478,-21.23144,1,0,0,0,0,-39.0268,0,0,295,0,0,39,2,229
117.7922,3.351656,3.964391,117.3506,-3.629641,1,0,0,0,0,2.080566,3.381874,20.84602,0,2.080566,3.135337,-0.489019,0,0,0,0,0,6.429874,0,0,-3.085601,-4.024572,-15.14117,0,-3.085601,-4.049996,0.01368257,0,0,0,0,0,-10,0,0,40.0134,-6.688574,0,59.86009,-21.53838,1,0,0,0,0,-40.13991,0,0,295,0,0,40,2,229
118.7867,11.52497,4.013073,117.7922,3.351656,1,0,0,0,0,2.363091,3.676665,19.64363,0,2.363091,3.381874,-0.4301618,0,0,0,0,0,6.969837,0,0,-3.931638,-3.931719,-20.34623,0,-3.931638,-4.024572,0.4729874,0,0,0,0,0,-10,0,0,41.13531,-6.834231,0,58.76263,-21.9412,1,0,0,0,0,-41.23737,0,0,295,0,0,41,2,229
122.527,31.1687,4.061778,118.7867,11.52497,1,0,0,0,0,2.036528,4.300501,17.95598,0,2.363091,3.676665,-0.375899,0,0,0,0,0,7.517853,0,0,-3.954813,-3.626682,-29.2076,0,-3.931638,-3.931719,0.9518535,0,0,0,0,0,-10,0,0,43.45388,-7.139702,0,58.76263,-22.41901,1,0,0,0,0,-42.21477,0,0,295,0,0,42,2,229
125.2097,42.26437,4.11615,122.527,31.1687,1,0,0,0,0,3.061134,4.607588,17.72914,0,2.036528,4.300501,-0.2905565,0,0,0,0,0,8.583188,0,0,-3.977987,-3.428515,-31.86358,0,-3.954813,-3.626682,1,0,0,0,0,0,-10,0,0,44.64677,-7.270476,0,57.78523,-23.42108,1,0,0,0,0,-44.66674,0,0,295,0,0,43,2,229
128.354,53.75345,4.20957,125.2097,42.26437,1,0,0,0,0,2.988779,4.899973,18.01407,0,2.988779,4.607588,-0.2566478,0,0,0,0,0,9.429263,0,0,-3.922935,-3.213288,-32.95493,0,-3.922935,-3.428515,1,0,0,0,0,0,-10,0,0,45.85674,-7.375432,0,54.58879,-23.85007,1,0,0,0,0,-45.41121,0,0,295,0,0,44,2,229
131.9312,65.19337,4.260058,128.354,53.75345,1,0,0,0,0,3.00001,5.18324,18.77932,0,3.00001,4.899973,-0.2491785,0,0,0,0,0,9.976053,0,0,-3.946109,-2.969409,-32.69903,0,-3.946109,-3.213288,1,0,0,0,0,0,-10,0,0,47.08095,-7.461081,0,53.24275,-24.19437,1,0,0,0,0,-46.75725,0,0,295,0,0,45,2,229
135.897,75.8307,4.311267,131.9312,65.19337,1,0,0,0,0,3.241941,5.447676,19.98343,0,3.00001,5.18324,-0.2565768,0,0,0,0,0,10.50265,0,0,-5.348445,-2.73916,-31.25621,0,-3.946109,-2.969409,1,0,0,0,0,0,-10,0,0,48.31489,-7.518965,0,53.24275,-24.47533,1,0,0,0,0,-47.8919,0,0,295,0,0,46,2,229
140.2572,85.58656,4.363369,135.897,75.8307,1,0,0,0,0,4.182966,5.682573,21.53499,0,3.241941,5.447676,-0.2764978,0,0,0,0,0,11.06415,0,0,-5.293392,-2.537256,-28.71943,0,-5.348445,-2.73916,1,0,0,0,0,0,-10,0,0,49.55428,-7.550691,0,52.1081,-24.66521,1,0,0,0,0,-49.74229,0,0,295,0,0,47,2,229
145.031,94.19376,4.459935,140.2572,85.58656,1,0,0,0,0,4.266552,5.887672,23.31899,0,4.266552,5.682573,-0.3026284,0,0,0,0,0,11.79694,0,0,-5.37162,-2.376971,-25.15495,0,-5.37162,-2.537256,1,0,0,0,0,0,-10,0,0,50.79467,-7.553131,0,49.65614,-24.76929,1,0,0,0,0,-50.34386,0,0,295,0,0,48,2,229
150.2325,101.329,4.514616,145.031,94.19376,1,0,0,0,0,4.869781,6.068755,25.20221,0,4.869781,5.887672,-0.3399597,0,0,0,0,0,12.35255,0,0,-5.316566,-2.267823,-20.6109,0,-5.316566,-2.376971,1,0,0,0,0,0,-10,0,0,52.03114,-7.525689,0,48.17439,-24.77729,1,0,0,0,0,-51.82561,0,0,295,0,0,49,2,229
155.8316,106.1315,4.571506,150.2325,101.329,1,0,0,0,0,4.725069,6.23096,27.01511,0,4.869781,6.068755,-0.3879037,0,0,0,0,0,12.68918,0,0,-5.206461,-2.214734,-15.15839,0,-5.316566,-2.267823,0.9762033,0,0,0,0,0,-10,0,0,53.25896,-7.46898,0,48.17439,-24.68727,1,0,0,0,0,-53.31455,0,0,295,0,0,50,2,229
161.7822,108.9522,4.631031,155.8316,106.1315,1,0,0,0,0,5.484241,6.384062,28.61472,0,4.725069,6.23096,-0.4360524,0,0,0,0,0,12.9489,0,0,-5.284689,-2.221771,-8.870787,0,-5.206461,-2.214734,0.4745719,0,0,0,0,0,-10,0,0,54.47181,-7.374569,0,46.68545,-24.50124,1,0,0,0,0,-54.6534,0,0,295,0,0,51,2,229
167.9916,109.6647,4.744275,161.7822,108.9522,1,0,0,0,0,5.411884,6.536013,29.8726,0,5.411884,6.384062,-0.4840563,0,0,0,0,0,13,0,0,-5.229634,-2.286973,-1.845211,0,-5.229634,-2.221771,-0.1038876,0,0,0,0,0,-10,0,0,55.6631,-7.241369,0,44.60213,-24.19154,1,0,0,0,0,-55.39787,0,0,295,0,0,52,2,229
174.3086,108.069,4.809871,167.9916,109.6647,1,0,0,0,0,5.67732,6.706035,30.69156,0,5.67732,6.536013,-0.5230507,0,0,0,0,0,13,0,0,-5.174582,-2.358501,5.289769,0,-5.174582,-2.286973,-0.7502406,0,0,0,0,0,-10,0,0,56.83136,-7.098565,0,43.48901,-23.75459,1,0,0,0,0,-56.51099,0,0,295,0,0,53,2,229
180.5256,104.0825,4.879016,174.3086,108.069,1,0,0,0,0,6.026342,6.898653,31.01648,0,5.67732,6.706035,-0.5484383,0,0,0,0,0,13,0,0,-5.197756,-2.420426,11.62785,0,-5.174582,-2.358501,-1,0,0,0,0,0,-10,0,0,57.97768,-6.963778,0,43.48901,-23.28613,1,0,0,0,0,-58.22567,0,0,295,0,0,54,2,229
186.4336,98.35156,4.05161,-179.4744,104.0825,-1,0,0,0,0,6.308865,7.113058,30.86049,0,6.026342,6.898653,-0.5585109,0,0,0,0,0,13,0,0,-6.043793,-2.467954,16.29146,0,-5.197756,-2.420426,-1,0,0,0,0,0,-10,0,0,59.10421,-6.844193,0,41.77433,-22.84398,1,0,0,0,0,-59.32312,0,0,295,0,0,55,2,229
191.9301,92.55142,3.702897,-173.5664,98.35156,-1,0,0,0,0,6.984451,7.344192,30.31065,0,6.984451,7.113058,-0.5536751,0,0,0,0,0,13,0,0,-6.043793,-2.566086,19.56102,0,-6.043793,-2.467954,-1,0,0,0,0,0,-10,0,0,60.20357,-6.680697,0,39.9396,-22.45169,1,0,0,0,0,-60.0604,0,0,295,0,0,56,2,229
197.0232,87.86642,3.539937,-168.0699,92.55142,-1,0,0,0,0,7.068041,7.581887,29.44462,0,7.068041,7.344192,-0.53663,0,0,0,0,0,13,0,0,-6.122022,-2.644334,21.49501,0,-6.122022,-2.566086,-1,0,0,0,0,0,-10,0,0,61.27616,-6.522467,0,39.33802,-21.91536,1,0,0,0,0,-60.66198,0,0,295,0,0,57,2,229
204.8748,144.6747,3.382152,-162.9768,87.86642,-1,0,0,0,0,7.162857,7.724792,27.05999,0,7.068041,7.581887,-0.5097831,0,0,0,0,0,13,0,0,-6.223424,-2.471544,23.11317,0,-6.122022,-2.644334,-1,0,0,0,0,0,-10,0,0,62.33996,-6.4722,0,39.33802,-21.3963,1,0,0,0,0,-62.6096,0,0,295,0,0,58,2,229
215.1321,201.9332,3.236945,-155.1252,144.6747,-1,0,0,0,0,8.176235,7.834687,22.9363,0,7.162857,7.724792,-0.4358597,0,0,0,0,0,13,0,0,-6.223424,-2.281479,24.01762,0,-6.223424,-2.471544,-1,0,0,0,0,0,-10,0,0,63.40036,-6.455256,0,37.3904,-21.23141,1,0,0,0,0,-63.71552,0,0,295,0,0,59,2,229
227.3916,257.6139,2.925785,-144.8679,201.9332,-1,0,0,0,0,8.187466,7.896127,17.02445,0,8.187466,7.834687,-0.3080254,0,0,0,0,0,13,0,0,-6.2466,-2.089073,23.66006,0,-6.2466,-2.281479,-1,0,0,0,0,0,-10,0,0,64.46587,-6.490436,0,34.93844,-21.17582,1,0,0,0,0,-65.06156,0,0,295,0,0,60,2,229
241.5279,311.9079,2.789022,-132.6084,257.6139,-1,0,0,0,0,8.525261,7.893897,9.517228,0,8.525261,7.896127,-0.1247578,0,0,0,0,0,13,0,0,-6.2466,-1.923436,21.45684,0,-6.2466,-2.089073,-1,0,0,0,0,0,-10,0,0,65.54787,-6.592935,0,34.56979,-21.29123,1,0,0,0,0,-65.43021,0,0,295,0,0,61,2,229
257.7332,362.3316,2.657068,-118.4721,311.9079,-1,0,0,0,0,9.128489,7.828163,1.029891,0,8.525261,7.893897,0.1079659,0,0,0,0,0,13,0,0,-6.191545,-1.827693,16.83956,0,-6.2466,-1.923436,-1,0,0,0,0,0,-10,0,0,66.65655,-6.756085,0,34.56979,-21.62746,1,0,0,0,0,-66.91196,0,0,295,0,0,62,2,229
276.5422,406.9335,2.531808,-102.2668,362.3316,-1,0,0,0,0,9.46628,7.7134,-7.30235,0,9.128489,7.828163,0.3710734,0,0,0,0,0,13,0,0,-6.191545,-1.846747,9.333078,0,-6.191545,-1.827693,-1,0,0,0,0,0,-10,0,0,67.79745,-6.952063,0,33.08804,-22.16266,1,0,0,0,0,-67.28059,0,0,295,0,0,63,2,229
298.485,443.6564,2.260206,-83.45779,406.9335,-1,0,0,0,0,9.815306,7.589662,-13.78343,0,9.815306,7.7134,0.6293728,0,0,0,0,0,13,0,0,-6.214722,-2.009408,-1.221747,0,-6.214722,-1.846747,-1,0,0,0,0,0,-10,0,0,68.96831,-7.132559,0,31.00471,-22.80555,1,0,0,0,0,-68.99529,0,0,295,0,0,64,2,229
298.485,443.6564,2.160323,-61.51505,443.6564,-1,0,0,0,0,10.08074,7.589662,-13.78343,0,10.08074,7.589662,0.8302863,0,0,0,0,0,13,0,0,-6.159666,-2.009408,-1.221747,0,-6.159666,-2.009408,-0.8075993,0,0,0,0,0,-10,0,0,68.96831,-7.132559,0,29.89161,-23.39765,1,0,0,0,0,-70.10839,0,0,295,0,0,65,2,229
323.2368,470.6654,2.014804,-61.51505,443.6564,-1,0,0,0,0,10.08074,7.494043,-16.30018,0,10.08074,7.589662,0.8302863,0,0,0,0,0,13,0,0,-6.159666,-2.283787,-14.13227,0,-6.159666,-2.009408,-0.8075993,0,0,0,0,0,-10,0,0,70.16131,-7.264463,0,29.89161,-23.39765,1,0,0,0,0,-70.10839,0,0,295,0,0,66,2,229
349.1206,490.0251,1.932619,-36.76315,470.6654,1,0,0,0,0,10.5192,7.48908,-13.61719,0,10.08074,7.494043,0.9083056,0,0,0,0,0,13,0,0,-7.138985,-2.637063,-27.17436,0,-6.159666,-2.283787,0.3801686,0,0,0,0,0,-10,0,0,71.3513,-7.243742,0,29.89161,-23.83035,1,0,0,0,0,-71.06295,0,0,295,0,0,67,2,229
14.17132,501.1603,1.788335,-10.87939,490.0251,1,0,0,0,0,10.37449,7.594244,-6.111387,0,10.37449,7.48908,0.8251329,0,0,0,0,0,13,0,0,-7.028879,-2.946221,-37.64007,0,-7.028879,-2.637063,1,0,0,0,0,0,-10,0,0,72.50748,-7.034378,0,27.44811,-23.76237,1,0,0,0,0,-72.55189,0,0,295,0,0,68,2,229
38.03529,505.5845,1.754514,14.17132,501.1603,1,0,0,0,0,11.38787,7.772948,4.477751,0,11.38787,7.594244,0.592453,0,0,0,0,0,13,0,0,-7.028879,-3.096817,-43.87255,0,-7.028879,-2.946221,1,0,0,0,0,0,-10,0,0,73.60284,-6.659409,0,26.34219,-23.07557,1,0,0,0,0,-73.65781,0,0,295,0,0,69,2,229
58.70882,471.1611,1.732569,38.03529,505.5845,1,0,0,0,0,11.65331,7.782528,17.21093,0,11.38787,7.772948,0.2641897,0,0,0,0,0,13,0,0,-6.973825,-3.022759,-44.26109,0,-7.028879,-3.096817,1,0,0,0,0,0,-10,0,0,74.67091,-6.487692,0,26.34219,-21.84553,1,0,0,0,0,-74.77092,0,0,295,0,0,70,2,229
80.02808,438.6516,1.717712,58.70882,471.1611,1,0,0,0,0,12.3289,7.779822,27.94838,0,11.65331,7.782528,-0.1305388,0,0,0,0,0,13,0,0,-6.973825,-3.007702,-38.30757,0,-6.973825,-3.022759,1,0,0,0,0,0,-10,0,0,75.71221,-6.321019,0,25.22908,-21.28223,1,0,0,0,0,-75.5082,0,0,295,0,0,71,2,229
103.0153,406.1917,1.69593,80.02808,438.6516,1,0,0,0,0,12.75027,7.762282,35.08041,0,12.75027,7.779822,-0.4633997,0,0,0,0,0,13,0,0,-7.052053,-3.06273,-26.88103,0,-7.052053,-3.007702,1,0,0,0,0,0,-10,0,0,76.72726,-6.16067,0.002654651,23.52158,-20.73547,1,0,0,0,0,-76.47842,0,0,295,0,0,72,2,229
126.8371,373.8131,1.725768,103.0153,406.1917,1,0,0,0,0,13.01571,7.735713,37.25093,0,13.01571,7.762282,-0.6844927,0,0,0,0,0,13,0,0,-6.997002,-3.154693,-11.96752,0,-6.997002,-3.06273,1,0,0,0,0,0,-10,0,0,77.73057,-6.090756,0.009655972,22.40848,-20.20946,1,0,0,0,0,-77.59152,0,0,295,0,0,73,2,229
126.8371,373.8131,1.777799,126.8371,373.8131,1,0,0,0,0,13.19997,7.735713,37.25093,0,13.01571,7.735713,-0.751779,0,0,0,0,0,13,0,0,-8.054546,-3.154693,-11.96752,0,-6.997002,-3.154693,0.1810118,0,0,0,0,0,-10,0,0,77.73057,-6.090756,0.02192542,22.40848,-19.98012,1,0,0,0,0,-78.77902,0,0,295,0,0,74,2,229
148.5444,340.9007,1.79069,126.8371,373.8131,1,0,0,0,0,13.19997,7.738299,34.67527,0,13.19997,7.735713,-0.751779,0,0,0,0,0,13,0,0,-8.054546,-3.369986,2.983519,0,-8.054546,-3.154693,0.1810118,0,0,0,0,0,-10,0,0,78.72578,-6.045162,0.03151874,21.22098,-19.98012,1,0,0,0,0,-78.77902,0,0,295,0,0,75,2,229
166.178,309.4026,1.889458,148.5444,340.9007,1,0,0,0,0,13.95914,7.775888,28.78428,0,13.95914,7.738299,-0.6719334,0,0,0,0,0,13,0,0,-8.132774,-3.669602,15.6464,0,-8.132774,-3.369986,-1,0,0,0,0,0,-10,0,0,79.71186,-5.995903,0.05972795,19.88213,-19.83055,1,0,0,0,0,-80.11787,0,0,295,0,0,76,2,229
179.9209,282.3934,1.964961,166.178,309.4026,1,0,0,0,0,14.29693,7.878458,21.13024,0,14.29693,7.775888,-0.4893127,0,0,0,0,0,13,0,0,-8.132774,-3.960811,24.9139,0,-8.132774,-3.669602,-1,0,0,0,0,0,-10,0,0,80.69035,-5.95651,0.07857088,19.51348,-19.66896,1,0,0,0,0,-80.48652,0,0,295,0,0,77,2,229
199.9052,241.9243,2.046732,179.9209,282.3934,1,0,0,0,0,14.22458,8.154249,4.232758,0,14.29693,7.878458,-0.2520374,0,0,0,0,0,13,0,0,-8.077721,-4.611645,35.06622,0,-8.132774,-3.960811,-1,0,0,0,0,0,-10,0,0,82.60353,-5.819328,0.09752052,19.51348,-19.53973,1,0,0,0,0,-81.23099,0,0,295,0,0,78,2,229
208.0174,227.5368,1.256751,-160.0948,241.9243,-1,0,0,0,0,15.42221,8.334804,-4.06574,0,14.22458,8.154249,0.2717845,0,0,0,0,0,13,0,0,-9.135265,-4.929229,35.84552,0,-8.077721,-4.611645,-1,0,0,0,0,0,-10,0,0,83.5367,-5.700547,0.1136833,18.76901,-19.08972,1,0,0,0,0,-83.5244,0,0,295,0,0,79,2,229
215.8521,216.5936,0.9515682,-151.9826,227.5368,-1,0,0,0,0,16.0978,8.524477,-11.87593,0,16.0978,8.334804,0.5290379,0,0,0,0,0,13,0,0,-9.135265,-5.214404,34.44369,0,-9.135265,-4.929229,-1,0,0,0,0,0,-10,0,0,84.44386,-5.546328,0.1455543,15.73831,-18.70007,0.8609042,0,0,0,0,-84.26169,0,0,295,0,0,80,2,229
223.9526,210.4243,0.8145844,-144.1479,216.5936,-1,0,0,0,0,16.10903,8.68888,-19.15972,0,16.10903,8.524477,0.7711539,0,0,0,0,0,13,0,0,-9.158442,-5.502011,31.00957,0,-9.158442,-5.214404,-1,0,0,0,0,0,-10,0,0,85.33076,-5.424654,0.1599466,14.39227,-18.19417,0.801639,0,0,0,0,-85.60773,0,0,295,0,0,81,2,229
253.3052,326.1921,0.6865693,-136.0474,210.4243,-1,0,0,0,0,16.8017,8.437991,-33.48503,0,16.10903,8.68888,0.9969513,0,0,0,0,0,13,0,0,-10.05953,-5.72113,11.36222,0,-9.158442,-5.502011,-1,0,0,0,0,0,-10,0,0,87.08248,-5.216468,0.1743388,14.39227,-17.79504,0.8205854,0,0,0,0,-86.32935,0,0,295,0,0,82,2,229
276.5952,383.5428,0.619279,-106.6948,326.1921,-1,0,0,0,0,17.74273,8.194292,-36.23133,0,16.8017,8.437991,1,0,0,0,0,0,13,0,0,-10.00448,-5.825541,-6.270598,0,-10.05953,-5.72113,-1,0,0,0,0,0,-10,0,0,87.8867,-4.91573,0.1880095,13.67065,-17.1121,0.7994652,0,0,0,0,-88.17974,0,0,295,0,0,83,2,229
276.5952,383.5428,0.4038351,-83.40485,383.5428,-1,0,0,0,0,18.16411,8.194292,-36.23133,0,18.16411,8.194292,1,0,0,0,0,0,13,0,0,-10.08271,-5.825541,-6.270598,0,-10.08271,-5.825541,-0.343105,0,0,0,0,0,-10,0,0,87.8867,-4.91573,0.2106798,10.85004,-16.12556,0.6669477,0,0,0,0,-89.14996,0,0,295,0,0,84,2,229
302.7638,434.2162,0.271582,-83.40485,383.5428,-1,0,0,0,0,18.16411,7.979742,-32.22453,0,18.16411,8.194292,1,0,0,0,0,0,13,0,0,-10.08271,-6.116923,-25.91633,0,-10.08271,-5.825541,-0.343105,0,0,0,0,0,-10,0,0,88.65841,-4.719049,0.2215298,10.85004,-16.12556,0.6777978,0,0,0,0,-89.14996,0,0,295,0,0,85,2,229
326.5261,471.7592,0.2060731,-57.23618,434.2162,-1,0,0,0,0,18.83087,7.832895,-21.10932,0,18.16411,7.979742,1,0,0,0,0,0,13,0,0,-11.25036,-6.446153,-41.84563,0,-10.08271,-6.116923,1,0,0,0,0,0,-10,0,0,89.33282,-4.426461,0.2323799,10.85004,-15.48037,0.6960095,0,0,0,0,-89.21716,0,0,295,0,0,86,2,229
346.5485,496.5814,0.1438649,-33.47388,471.7592,1,0,0,0,0,18.8421,7.803356,-5.171909,0,18.83087,7.832895,1,0,0,0,0,0,13,0,0,-11.27353,-6.436189,-50.99397,0,-11.25036,-6.446153,1,0,0,0,0,0,-10,0,0,89.80852,-3.801067,0.2431627,10.78284,-14.52056,0.7137783,0,0,0,0,-90.5632,0,0,295,0,0,87,2,229
4.842531,507.0587,0.01984658,-13.45151,496.5814,1,0,0,0,0,19.17989,7.81452,12.87036,0,19.17989,7.803356,0.5633292,0,0,0,0,0,13,0,0,-11.27353,-6.41826,-53.82829,0,-11.27353,-6.436189,1,0,0,0,0,0,-10,0,0,90.42272,-3.227275,0.2616677,9.068153,-12.46902,0.6545079,0,0,0,0,-90.93185,0,0,295,0,0,88,2,229
24.68265,505.4072,0,4.842531,507.0587,1,0,0,0,0,19.85548,7.790229,30.58564,0,19.85548,7.81452,0.004018917,0,0,0,0,0,13,0,0,-11.27353,-6.373017,-48.37054,0,-11.27353,-6.41826,1,0,0,0,0,0,-10,0,0,91.02546,-2.869767,0.2699986,8.330872,-10.58675,0.6408083,0,0,0,0,-91.66913,0,0,295,0,0,89,2,229
49.58053,476.4042,0,24.68265,505.4072,1,0,0,0,0,20.11209,7.680368,44.31712,0,19.85548,7.790229,-0.5451547,0,0,0,0,0,13,0,0,-12.38613,-6.347077,-33.58701,0,-11.27353,-6.373017,1,0,0,0,0,0,-10,0,0,91.33356,-2.554167,0.2783294,8.330872,-9.413985,0.6625206,0,0,0,0,-92.11215,0,0,295,0,0,90,2,229
81.61794,445.5196,0.004341595,49.58053,476.4042,1,0,0,0,0,19.70194,7.457185,50.45662,0,20.11209,7.680368,-0.9708306,0,0,0,0,0,13,0,0,-12.33108,-6.202075,-9.048983,0,-12.38613,-6.347077,1,0,0,0,0,0,-10,0,0,91.54995,-2.158726,0.2862173,7.887848,-8.37869,0.6560783,0,0,0,0,-92.48798,0,0,295,0,0,91,2,229
113.3233,414.6123,0.03631589,81.61794,445.5196,1,0,0,0,0,20.21276,7.192163,47.07627,0,20.21276,7.457185,-1,0,0,0,0,0,13,0,0,-13.36545,-6.180247,16.70458,0,-13.36545,-6.202075,-0.0874936,0,0,0,0,0,-10,0,0,91.80194,-1.801355,0.3010312,7.301926,-7.081486,0.6511181,0,0,0,0,-92.69807,0,0,295,0,0,92,2,229
113.3233,414.6123,0.1044417,113.3233,414.6123,1,0,0,0,0,20.88835,7.192163,47.07627,0,20.88835,7.192163,-1,0,0,0,0,0,13,0,0,-13.36545,-6.180247,16.70458,0,-13.36545,-6.180247,-1,0,0,0,0,0,-10,0,0,91.80194,-1.801355,0.3075959,6.564651,-5.909164,0.6275524,0,0,0,0,-93.43535,0,0,295,0,0,93,2,229
135.9075,380.0773,0.1184613,113.3233,414.6123,1,0,0,0,0,20.88835,6.947443,37.16639,0,20.88835,7.192163,-1,0,0,0,0,0,13,0,0,-13.36545,-6.428953,34.87891,0,-13.36545,-6.180247,-1,0,0,0,0,0,-10,0,0,92.0843,-1.564695,0.3141605,6.564651,-5.909164,0.634117,0,0,0,0,-93.43535,0,0,295,0,0,94,2,229
150.4927,341.3275,0.1888013,135.9075,380.0773,1,0,0,0,0,20.88835,6.805714,25.09432,0,20.88835,6.947443,-0.749158,0,0,0,0,0,13,0,0,-13.36545,-6.747499,45.14521,0,-13.36545,-6.428953,-1,0,0,0,0,0,-10,0,0,92.29288,-1.267132,0.3207252,6.564651,-5.132826,0.6495396,0,0,0,0,-93.43535,0,0,295,0,0,95,2,229
160.4055,299.426,0.3078521,150.4927,341.3275,1,0,0,0,0,20.80717,6.694172,13.15933,0,20.80717,6.805714,-0.3749238,0,0,0,0,0,13,0,0,-14.47805,-7.084997,49.93426,0,-14.47805,-6.747499,-1,0,0,0,0,0,-10,0,0,92.36891,-0.9198272,0.3337801,6.490265,-4.156699,0.6693427,0,0,0,0,-93.50974,0,0,295,0,0,96,2,229
174.2146,240.2705,0.3810706,160.4055,299.426,1,0,0,0,0,21.39917,6.588412,-8.423893,0,21.39917,6.694172,-0.0049393,0,0,0,0,0,13,0,0,-14.39982,-7.933627,50.09893,0,-14.39982,-7.084997,-1,0,0,0,0,0,-10,0,0,92.43604,-0.3619584,0.3401346,6.354553,-3.017401,0.6806883,0,0,0,0,-93.64545,0,0,295,0,0,97,2,229
180.4736,226.2845,0.4767349,174.2146,240.2705,1,0,0,0,0,22.50199,6.573527,-18.17487,0,21.39917,6.588412,0.6641406,0,0,0,0,0,13,0,0,-15.35596,-8.34806,46.79178,0,-14.39982,-7.933627,-1,0,0,0,0,0,-10,0,0,92.59056,-0.1812371,0.3464892,6.354553,-1.187368,0.7079234,0,0,0,0,-93.99124,0,0,295,0,0,98,2,229
195.6441,215.9073,0,-179.5264,226.2845,-1,0,0,0,0,22.91214,6.440479,-35.75966,0,22.50199,6.573527,0.9664209,0,0,0,0,0,13,0,0,-15.41102,-9.204367,33.49517,0,-15.35596,-8.34806,-1,0,0,0,0,0,-10,0,0,92.36522,-0.03758743,0.3524979,6.008759,-0.5945302,0.7002912,0,0,0,0,-93.61542,0,0,295,0,0,99,2,229
206.6201,216.2693,-0.278835,-164.3559,215.9073,-1,0,0,0,0,23.26702,6.31648,-42.62994,0,23.26702,6.440479,1,0,0,0,0,0,13,0,0,-16.31211,-9.695162,22.28543,0,-16.31211,-9.204367,-1,0,0,0,0,0,-10,0,0,92.43883,-0.1665314,0.3649141,6.031601,-0.1233018,0.719432,0,0,0,0,-93.9684,0,0,295,0,0,100,2,229
240.7047,268.8925,-0.4018069,-153.3799,216.2693,-1,0,0,0,0,23.67717,5.589681,-48.15737,0,23.67717,6.31648,1,0,0,0,0,0,13,0,0,-16.36716,-10.64386,-13.02679,0,-16.36716,-9.695162,-1,0,0,0,0,0,-10,0,0,92.64962,-0.5615414,0.3713215,6.407425,-0.5462895,0.7431905,0,0,0,0,-93.59258,0,0,295,0,0,101,2,229
262.8453,322.3571,-0.4586714,-119.2953,268.8925,-1,0,0,0,0,24.20508,4.929878,-43.07715,0,23.67717,5.589681,1,0,0,0,0,0,13,0,0,-18.30262,-11.13111,-35.11518,0,-16.36716,-10.64386,0.278465,0,0,0,0,0,-10,0,0,92.69337,-0.7452902,0.3777289,6.407425,-1.84208,0.734813,0,0,0,0,-93.787,0,0,295,0,0,102,2,229
281.9006,380.0753,-0.5313216,-97.15472,322.3571,-1,0,0,0,0,24.95302,4.139574,-31.16331,0,24.20508,4.929878,1,0,0,0,0,0,13,0,0,-18.35767,-11.65958,-53.28075,0,-18.30262,-11.13111,1,0,0,0,0,0,-10,0,0,92.81166,-0.7874585,0.3839419,6.212997,-2.44485,0.7226751,0,0,0,0,-93.77982,0,0,295,0,0,103,2,229
281.9006,380.0753,-0.7235112,-78.09937,380.0753,-1,0,0,0,0,24.55996,4.139574,-31.16331,0,24.55996,4.139574,1,0,0,0,0,0,13,0,0,-19.20371,-11.65958,-53.28075,0,-19.20371,-11.65958,1,0,0,0,0,0,-10,0,0,92.81166,-0.7874585,0.3960221,5.860008,-2.583179,0.7123471,0,0,0,0,-94.13999,0,0,295,0,0,104,2,229
296.0266,419.9333,-0.8404505,-78.09937,380.0753,-1,0,0,0,0,24.55996,3.598575,-14.31854,0,24.55996,4.139574,1,0,0,0,0,0,13,0,0,-19.20371,-12.08839,-64.0427,0,-19.20371,-11.65958,1,0,0,0,0,0,-10,0,0,92.68177,-0.593819,0.4018821,5.860008,-2.583179,0.7182072,0,0,0,0,-94.13999,0,0,295,0,0,105,2,229
307.0829,441.5434,-0.9209055,-63.97339,419.9333,-1,0,0,0,0,24.9701,3.249257,5.113988,0,24.55996,3.598575,0.8468748,0,0,0,0,0,13,0,0,-19.25876,-12.43066,-68.39873,0,-19.20371,-12.08839,1,0,0,0,0,0,-10,0,0,92.84462,-0.3113003,0.4077421,5.860008,-1.947964,0.731315,0,0,0,0,-93.76416,0,0,295,0,0,106,2,229
317.4407,445.0951,-1.005633,-52.91711,441.5434,-1,0,0,0,0,25.38266,3.044104,25.25674,0,24.9701,3.249257,0.2444663,0,0,0,0,0,13,0,0,-20.50464,-12.65309,-67.75978,0,-19.25876,-12.43066,1,0,0,0,0,0,-10,0,0,92.82561,-0.001926703,0.413978,6.23584,-1.021189,0.7703031,0,0,0,0,-94.06429,0,0,295,0,0,107,2,229
317.4407,445.0951,-1.188537,-42.55933,445.0951,-1,0,0,0,0,26.1306,3.044104,25.25674,0,26.1306,3.044104,-0.3801269,0,0,0,0,0,13,0,0,-20.5597,-12.65309,-67.75978,0,-20.5597,-12.65309,1,0,0,0,0,0,-10,0,0,92.82561,-0.001926703,0.4258566,5.942894,-0.006320358,0.7764746,0,0,0,0,-94.05711,0,0,295,0,0,108,2,229
329.959,435.3542,-1.28843,-42.55933,445.0951,-1,0,0,0,0,26.1306,2.849473,44.70538,0,26.1306,3.044104,-0.3799588,0,0,0,0,0,13,0,0,-20.5597,-12.78531,-61.32212,0,-20.5597,-12.65309,1,0,0,0,0,0,-10,0,0,92.81411,0.2634443,0.4317994,5.942894,-0.006320358,0.7824175,0,0,0,0,-94.05711,0,0,295,0,0,109,2,229
351.4734,417.1383,-1.356029,-30.04102,435.3542,0.3323803,0,0,0,0,25.89348,2.655555,61.42693,0,26.1306,2.849473,-0.9875504,0,0,0,0,0,12.84891,0,0,-21.53902,-12.84827,-43.36454,0,-20.5597,-12.78531,1,0,0,0,0,0,-10,0,0,92.91423,0.4998937,0.4377423,5.942894,0.8642027,0.7982931,0,0,0,0,-94.27438,0,0,295,0,0,110,2,229
36.39767,399.9293,-1.377346,-8.52655,417.1383,1,0,0,0,0,25.89348,2.385755,69.59525,0,25.89348,2.655555,-1,0,0,0,0,0,12.41989,0,0,-21.53902,-12.91141,0.5502333,0,-21.53902,-12.84827,1,0,0,0,0,0,-10,0,0,92.68359,0.7249987,0.4434679,5.725616,1.639851,0.8000473,0,0,0,0,-94.27438,0,0,295,0,0,111,2,229
81.75379,384.0918,-1.335732,36.39767,399.9293,1,0,0,0,0,25.98292,2.002665,62.41326,0,25.98292,2.385755,-1,0,0,0,0,0,11.94418,0,0,-22.49516,-13.05837,45.15129,0,-22.49516,-12.91141,-0.9706214,0,0,0,0,0,-10,0,0,92.67191,0.9910501,0.4556793,6.485741,2.378286,0.8655391,0,0,0,0,-93.51426,0,0,295,0,0,112,2,229
101.3554,337.1988,-1.241704,81.75379,384.0918,1,0,0,0,0,26.05769,1.357167,49.15646,0,26.05769,2.002665,-1,0,0,0,0,0,11.25362,0,0,-23.74104,-13.22713,64.86732,0,-23.74104,-13.05837,-1,0,0,0,0,0,-10,0,0,92.31385,1.270178,0.4622335,6.554245,3.251041,0.8860939,0,0,0,0,-93.44576,0,0,295,0,0,113,2,229
110.6031,299.2286,-1.180757,101.3554,337.1988,1,0,0,0,0,26.07477,0.7345675,35.59921,0,26.05769,1.357167,-1,0,0,0,0,0,10.05364,0,0,-24.64213,-13.43209,75.34757,0,-23.74104,-13.22713,-1,0,0,0,0,0,-10,0,0,92.02271,1.686637,0.4687878,6.554245,4.166691,0.9030957,0,0,0,0,-93.4301,0,0,295,0,0,114,2,229
115.8435,253.9892,-1.12571,110.6031,299.2286,1,0,0,0,0,25.73698,0.2133452,23.52924,0,26.07477,0.7345675,-0.8276393,0,0,0,0,0,8.90117,0,0,-24.64213,-13.72667,80.35706,0,-24.64213,-13.43209,-1,0,0,0,0,0,-10,0,0,91.63138,2.10557,0.4753577,6.569901,5.532843,0.9261772,0,0,0,0,-93.06146,0,0,295,0,0,115,2,229
119.2748,205.7513,-1.014783,115.8435,253.9892,1,0,0,0,0,25.85233,-0.3227575,13.56481,0,25.85233,0.2133452,-0.486534,0,0,0,0,0,7.867933,0,0,-25.33171,-14.00727,82.5248,0,-25.33171,-13.72667,-1,0,0,0,0,0,-10,0,0,91.08057,2.662904,0.4893405,7.044243,6.907113,0.9838314,0,0,0,0,-92.95576,0,0,295,0,0,116,2,229
121.8746,171.5192,-0.9526455,119.2748,205.7513,1,0,0,0,0,25.92469,-0.7197878,5.194623,0,25.92469,-0.3227575,-0.2068499,0,0,0,0,0,6.892229,0,0,-25.38676,-14.2439,82.96651,0,-25.38676,-14.00727,-1,0,0,0,0,0,-10,0,0,90.64818,3.244868,0.4971292,7.788712,8.735392,1,0,0,0,0,-92.21129,0,0,295,0,0,117,2,229
126.3232,143.4133,-0.8829488,121.8746,171.5192,1,0,0,0,0,26.17007,-1.345075,-9.16633,0,25.92469,-0.7197878,0.02974529,0,0,0,0,0,6.154149,0,0,-26.47618,-14.75131,79.85629,0,-25.38676,-14.2439,-1,0,0,0,0,0,-10,0,0,89.38562,4.190147,0.4992767,7.788712,10.64447,1,0,0,0,0,-91.30827,0,0,295,0,0,118,2,229
129.0359,145.0032,-0.8019391,126.3232,143.4133,1,0,0,0,0,26.17833,-1.587868,-16.09701,0,26.17007,-1.345075,0.4410985,0,0,0,0,0,5.062655,0,0,-28.54493,-14.99489,76.30918,0,-26.47618,-14.75131,-1,0,0,0,0,0,-10,0,0,88.47041,4.544383,0.4999342,8.691727,13.74536,1,0,0,0,0,-90.62253,0,0,295,0,0,119,2,229
132.5704,152.6962,-0.6411749,129.0359,145.0032,1,0,0,0,0,25.75695,-1.81104,-23.17992,0,25.75695,-1.587868,0.6420317,0,0,0,0,0,4.491913,0,0,-28.4667,-15.21591,71.24538,0,-28.4667,-14.99489,-1,0,0,0,0,0,-10,0,0,87.79012,4.822932,0.4811123,10.34769,14.90739,1,0,0,0,0,-89.65231,0,0,295,0,0,120,2,229
144.3117,187.2443,-0.5557846,132.5704,152.6962,1,0,0,0,0,26.00234,-2.476376,-38.2272,0,26.00234,-1.81104,0.847164,0,0,0,0,0,4.147953,0,0,-29.55612,-15.74592,54.64833,0,-29.55612,-15.21591,-1,0,0,0,0,0,-10,0,0,85.92796,5.031908,0.4661807,11.2507,15.82115,1,0,0,0,0,-88.7493,0,0,295,0,0,121,2,229
155.0134,211.1666,-0.4497024,144.3117,187.2443,1,0,0,0,0,25.98229,-2.990558,-45.44199,0,26.00234,-2.476376,1,0,0,0,0,0,2.911093,0,0,-30.7006,-16.09035,40.94109,0,-29.55612,-15.74592,-1,0,0,0,0,0,-10,0,0,84.86026,4.897198,0.446371,11.2507,16.50667,1,0,0,0,0,-86.73317,0,0,295,0,0,122,2,229
191.8651,259.4379,-0.3453573,155.0134,211.1666,1,0,0,0,0,24.89013,-4.619628,-52.24669,0,25.98229,-2.990558,1,0,0,0,0,0,1.949434,0,0,-33.00403,-16.82565,-2.512907,0,-30.7006,-16.09035,-1,0,0,0,0,0,-10,0,0,83.45992,4.125323,0.4297763,13.26683,16.06477,1,0,0,0,0,-86.37759,0,0,295,0,0,123,2,229
212.4751,275.0436,-1.225837,-168.1349,259.4379,-1,0,0,0,0,24.5582,-5.716348,-48.04573,0,24.5582,-4.619628,1,0,0,0,0,0,-1.490569,0,0,-33.88194,-17.10555,-26.32903,0,-33.88194,-16.82565,-0.6888126,0,0,0,0,0,-10,0,0,83.10512,3.577225,0.3829494,15.35275,13.53271,1,0,0,0,0,-84.64725,0,0,295,0,0,124,2,229
237.8885,280.6422,-1.324958,-147.5249,275.0436,-1,0,0,0,0,24.63296,-8.109589,-27.4315,0,24.63296,-5.716348,1,0,0,0,0,0,-3.507765,0,0,-35.12782,-17.25183,-57.70293,0,-35.12782,-17.10555,1,0,0,0,0,0,-10,0,0,81.95469,2.715034,0.3540383,15.42125,11.73473,1,0,0,0,0,-84.57875,0,0,295,0,0,125,2,229
245.0699,328.6342,-1.400217,-122.1115,280.6422,-1,0,0,0,0,24.04681,-9.297859,-12.14964,0,24.63296,-8.109589,0.6037156,0,0,0,0,0,-7.956799,0,0,-36.08397,-17.04568,-67.41789,0,-35.12782,-17.25183,1,0,0,0,0,0,-10,0,0,81.45687,2.709567,0.3296656,15.42125,8.906399,1,0,0,0,0,-83.08134,0,0,295,0,0,126,2,229
249.7334,347.9793,-1.504642,-114.9301,328.6342,-1,0,0,0,0,23.7432,-10.25675,4.898858,0,24.04681,-9.297859,0.05624784,0,0,0,0,0,-10.33519,0,0,-37.88615,-16.9099,-72.83163,0,-36.08397,-17.04568,1,0,0,0,0,0,-10,0,0,81.05618,2.659756,0.3124547,16.91866,8.888465,1,0,0,0,0,-82.68139,0,0,295,0,0,127,2,229
252.9362,352.4294,-1.741271,-110.2666,347.9793,-1,0,0,0,0,23.06761,-11.01468,22.52928,0,23.06761,-10.25675,-0.5302353,0,0,0,0,0,-12.40075,0,0,-37.88615,-16.74291,-75.1274,0,-37.88615,-16.9099,1,0,0,0,0,0,-10,0,0,80.59546,2.649631,0.2655977,18.05589,8.725065,1,0,0,0,0,-81.94411,0,0,295,0,0,128,2,229
255.3489,337.0681,-1.855692,-107.0638,352.4294,-1,0,0,0,0,22.64864,-11.5025,39.56921,0,22.64864,-11.01468,-1,0,0,0,0,0,-13,0,0,-38.99874,-16.55156,-75.28647,0,-38.99874,-16.74291,1,0,0,0,0,0,-10,0,0,80.11508,2.687107,0.2408849,18.35014,8.691851,1,0,0,0,0,-81.64986,0,0,295,0,0,129,2,229
257.0722,309.5344,-1.969593,-104.6511,337.0681,-1,0,0,0,0,21.73593,-11.99823,55.41632,0,22.64864,-11.5025,-1,0,0,0,0,0,-13,0,0,-39.97806,-16.19398,-74.02736,0,-38.99874,-16.55156,1,0,0,0,0,0,-10,0,0,79.9672,2.749614,0.216945,18.35014,8.814787,1,0,0,0,0,-81.12985,0,0,295,0,0,130,2,229
258.5313,278.631,-2.079949,-102.9278,309.5344,-1,0,0,0,0,20.98799,-12.44057,69.88,0,21.73593,-11.99823,-1,0,0,0,0,0,-13,0,0,-39.92301,-15.74505,-71.76669,0,-39.97806,-16.19398,1,0,0,0,0,0,-10,0,0,79.25576,2.868447,0.1957788,18.87015,9.019835,1,0,0,0,0,-81.13704,0,0,295,0,0,131,2,229
258.5313,278.631,-2.284888,-101.4687,278.631,-1,0,0,0,0,20.23122,-12.44057,69.88,0,20.23122,-12.44057,-1,0,0,0,0,0,-13,0,0,-41.03561,-15.74505,-71.76669,0,-41.03561,-15.74505,1,0,0,0,0,0,-10,0,0,79.25576,2.868447,0.1535566,19.52586,9.409653,1,0,0,0,0,-80.47414,0,0,295,0,0,132,2,229
261.9401,249.621,-2.384607,-101.4687,278.631,-1,0,0,0,0,20.23122,-12.97774,83.04452,0,20.23122,-12.44057,-1,0,0,0,0,0,-13,0,0,-41.03561,-15.185,-68.68037,0,-41.03561,-15.74505,1,0,0,0,0,0,-10,0,0,79.02672,3.053094,0.1317683,19.52586,9.409653,1,0,0,0,0,-80.47414,0,0,295,0,0,133,2,229
70.4994,222.6714,-2.474807,-98.05994,249.621,-1,0,0,0,0,19.91051,-13.62213,85.01127,0,20.23122,-12.97774,-1,0,0,0,0,0,-13,0,0,-41.9367,-14.5225,113.301,0,-41.03561,-15.185,1,0,0,0,0,0,-10,0,0,78.19571,3.318559,0.1121589,19.52586,10.01537,1,0,0,0,0,-80.08984,0,0,295,0,0,134,2,229
74.8314,196.1173,-2.144181,70.4994,222.6714,1,0,0,0,0,19.5639,-14.30323,74.25159,0,19.91051,-13.62213,-1,0,0,0,0,0,-13,0,0,-43.10435,-13.77653,117.6588,0,-41.9367,-14.5225,-1,0,0,0,0,0,-10,0,0,77.64056,3.676305,0.09420354,19.91016,10.8862,1,0,0,0,0,-79.05112,0,0,295,0,0,135,2,229
74.8314,196.1173,-2.045713,74.8314,196.1173,1,0,0,0,0,18.55292,-14.30323,74.25159,0,18.55292,-14.30323,-1,0,0,0,0,0,-13,0,0,-44.29517,-13.77653,117.6588,0,-44.29517,-13.77653,-1,0,0,0,0,0,-10,0,0,77.64056,3.676305,0.05223832,21.37883,12.05975,1,0,0,0,0,-78.62117,0,0,295,0,0,136,2,229
75.49824,171.0146,-1.999001,74.8314,196.1173,1,0,0,0,0,18.55292,-14.95088,64.58415,0,18.55292,-14.30323,-1,0,0,0,0,0,-13,0,0,-44.29517,-12.98076,121.9446,0,-44.29517,-13.77653,-1,0,0,0,0,0,-10,0,0,76.85229,4.149625,0.02847666,21.37883,12.05975,1,0,0,0,0,-78.62117,0,0,295,0,0,137,2,229
76.38591,141.4005,-1.951088,75.49824,171.0146,1,0,0,0,0,18.21513,-15.08629,56.02855,0,18.55292,-14.95088,-1,0,0,0,0,0,-13,0,0,-44.29517,-12.57,125.1084,0,-44.29517,-12.98076,-1,0,0,0,0,0,-10,0,0,75.99991,4.672196,0.007091176,21.37883,13.61243,1,0,0,0,0,-78.25253,0,0,295,0,0,138,2,229
77.57986,112.6859,-1.898495,76.38591,141.4005,1,0,0,0,0,17.21884,-15.18106,48.64402,0,18.21513,-15.08629,-1,0,0,0,0,0,-13,0,0,-45.19627,-12.0954,127.4193,0,-44.29517,-12.57,-1,0,0,0,0,0,-10,0,0,75.31844,5.305115,0,21.74747,15.32667,1,0,0,0,0,-77.13094,0,0,295,0,0,139,2,229
79.35788,84.54469,-1.779838,77.57986,112.6859,1,0,0,0,0,16.28905,-15.09977,42.3509,0,16.28905,-15.18106,-1,0,0,0,0,0,-13,0,0,-45.27449,-11.71219,129.3398,0,-45.27449,-12.0954,-1,0,0,0,0,0,-10,0,0,74.24697,5.981152,0,23.3734,17.4029,1,0,0,0,0,-76.6266,0,0,295,0,0,140,2,229
81.87463,57.34674,-1.715675,79.35788,84.54469,1,0,0,0,0,15.36511,-14.86942,37.00914,0,15.36511,-15.09977,-1,0,0,0,0,0,-13,0,0,-46.23064,-11.44301,131.07,0,-46.23064,-11.71219,-1,0,0,0,0,0,-10,0,0,73.33239,6.643276,0,25.23944,19.62057,1,0,0,0,0,-74.76056,0,0,295,0,0,141,2,229
85.25346,30.56281,-1.644469,81.87463,57.34674,1,0,0,0,0,14.61717,-14.48707,32.48752,0,15.36511,-14.86942,-1,0,0,0,0,0,-13,0,0,-46.17558,-11.28531,132.7118,0,-46.23064,-11.44301,-1,0,0,0,0,0,-10,0,0,71.99547,7.245256,0,25.23944,21.7926,1,0,0,0,0,-74.76775,0,0,295,0,0,142,2,229
89.71501,1.861085,-1.565654,85.25346,30.56281,1,0,0,0,0,14.18697,-13.95624,28.70581,0,14.61717,-14.48707,-1,0,0,0,0,0,-13,0,0,-47.26501,-11.20819,134.3681,0,-46.17558,-11.28531,-1,0,0,0,0,0,-10,0,0,70.70279,7.761563,0,25.23225,23.76734,1,0,0,0,0,-73.12744,0,0,295,0,0,143,2,229
95.43363,-28.88525,-1.395214,89.71501,1.861085,1,0,0,0,0,13.19067,-13.29915,25.59824,0,13.19067,-13.95624,-1,0,0,0,0,0,-13,0,0,-48.1661,-11.17014,136.1048,0,-48.1661,-11.20819,-1,0,0,0,0,0,-10,0,0,69.33794,8.180684,0,27.99414,25.46103,1,0,0,0,0,-72.00586,0,0,295,0,0,144,2,229
102.1953,-63.65451,-1.2987,95.43363,-28.88525,1,0,0,0,0,12.92524,-12.53777,23.63107,0,12.92524,-13.29915,-1,0,0,0,0,0,-13,0,0,-48.22115,-11.12485,137.8225,0,-48.22115,-11.17014,-1,0,0,0,0,0,-10,0,0,67.91862,8.502406,0,29.10725,26.83592,1,0,0,0,0,-70.89275,0,0,295,0,0,145,2,229
102.1953,-63.65451,-1.191699,102.1953,-63.65451,1,0,0,0,0,12.24083,-12.53777,23.63107,0,12.92524,-12.53777,-1,0,0,0,0,0,-13,0,0,-49.3888,-11.12485,137.8225,0,-48.22115,-11.12485,-1,0,0,0,0,0,-10,0,0,67.91862,8.502406,0,29.10725,27.89129,1,0,0,0,0,-69.4854,0,0,295,0,0,146,2,229
109.774,-101.5259,-1.092476,102.1953,-63.65451,1,0,0,0,0,12.24083,-11.71893,23.36362,0,12.24083,-12.53777,-1,0,0,0,0,0,-13,0,0,-49.3888,-11.03945,139.4828,0,-49.3888,-11.12485,-1,0,0,0,0,0,-10,0,0,66.46014,8.743209,0,30.5146,27.89129,1,0,0,0,0,-69.4854,0,0,295,0,0,147,2,229
119.4877,-141.1532,-0.8669975,109.774,-101.5259,1,0,0,0,0,11.8918,-10.90062,23.55182,0,11.8918,-11.71893,-1,0,0,0,0,0,-13,0,0,-49.36563,-10.90082,141.7619,0,-49.36563,-11.03945,-1,0,0,0,0,0,-10,0,0,64.97117,8.939048,0,32.22929,28.68122,1,0,0,0,0,-67.77071,0,0,295,0,0,148,2,229
131.3047,-179.2027,-0.7354941,119.4877,-141.1532,1,0,0,0,0,11.4616,-10.1323,23.93764,0,11.4616,-10.90062,-1,0,0,0,0,0,-13,0,0,-50.45505,-10.69133,144.6089,0,-50.45505,-10.90082,-1,0,0,0,0,0,-10,0,0,63.46143,9.08024,0,33.86959,29.32365,1,0,0,0,0,-66.13041,0,0,295,0,0,149,2,229
131.3047,-179.2027,-0.587118,131.3047,-179.2027,1,0,0,0,0,10.11043,-10.1323,23.93764,0,11.4616,-10.1323,-1,0,0,0,0,0,-13,0,0,-50.45505,-10.69133,144.6089,0,-50.45505,-10.69133,-1,0,0,0,0,0,-10,0,0,63.46143,9.08024,0,33.86959,29.78682,1,0,0,0,0,-64.65585,0,0,295,0,0,150,2,229
142.8387,-213.4175,-0.4557275,131.3047,-179.2027,1,0,0,0,0,10.11043,-9.421841,27.63964,0,10.11043,-10.1323,-1,0,0,0,0,0,-13,0,0,-50.45505,-10.43753,146.9463,0,-50.45505,-10.69133,-1,0,0,0,0,0,-10,0,0,61.9338,9.205812,0,35.34415,29.78682,1,0,0,0,0,-64.65585,0,0,295,0,0,151,2,229
157.0249,-242.6858,0,142.8387,-213.4175,1,0,0,0,0,9.524286,-8.786146,30.57419,0,9.524286,-9.421841,-1,0,0,0,0,0,-13,0,0,-51.4112,-10.1691,150.7783,0,-51.4112,-10.43753,-1,0,0,0,0,0,-10,0,0,60.38101,9.372352,0,36.84156,30.19875,1,0,0,0,0,-63.15844,0,0,295,0,0,152,2,229
173.2252,-262.6021,0.1742033,157.0249,-242.6858,1,0,0,0,0,9.348289,-8.332643,32.28715,0,9.348289,-8.786146,-1,0,0,0,0,0,-13,0,0,-52.42239,-9.915065,155.4112,0,-52.42239,-10.1691,-1,0,0,0,0,0,-10,0,0,58.81188,9.482953,0,38.71479,30.74506,1,0,0,0,0,-61.28521,0,0,295,0,0,153,2,229
190.7999,-276.6359,0.3658273,173.2252,-262.6021,1,0,0,0,0,8.926914,-7.947594,32.26283,0,9.348289,-8.332643,-1,0,0,0,0,0,-12.78873,0,0,-52.34417,-9.708447,160.3778,0,-52.42239,-9.915065,-1,0,0,0,0,0,-10,0,0,57.21377,9.663734,0,38.71479,31.10788,1,0,0,0,0,-60.31499,0,0,295,0,0,154,2,229
208.3999,-277.8367,-0.3271407,-169.2001,-276.6359,-1,0,0,0,0,8.494305,-7.596984,30.19049,0,8.926914,-7.947594,-1,0,0,0,0,0,-12.1947,0,0,-52.24276,-9.590893,164.3469,0,-52.34417,-9.708447,-1,0,0,0,0,0,-10,0,0,55.57145,9.931196,0,39.68501,31.70091,1,0,0,0,0,-57.99873,0,0,295,0,0,155,2,229
224.9277,-268.5268,-0.4136013,-151.6001,-277.8367,-1,0,0,0,0,8.147686,-7.253667,26.34904,0,8.147686,-7.596984,-1,0,0,0,0,0,-11.76811,0,0,-53.41041,-9.553677,166.2224,0,-53.41041,-9.590893,-1,0,0,0,0,0,-10,0,0,53.86364,10.3237,0,43.04,32.5783,1,0,0,0,0,-56.96,0,0,295,0,0,156,2,229
238.1941,-244.9048,-0.4309381,-135.0723,-268.5268,-1,0,0,0,0,8.390665,-6.865278,31.67903,0,8.390665,-7.253667,-1,0,0,0,0,0,-11.05966,0,0,-53.30901,-9.60034,164.6844,0,-53.30901,-9.553677,-1,0,0,0,0,0,-10,0,0,52.06339,10.87479,0,44.61897,33.86587,1,0,0,0,0,-55.38103,0,0,295,0,0,157,2,229
250.1877,-208.7699,-0.447012,-121.8059,-244.9048,-1,0,0,0,0,8.032818,-6.349889,35.44778,0,8.390665,-6.865278,-1,0,0,0,0,0,-10.33765,0,0,-54.45349,-9.642656,162.7648,0,-53.30901,-9.60034,-1,0,0,0,0,0,-10,0,0,50.16605,11.45218,0,44.61897,35.67368,1,0,0,0,0,-52.99626,0,0,295,0,0,158,2,229
260.5779,-173.3009,-0.4613721,-109.8123,-208.7699,-1,0,0,0,0,7.091797,-5.76471,38.31979,0,8.032818,-6.349889,-1,0,0,0,0,0,-9.48296,0,0,-54.50854,-9.856825,159.7127,0,-54.45349,-9.642656,-1,0,0,0,0,0,-10,0,0,48.16789,12.0522,0,47.00374,37.56773,1,0,0,0,0,-51.14587,0,0,295,0,0,159,2,229
275.5686,-101.0354,-0.5190994,-99.42215,-173.3009,-1,0,0,0,0,7.014067,-4.213734,42.15456,0,7.014067,-5.76471,-1,0,0,0,0,0,-8.689531,0,0,-55.30823,-10.30449,149.5886,0,-55.30823,-9.856825,-1,0,0,0,0,0,-10,0,0,43.79754,13.58008,0,50.81741,39.53604,1,0,0,0,0,-49.18259,0,0,295,0,0,160,2,229
279.7752,-63.95446,-0.5225348,-84.4314,-101.0354,-1,0,0,0,0,5.978228,-3.188053,43.22541,0,5.978228,-4.213734,-1,0,0,0,0,0,-6.105623,0,0,-55.26188,-10.46056,142.412,0,-55.26188,-10.30449,-1,0,0,0,0,0,-10,0,0,41.40582,14.42332,0,54.61542,44.54809,1,0,0,0,0,-45.38458,0,0,295,0,0,161,2,229
281.7232,-26.26546,-0.5551221,-80.22476,-63.95446,-1,0,0,0,0,6.284739,-2.148736,43.54114,0,5.978228,-3.188053,-1,0,0,0,0,0,-4.198883,0,0,-56.38318,-10.47611,134.1378,0,-55.26188,-10.46056,-1,0,0,0,0,0,-10,0,0,38.89196,15.17031,0,54.61542,47.31427,1,0,0,0,0,-42.39104,0,0,295,0,0,162,2,229
281.659,11.96748,-0.5964481,-78.27682,-26.26546,-1,0,0,0,0,6.264685,-1.340597,42.73907,0,6.284739,-2.148736,-1,0,0,0,0,0,-2.17821,0,0,-57.52766,-10.34227,125.5038,0,-56.38318,-10.47611,-1,0,0,0,0,0,-10,0,0,36.2895,15.71996,0,57.60896,49.76468,1,0,0,0,0,-40.37492,0,0,295,0,0,163,2,229
280.1683,49.65808,-0.7040491,-78.34097,11.96748,-1,0,0,0,0,6.496432,-0.8885068,40.45444,0,6.496432,-1.340597,-1,0,0,0,0,0,-0.6147,0,0,-57.40308,-10.12783,117.2524,0,-57.40308,-10.34227,-1,0,0,0,0,0,-10,0,0,33.63039,16.07516,0,62.55011,51.56776,1,0,0,0,0,-37.44989,0,0,295,0,0,164,2,229
277.8075,88.18172,-0.7638737,-79.83173,49.65808,-1,0,0,0,0,6.647003,-0.482179,36.40136,0,6.647003,-0.8885068,-1,0,0,0,0,0,0.2692498,0,0,-58.3911,-9.905307,109.9466,0,-58.3911,-10.12783,-1,0,0,0,0,0,-10,0,0,30.92022,16.39588,0,65.40074,52.73294,1,0,0,0,0,-34.59925,0,0,295,0,0,165,2,229
275.1214,126.5044,-0.832514,-82.19247,88.18172,-1,0,0,0,0,6.370334,0.008934339,30.42707,0,6.647003,-0.482179,-1,0,0,0,0,0,1.024613,0,0,-58.42298,-9.677301,104.1739,0,-58.3911,-9.905307,-1,0,0,0,0,0,-10,0,0,28.15604,16.73133,0,65.40074,53.78503,1,0,0,0,0,-32.1401,0,0,295,0,0,166,2,229
272.4877,162.1895,-0.9092269,-84.87857,126.5044,-1,0,0,0,0,6.240786,0.5258861,22.59131,0,6.370334,0.008934339,-0.8856524,0,0,0,0,0,1.857635,0,0,-59.75579,-9.450938,100.0825,0,-58.42298,-9.677301,-1,0,0,0,0,0,-10,0,0,25.33645,17.06995,0,67.85989,54.88545,1,0,0,0,0,-28.86797,0,0,295,0,0,167,2,229
269.6328,201.3467,-1.077333,-87.51227,162.1895,-1,0,0,0,0,6.301912,1.217792,12.77393,0,6.301912,0.5258861,-0.6141132,0,0,0,0,0,2.798875,0,0,-59.78767,-9.185113,97.46817,0,-59.78767,-9.450938,-1,0,0,0,0,0,-10,0,0,22.45944,17.41782,0,73.22254,55.99625,1,0,0,0,0,-26.77746,0,0,295,0,0,168,2,229
266.6238,239.4944,-1.167796,-90.36722,201.3467,-1,0,0,0,0,6.195868,2.327191,1.009379,0,6.195868,1.217792,-0.270303,0,0,0,0,0,4.054482,0,0,-59.66309,-8.858516,96.00263,0,-59.66309,-9.185113,-1,0,0,0,0,0,-10,0,0,19.51784,17.80708,0,76.5162,57.13741,1,0,0,0,0,-23.4838,0,0,295,0,0,169,2,229
263.3568,277.1982,-1.266113,-93.37616,239.4944,-1,0,0,0,0,6.444701,4.207064,-12.66281,0,6.195868,2.327191,0.1583318,0,0,0,0,0,6.116855,0,0,-60.43961,-8.422662,94.43076,0,-59.66309,-8.858516,-1,0,0,0,0,0,-10,0,0,16.51542,18.17421,0,76.5162,58.41433,1,0,0,0,0,-20.54311,0,0,295,0,0,170,2,229
259.9683,316.7427,-1.372398,-96.64319,277.1982,-1,0,0,0,0,6.578185,5.654917,-28.37532,0,6.444701,4.207064,0.6927341,0,0,0,0,0,9.68345,0,0,-60.52654,-8.212597,92.06992,0,-60.43961,-8.422662,-1,0,0,0,0,0,-10,0,0,13.48458,18.34298,0,79.45689,59.61869,1,0,0,0,0,-17.70813,0,0,295,0,0,171,2,229
253.5024,409.9132,-1.599428,-100.0317,316.7427,-1,0,0,0,0,6.711666,7.722579,-67.24204,0,6.711666,5.654917,1,0,0,0,0,0,12.45216,0,0,-60.61347,-8.335544,85.67635,0,-60.61347,-8.212597,-1,0,0,0,0,0,-10,0,0,7.352931,18.63857,0,85.12685,60.17233,1,0,0,0,0,-14.87315,0,0,295,0,0,172,2,229
257.2683,416.8733,-1.727564,-106.4976,409.9132,-1,0,0,0,0,8.170895,8.429375,-88.10575,0,8.170895,7.722579,1,0,0,0,0,0,13,0,0,-62.69962,-8.33175,61.77277,0,-62.69962,-8.335544,-1,0,0,0,0,0,-10,0,0,4.212051,18.99105,0,91.21114,61.14197,1,0,0,0,0,-8.788855,0,0,295,0,0,173,2,229
67.37386,544.166,-1.848549,-102.7317,416.8733,-1,0,0,0,0,8.220791,8.553576,-43.32135,0,8.170895,8.429375,1,0,0,0,0,0,13,0,0,-62.70832,-7.890766,-88.1429,0,-62.69962,-8.33175,-1,0,0,0,0,0,-10,0,0,-2.283507,19.84044,0,91.21114,62.29824,1,0,0,0,0,-5.352295,0,0,295,0,0,174,2,229
67.37386,544.166,-1.551174,67.37386,544.166,1,0,0,0,0,8.929671,8.553576,-43.32135,0,8.220791,8.553576,1,0,0,0,0,0,13,0,0,-63.54859,-7.890766,-88.1429,0,-62.70832,-7.890766,1,0,0,0,0,0,-10,0,0,-2.283507,19.84044,0,94.64771,65.08457,1,0,0,0,0,1.400774,0,0,295,0,0,175,2,229
67.37386,544.166,-1.592888,67.37386,544.166,1,0,0,0,0,8.929671,8.553576,-43.32135,0,8.929671,8.553576,1,0,0,0,0,0,13,0,0,-63.54859,-7.890766,-88.1429,0,-63.54859,-7.890766,1,0,0,0,0,0,-10,0,0,-2.283507,19.84044,0,101.4008,65.08457,1,0,0,0,0,1.400774,0,0,295,0,0,176,2,229
67.37386,544.166,-1.613432,67.37386,544.166,1,0,0,0,0,8.929671,8.553576,-43.32135,0,8.929671,8.553576,1,0,0,0,0,0,13,0,0,-63.54859,-7.890766,-88.1429,0,-63.54859,-7.890766,1,0,0,0,0,0,-10,0,0,-2.283507,19.84044,0,101.4008,65.08457,1,0,0,0,0,1.400774,0,0,295,0,0,177,2,229
67.37386,544.166,-1.633771,67.37386,544.166,1,0,0,0,0,8.929671,8.553576,-43.32135,0,8.929671,8.553576,1,0,0,0,0,0,13,0,0,-63.54859,-7.890766,-88.1429,0,-63.54859,-7.890766,1,0,0,0,0,0,-10,0,0,-2.283507,19.84044,0,101.4008,65.08457,1,0,0,0,0,1.400774,0,0,295,0,0,178,2,229
67.37386,544.166,-1.653906,67.37386,544.166,1,0,0,0,0,8.929671,8.553576,-43.32135,0,8.929671,8.553576,1,0,0,0,0,0,13,0,0,-63.54859,-7.890766,-88.1429,0,-63.54859,-7.890766,1,0,0,0,0,0,-10,0,0,-2.283507,19.84044,0,101.4008,65.08457,1,0,0,0,0,1.400774,0,0,295,0,0,179,2,229
67.37386,544.166,-1.693576,67.37386,544.166,1,0,0,0,0,8.929671,8.553576,-43.32135,0,8.929671,8.553576,1,0,0,0,0,0,13,0,0,-63.54859,-7.890766,-88.1429,0,-63.54859,-7.890766,1,0,0,0,0,0,-10,0,0,-2.283507,19.84044,0,101.4008,65.08457,1,0,0,0,0,1.400774,0,0,295,0,0,180,2,229
67.37386,544.166,-1.713113,67.37386,544.166,1,0,0,0,0,8.929671,8.553576,-43.32135,0,8.929671,8.553576,1,0,0,0,0,0,13,0,0,-63.54859,-7.890766,-88.1429,0,-63.54859,-7.890766,1,0,0,0,0,0,-10,0,0,-2.283507,19.84044,0,101.4008,65.08457,1,0,0,0,0,1.400774,0,0,295,0,0,181,2,229
67.37386,544.166,-1.732455,67.37386,544.166,1,0,0,0,0,8.929671,8.553576,-43.32135,0,8.929671,8.553576,1,0,0,0,0,0,13,0,0,-63.54859,-7.890766,-88.1429,0,-63.54859,-7.890766,1,0,0,0,0,0,-10,0,0,-2.283507,19.84044,0,101.4008,65.08457,1,0,0,0,0,1.400774,0,0,295,0,0,182,2,229
67.37386,544.166,-1.751604,67.37386,544.166,1,0,0,0,0,8.929671,8.553576,-43.32135,0,8.929671,8.553576,1,0,0,0,0,0,13,0,0,-63.54859,-7.890766,-88.1429,0,-63.54859,-7.890766,1,0,0,0,0,0,-10,0,0,-2.283507,19.84044,0,101.4008,65.08457,1,0,0,0,0,1.400774,0,0,295,0,0,183,2,229
67.37386,544.166,-1.789329,67.37386,544.166,1,0,0,0,0,8.929671,8.553576,-43.32135,0,8.929671,8.553576,1,0,0,0,0,0,13,0,0,-63.54859,-7.890766,-88.1429,0,-63.54859,-7.890766,1,0,0,0,0,0,-10,0,0,-2.283507,19.84044,0,101.4008,65.08457,1,0,0,0,0,1.400774,0,0,295,0,0,184,2,229
67.37386,544.166,-1.807909,67.37386,544.166,1,0,0,0,0,8.929671,8.553576,-43.32135,0,8.929671,8.553576,1,0,0,0,0,0,13,0,0,-63.54859,-7.890766,-88.1429,0,-63.54859,-7.890766,1,0,0,0,0,0,-10,0,0,-2.283507,19.84044,0,101.4008,65.08457,1,0,0,0,0,1.400774,0,0,295,0,0,185,2,229
67.37386,544.166,-1.826303,67.37386,544.166,1,0,0,0,0,8.929671,8.553576,-43.32135,0,8.929671,8.553576,1,0,0,0,0,0,13,0,0,-63.54859,-7.890766,-88.1429,0,-63.54859,-7.890766,1,0,0,0,0,0,-10,0,0,-2.283507,19.84044,0,101.4008,65.08457,1,0,0,0,0,1.400774,0,0,295,0,0,186,2,229
67.37386,544.166,-1.844513,67.37386,544.166,1,0,0,0,0,8.929671,8.553576,-43.32135,0,8.929671,8.553576,1,0,0,0,0,0,13,0,0,-63.54859,-7.890766,-88.1429,0,-63.54859,-7.890766,1,0,0,0,0,0,-10,0,0,-2.283507,19.84044,0,101.4008,65.08457,1,0,0,0,0,1.400774,0,0,295,0,0,187,2,229
67.37386,544.166,-1.880389,67.37386,544.166,1,0,0,0,0,8.929671,8.553576,-43.32135,0,8.929671,8.553576,1,0,0,0,0,0,13,0,0,-63.54859,-7.890766,-88.1429,0,-63.54859,-7.890766,1,0,0,0,0,0,-10,0,0,-2.283507,19.84044,0,101.4008,65.08457,1,0,0,0,0,1.400774,0,0,295,0,0,188,2,229
67.37386,544.166,-1.898058,67.37386,544.166,1,0,0,0,0,8.929671,8.553576,-43.32135,0,8.929671,8.553576,1,0,0,0,0,0,13,0,0,-63.54859,-7.890766,-88.1429,0,-63.54859,-7.890766,1,0,0,0,0,0,-10,0,0,-2.283507,19.84044,0,101.4008,65.08457,1,0,0,0,0,1.400774,0,0,295,0,0,189,2,229
67.37386,544.166,-1.915551,67.37386,544.166,1,0,0,0,0,8.929671,8.553576,-43.32135,0,8.929671,8.553576,1,0,0,0,0,0,13,0,0,-63.54859,-7.890766,-88.1429,0,-63.54859,-7.890766,1,0,0,0,0,0,-10,0,0,-2.283507,19.84044,0,101.4008,65.08457,1,0,0,0,0,1.400774,0,0,295,0,0,190,2,229
67.37386,544.166,-1.932868,67.37386,544.166,1,0,0,0,0,8.929671,8.553576,-43.32135,0,8.929671,8.553576,1,0,0,0,0,0,13,0,0,-63.54859,-7.890766,-88.1429,0,-63.54859,-7.890766,1,0,0,0,0,0,-10,0,0,-2.283507,19.84044,0,101.4008,65.08457,1,0,0,0,0,1.400774,0,0,295,0,0,191,2,229
67.37386,544.166,-1.966986,67.37386,544.166,1,0,0,0,0,8.929671,8.553576,-43.32135,0,8.929671,8.553576,1,0,0,0,0,0,13,0,0,-63.54859,-7.890766,-88.1429,0,-63.54859,-7.890766,1,0,0,0,0,0,-10,0,0,-2.283507,19.84044,0,101.4008,65.08457,1,0,0,0,0,1.400774,0