DateTime,MagYaw,YawVelocityDegreesPerSecond,YawIntegral,YawProportional,YawDerivativeError,YawControl,YawIntegralGain,YawDerivativeGain,YawProportionalGain,YawAntiWindupGain,XNEDBodyFrame,XVelocityMetersPerSecond,ThetaPitchDegrees,XIntegral,XProportional,XDerivativeError,LongitudeControl,XIntegralGain,XDerivativeGain,XProportionalGain,XAntiWindupGain,LongitudeInnerLoopGain,XLongitudeOuterLoopSetpoint,PitchAngularVelocityRadsPerSecond,PitchAngularVelocityGain,YNEDBodyFrame,YVelocityMetersPerSecond,PhiRollDegrees,YIntegral,YProportional,YDerivativeError,LateralControl,YIntegralGain,YDerivativeGain,YProportionalGain,YAntiWindupGain,LateralInnerLoopGain,YLateralOuterLoopSetpoint,RollAngularVelocityRadsPerSecond,RollAngularVelocityGain,AltitudeFeetAgl,ZVelocityMetersPerSecond,ZIntegral,ZProportional,ZDerivativeError,MainRotorCollectiveControl,ZIntegralGain,ZDerivativeGain,ZProportionalGain,ZAntiWindupGain,ZNEDBodyFrame,LatitudeDegrees,LongitudeDegrees,Timeouts,UnrecognizedMsgTypes,ChecksumErrors,NumOfBlownFrames,MessageType,NumOfBytesInMsg
09.37.30.625382, 126.3213,-24.14453,30.28711,126.3213,-24.14453,1,0,0,0,0,-134.4214,-10.42405,2.137816,0,-134.4214,-10.42405,-0.4692723,0,0,0,0,0,-13,0,0,4.027664,1.253405,4.109251,0,4.027664,1.253405,0.08194886,0,0,0,0,0,5,0,0,100.516,-0.3817079,0.0227249,-0.1721649,-1.252155,0,0,0,0,0,-100.1722,0,0,3840,0,0,4019,2,229
09.37.30.656384, 126.3213,-24.14453,30.28711,126.3213,-24.14453,1,0,0,0,0,-134.4214,-10.42405,2.137816,0,-134.4214,-10.42405,-0.4692723,0,0,0,0,0,-13,0,0,4.027664,1.253405,4.109251,0,4.027664,1.253405,0.08194886,0,0,0,0,0,5,0,0,100.516,-0.3817079,0.0227249,-0.1721649,-1.252155,0,0,0,0,0,-100.1722,0,0,3841,0,0,4020,2,229
09.37.30.694386, 131.44,0,30.28711,126.3213,-24.14453,1,0,0,0,0,-134.4214,0,-1.38933,0,-134.4214,-10.42405,-0.4692723,0,0,0,0,0,-13,0,0,4.027664,0,0.08807965,0,4.027664,1.253405,0.08194886,0,0,0,0,0,5,0,0,0.09291205,-0.0001192963,0.0227249,-0.1721649,-1.252155,0,0,0,0,0,-100.1722,0,0,3841,0,0,4021,2,229
09.37.30.804392, 131.4409,0,30.29991,131.44,0,1,0,0,0,0,1578.95,0,-1.543494,0,-134.4214,0,-0.3599308,0,0,0,0,0,-13,0,0,-134.6846,0,0.1507669,0,4.027664,0,0.4518967,0,0,0,0,0,5,0,0,0.09625411,-0.02008335,0.0227249,-0.1721649,-0.0003913396,0.01256098,0,0,0,0,0.0112915,0,0,3841,0,0,4022,2,229
09.37.30.902398, 131.4422,0,30.31124,131.4409,0,1,0,0,0,0,1578.95,0,-1.836233,0,1578.95,0,0.4508483,0,0,0,0,0,13,0,0,-134.6846,0,0.2257538,0,-134.6846,0,-0.4738705,0,0,0,0,0,-5,0,0,0.09213443,0.02499139,0.1227362,100.0113,-0.06588144,0.5,0,0,0,0,0.0112915,0,0,3841,0,0,4023,2,229
09.37.31.005404, 131.4443,0,30.33355,131.4422,0,1,0,0,0,0,1578.95,0,-2.605488,0,1578.95,0,0.4599232,0,0,0,0,0,13,0,0,-134.6846,0,0.5921174,0,-134.6846,0,-0.4807693,0,0,0,0,0,-5,0,0,0.1012724,-0.04501072,0,100.0113,0.08198174,0.5,0,0,0,0,0.0112915,0,0,3841,0,0,4024,2,229
09.37.31.103410, 131.4471,0.103434,30.34455,131.4443,0,1,0,0,0,0,1578.95,-0.1005644,-2.489081,0,1578.95,0,0.4837701,0,0,0,0,0,13,0,0,-134.6846,0.05452009,-0.3919052,0,-134.6846,0,-0.5144748,0,0,0,0,0,-5,0,0,0.6275039,-1.743345,0,100.0113,-0.1476531,0.5,0,0,0,0,0.0112915,0,0,3841,0,0,4025,2,229
09.37.31.205415, 131.4802,0.8326517,30.35544,131.4471,0.103434,1,0,0,0,0,1579.288,-0.0828511,-1.866073,0,1578.95,-0.1005644,0.4801615,0,0,0,0,0,13,0,0,-134.6846,0.08529993,-1.657219,0,-134.6846,0.05452009,-0.4239447,0,0,0,0,0,-5,0,0,0.9229631,-1.791747,0,100.0113,-5.718871,0.5,0,0,0,0,-0.3572998,0,0,3841,0,0,4026,2,229
09.37.31.303421, 131.6661,3.591695,30.36631,131.4802,0.8326517,1,0,0,0,0,1579.372,-0.01677072,-0.04497097,0,1579.288,-0.0828511,0.4608482,0,0,0,0,0,13,0,0,-134.7629,0.1665559,-5.285972,0,-134.6846,0.08529993,-0.3075359,0,0,0,0,0,-5,0,0,1.515087,-1.786689,0,99.6427,-5.877646,0.5,0,0,0,0,-0.9587402,0,0,3841,0,0,4027,2,229
09.37.31.406427, 132.0538,8.25009,30.38852,131.6661,3.591695,1,0,0,0,0,1579.3,0.1055374,2.58115,0,1579.3,-0.01677072,0.4043941,0,0,0,0,0,13,0,0,-134.7079,0.2815416,-9.95717,0,-134.7079,0.1665559,0.02630943,0,0,0,0,0,-5,0,0,2.087868,-1.714375,0,98.29675,-5.861055,0.5,0,0,0,0,-1.703247,0,0,3841,0,0,4028,2,229
09.37.31.504432, 132.6944,14.5786,30.40039,132.0538,8.25009,1,0,0,0,0,1579.3,0.2881459,5.911909,0,1579.3,0.1055374,0.3229843,0,0,0,0,0,13,0,0,-134.7079,0.4259492,-14.71231,0,-134.7079,0.2815416,0.4560597,0,0,0,0,0,-5,0,0,2.62647,-1.598907,0,98.29675,-5.623837,0.5,0,0,0,0,-1.703247,0,0,3841,0,0,4029,2,229
09.37.31.603438, 133.1372,18.28414,30.41359,132.6944,14.5786,1,0,0,0,0,1579.227,0.3973344,7.807457,0,1579.3,0.2881459,0.2197308,0,0,0,0,0,13,0,0,-134.6528,0.4993514,-16.71378,0,-134.7079,0.4259492,0.8935326,0,0,0,0,0,-5,0,0,2.880049,-1.535258,0,98.29675,-5.245054,0.5,0,0,0,0,-2.447754,0,0,3841,0,0,4030,2,229
09.37.31.704444, 134.3596,26.39194,30.42755,133.1372,18.28414,1,0,0,0,0,1579.311,0.6562642,12.02334,0,1579.227,0.3973344,0.1609688,0,0,0,0,0,13,0,0,-134.731,0.6488473,-19.55066,0,-134.6528,0.4993514,1,0,0,0,0,0,-5,0,0,3.349559,-1.382858,0,97.55225,-5.036261,0.5,0,0,0,0,-3.049316,0,0,3841,0,0,4031,2,229
09.37.31.802449, 136.2197,34.91587,30.46048,134.3596,26.39194,1,0,0,0,0,1579.649,0.9523753,16.68611,0,1579.649,0.6562642,0.03027636,0,0,0,0,0,13,0,0,-134.731,0.7711405,-19.7411,0,-134.731,0.6488473,1,0,0,0,0,0,-5,0,0,3.762361,-1.204245,0,96.58209,-4.536328,0.5,0,0,0,0,-3.417908,0,0,3841,0,0,4032,2,229
09.37.31.905455, 137.4862,39.04408,30.48117,136.2197,34.91587,1,0,0,0,0,1579.577,1.112934,19.11324,0,1579.577,0.9523753,-0.1142695,0,0,0,0,0,13,0,0,-134.676,0.8202098,-18.47758,0,-134.676,0.7711405,1,0,0,0,0,0,-5,0,0,3.945819,-1.108669,0,95.83771,-3.950405,0.5,0,0,0,0,-4.162292,0,0,3841,0,0,4033,2,229
09.37.32.003461, 140.9234,47.00427,30.50433,137.4862,39.04408,1,0,0,0,0,1579.577,1.460935,24.03013,0,1579.577,1.112934,-0.1895104,0,0,0,0,0,13,0,0,-134.676,0.8769797,-13.64054,0,-134.676,0.8202098,1,0,0,0,0,0,-5,0,0,4.263709,-0.9126104,0,95.83771,-3.636878,0.5,0,0,0,0,-4.162292,0,0,3841,0,0,4034,2,229
09.37.32.105467, 143.217,50.92041,30.53555,140.9234,47.00427,1,0,0,0,0,1579.586,1.642442,26.35419,0,1579.577,1.460935,-0.341934,0,0,0,0,0,13,0,0,-133.5084,0.8792244,-10.17524,0,-134.676,0.8769797,0.79493,0,0,0,0,0,-5,0,0,4.399573,-0.8211577,0,95.83771,-2.993727,0.5,0,0,0,0,-4.832458,0,0,3841,0,0,4035,2,229
09.37.32.203472, 149.1623,58.88867,30.60645,143.217,50.92041,1,0,0,0,0,1579.586,2.028112,30.42847,0,1579.586,1.642442,-0.4139799,0,0,0,0,0,13,0,0,-133.5084,0.808632,-1.362174,0,-133.5084,0.8792244,0.4761217,0,0,0,0,0,-5,0,0,4.623653,-0.6307957,0,95.16754,-2.693726,0.5,0,0,0,0,-4.832458,0,0,3841,0,0,4036,2,229
09.37.32.306478, 157.019,67.33285,30.65599,149.1623,58.88867,1,0,0,0,0,1580.334,2.431569,33.08934,0,1580.334,2.028112,-0.5402826,0,0,0,0,0,13,0,0,-133.5634,0.6290907,9.679124,0,-133.5634,0.808632,-0.3346799,0,0,0,0,0,-5,0,0,4.78388,-0.435869,0,95.17493,-2.069262,0.5,0,0,0,0,-4.825073,0,0,3841,0,0,4037,2,229
09.37.32.404484, 161.5748,71.74218,30.72345,157.019,67.33285,1,0,0,0,0,1579.924,2.638733,33.67801,0,1580.334,2.431569,-0.6227694,0,0,0,0,0,13,0,0,-133.5084,0.5130541,15.55474,0,-133.5634,0.6290907,-1,0,0,0,0,0,-5,0,0,4.836227,-0.3211988,0,95.17493,-1.429825,0.5,0,0,0,0,-5.20105,0,0,3841,0,0,4038,2,229
09.37.32.502490, 176.4113,86.24307,30.80003,161.5748,71.74218,1,0,0,0,0,1580.334,3.264529,31.73203,0,1579.924,2.638733,-0.6410183,0,0,0,0,0,13,0,0,-133.5634,0.101728,31.2004,0,-133.5084,0.5130541,-1,0,0,0,0,0,-5,0,0,4.85632,0.09847378,0,94.79895,-1.053661,0.5,0,0,0,0,-4.825073,0,0,3841,0,0,4039,2,229
09.37.32.604495, 185.6999,95.98686,31.01991,176.4113,86.24307,1,0,0,0,0,1581.082,3.66512,27.36539,0,1581.082,3.264529,-0.5806929,0,0,0,0,0,13,0,0,-133.6185,-0.1693801,35.77184,0,-133.6185,0.101728,-1,0,0,0,0,0,-5,0,0,4.749944,0.3981833,0,95.18231,0.3230334,0.5,0,0,0,0,-4.817688,0,0,3841,0,0,4040,2,229
09.37.32.702501, 194.143,105.7821,30.24994,-174.3001,95.98686,1,0,0,0,0,1581.336,4.057452,21.07695,0,1581.336,3.66512,-0.4453271,0,0,0,0,0,13,0,0,-133.5402,-0.4372551,35.59499,0,-133.5402,-0.1693801,-1,0,0,0,0,0,-5,0,0,4.554894,0.6701,0,95.41528,1.306201,0.5,0,0,0,0,-4.584717,0,0,3841,0,0,4041,2,229
09.37.32.805507, 202.3927,116.9212,29.5734,-165.857,105.7821,1,0,0,0,0,1581.336,4.441333,13.26649,0,1581.336,4.057452,-0.2503856,0,0,0,0,0,13,0,0,-133.5402,-0.6848661,31.91148,0,-133.5402,-0.4372551,-1,0,0,0,0,0,-5,0,0,4.295678,0.8435757,0,95.41528,2.198196,0.5,0,0,0,0,-4.584717,0,0,3841,0,0,4042,2,229
09.37.32.903512, 211.2571,128.4534,28.92253,-157.6073,116.9212,1,0,0,0,0,1582.084,4.801849,4.465273,0,1581.336,4.441333,-0.008261189,0,0,0,0,0,13,0,0,-133.5952,-0.9228691,25.56117,0,-133.5402,-0.6848661,-1,0,0,0,0,0,-5,0,0,4.023364,0.8381938,0,95.41528,2.767266,0.5,0,0,0,0,-4.577332,0,0,3841,0,0,4043,2,229
09.37.33.005518, 221.5163,139.7224,27.67911,-148.7429,128.4534,1,0,0,0,0,1582.156,5.086873,-4.430426,0,1582.156,4.801849,0.2645765,0,0,0,0,0,13,0,0,-133.6503,-1.160917,17.04148,0,-133.6503,-0.9228691,-1,0,0,0,0,0,-5,0,0,3.806837,0.6144867,0,96.16718,2.749611,0.5,0,0,0,0,-3.832825,0,0,3841,0,0,4044,2,229
09.37.33.103524, 240.8236,156.6263,27.09145,-138.4837,139.7224,1,0,0,0,0,1583.086,5.206403,-15.16567,0,1583.086,5.086873,0.5403432,0,0,0,0,0,13,0,0,-133.572,-1.554452,0.6781049,0,-133.572,-1.160917,-1,0,0,0,0,0,-5,0,0,3.714284,-0.04867849,0,95.66302,2.015762,0.5,0,0,0,0,-4.336975,0,0,3841,0,0,4045,2,229
09.37.33.206530, 262.8893,173.5602,26.55585,-119.1764,156.6263,1,0,0,0,0,1583.487,4.87184,-18.95744,0,1583.086,5.206403,0.8731357,0,0,0,0,0,13,0,0,-134.7947,-2.037205,-17.66731,0,-133.572,-1.554452,-0.5223857,0,0,0,0,0,-5,0,0,3.916872,-0.7306914,0,95.66302,-0.1596849,0.5,0,0,0,0,-3.290955,0,0,3841,0,0,4046,2,229
09.37.33.304535, 284.8796,190.4229,26.07693,-97.11069,173.5602,1,0,0,0,0,1584.163,4.245125,-14.91436,0,1583.487,4.87184,0.9906806,0,0,0,0,0,13,0,0,-134.7947,-2.648494,-35.08501,0,-134.7947,-2.037205,1,0,0,0,0,0,-5,0,0,4.290456,-1.132402,0,96.70905,-2.39696,0.5,0,0,0,0,-4.028076,0,0,3841,0,0,4047,2,229
09.37.33.402541, 298.1733,200.8905,25.22978,-75.12039,190.4229,1,0,0,0,0,1584.5,3.793315,-8.299047,0,1584.5,4.245125,0.865345,0,0,0,0,0,13,0,0,-134.7947,-3.098161,-44.47149,0,-134.7947,-2.648494,1,0,0,0,0,0,-5,0,0,4.562624,-1.175949,0,95.60339,-3.71473,0.5,0,0,0,0,-4.396606,0,0,3841,0,0,4048,2,229
09.37.33.504547, 310.8278,210.4058,24.84363,-61.82669,200.8905,1,0,0,0,0,1585.093,3.425594,1.327492,0,1585.093,3.793315,0.6602704,0,0,0,0,0,13,0,0,-134.7165,-3.52089,-50.07345,0,-134.7165,-3.098161,1,0,0,0,0,0,-5,0,0,4.826616,-1.066017,0,95.4679,-3.857584,0.5,0,0,0,0,-4.532104,0,0,3841,0,0,4049,2,229
09.37.33.603553, 330.1842,225.7265,24.49034,-49.17221,210.4058,1,0,0,0,0,1584.855,2.905603,20.56559,0,1585.093,3.425594,0.3618478,0,0,0,0,0,13,0,0,-135.6958,-4.174261,-48.51318,0,-134.7165,-3.52089,1,0,0,0,0,0,-5,0,0,5.140487,-0.6806876,0,95.4679,-3.496963,0.5,0,0,0,0,-4.749451,0,0,3841,0,0,4050,2,229
09.37.33.705558, 345.4011,232.6623,24.18648,-29.81577,225.7265,1,0,0,0,0,1585.941,2.579937,34.54622,0,1584.855,2.905603,-0.2345332,0,0,0,0,0,13,0,0,-135.7509,-4.572897,-39.89449,0,-135.6958,-4.174261,1,0,0,0,0,0,-5,0,0,5.246615,-0.346084,0,95.25055,-2.232928,0.5,0,0,0,0,-5.110657,0,0,3841,0,0,4051,2,229
09.37.33.803564, 7.303591,238.5719,23.65301,-14.59891,232.6623,1,0,0,0,0,1585.941,2.204476,47.2395,0,1585.941,2.579937,-0.6679327,0,0,0,0,0,13,0,0,-135.7509,-4.969674,-21.9138,0,-135.7509,-4.572897,1,0,0,0,0,0,-5,0,0,5.256196,0.001492142,0,94.88934,-1.135294,0.5,0,0,0,0,-5.110657,0,0,3841,0,0,4052,2,229
09.37.33.906570, 55.82972,246.6352,23.44357,7.303591,238.5719,1,0,0,0,0,1586.296,1.490227,52.65177,0,1586.296,2.204476,-1,0,0,0,0,0,13,0,0,-136.6519,-5.5611,23.88444,0,-136.6519,-4.969674,1,0,0,0,0,0,-5,0,0,5.098966,0.466629,0,94.5365,0.004894821,0.5,0,0,0,0,-5.463501,0,0,3841,0,0,4053,2,229
09.37.34.004575, 72.37144,249.0951,23.35339,55.82972,246.6352,1,0,0,0,0,1586.469,1.185881,48.7006,0,1586.296,1.490227,-1,0,0,0,0,0,13,0,0,-137.6862,-5.761629,39.58588,0,-136.6519,-5.5611,-1,0,0,0,0,0,-5,0,0,4.999356,0.6209978,0,94.5365,1.53073,0.5,0,0,0,0,-5.304932,0,0,3841,0,0,4054,2,229
09.37.34.103581, 96.67151,255.2061,23.29637,72.37144,249.0951,1,0,0,0,0,1586.469,0.5382243,33.4552,0,1586.469,1.185881,-1,0,0,0,0,0,13,0,0,-137.6862,-6.13709,61.58921,0,-137.6862,-5.761629,-1,0,0,0,0,0,-5,0,0,4.691111,1.084825,0,94.69507,2.037121,0.5,0,0,0,0,-5.304932,0,0,3841,0,0,4055,2,229
09.37.34.204587, 111.7929,263.7628,23.29418,96.67151,255.2061,1,0,0,0,0,1586.542,0.04426062,12.13709,0,1586.542,0.5382243,-0.6341112,0,0,0,0,0,13,0,0,-137.7413,-6.461316,71.79823,0,-137.7413,-6.13709,-1,0,0,0,0,0,-5,0,0,4.172062,1.747365,0,95.43964,3.558659,0.5,0,0,0,0,-4.560364,0,0,3841,0,0,4056,2,229
09.37.34.302592, 122.9822,272.7944,23.32862,111.7929,263.7628,1,0,0,0,0,1586.787,-0.3049832,-11.67639,0,1586.787,0.04426062,0.02675028,0,0,0,0,0,13,0,0,-138.8307,-6.726367,70.40418,0,-138.8307,-6.461316,-1,0,0,0,0,0,-5,0,0,3.417521,2.523771,0,96.34265,5.732057,0.5,0,0,0,0,-3.657349,0,0,3841,0,0,4057,2,229
09.37.34.404598, 143.954,291.1798,23.38776,122.9822,272.7944,1,0,0,0,0,1586.368,-0.81264,-46.40984,0,1586.787,-0.3049832,0.764968,0,0,0,0,0,13,0,0,-139.9433,-7.10069,50.66265,0,-138.8307,-6.726367,-1,0,0,0,0,0,-5,0,0,1.955744,3.522135,0,96.34265,8.278978,0.5,0,0,0,0,-3.363098,0,0,3841,0,0,4058,2,229
09.37.34.503604, 222.0739,308.6489,23.49651,143.954,291.1798,1,0,0,0,0,1586.356,-1.86517,-65.70377,0,1586.368,-0.81264,1,0,0,0,0,0,13,0,0,-139.9201,-7.550572,-33.21624,0,-139.9433,-7.10069,-1,0,0,0,0,0,-5,0,0,0.01820076,4.317284,0,96.6369,11.55401,0.5,0,0,0,0,-2.01709,0,0,3841,0,0,4059,2,229
09.37.34.605610, 284.4828,177.9318,22.35188,-137.9261,308.6489,1,0,0,0,0,1586.18,-2.198059,-50.54626,0,1586.18,-1.86517,1,0,0,0,0,0,13,0,0,-140.9312,-6.067479,-95.59415,0,-140.9312,-7.550572,1,0,0,0,0,0,-5,0,0,-0.5571952,0.01124839,0,99.8562,14.16242,0.5,0,0,0,0,-0.1437988,0,0,3841,0,0,4060,2,229
09.37.34.703615, 298.8673,162.7645,21.96991,-75.51724,177.9318,1,0,0,0,0,1586.269,-2.264812,-38.27581,0,1586.269,-2.198059,1,0,0,0,0,0,13,0,0,-141.8874,-5.773324,-110.066,0,-141.8874,-6.067479,1,0,0,0,0,0,-5,0,0,-0.5210912,-0.217891,0,100.6163,0.03689922,0.5,0,0,0,0,0.616272,0,0,3841,0,0,4061,2,229
09.37.34.805621, 313.2128,149.0837,21.61837,-61.13269,162.7645,1,0,0,0,0,1586.188,-2.221015,-15.06989,0,1586.269,-2.264812,1,0,0,0,0,0,13,0,0,-142.9999,-5.582028,-124.1341,0,-141.8874,-5.773324,1,0,0,0,0,0,-5,0,0,-0.6075972,0.4232624,0,100.6163,-0.7147695,0.5,0,0,0,0,0.5419312,0,0,3841,0,0,4062,2,229
09.37.34.904627, 319.2826,135.9737,21.30381,-46.7872,149.0837,1,0,0,0,0,1586.188,-2.241073,1.406757,0,1586.188,-2.221015,0.8701665,0,0,0,0,0,13,0,0,-142.9999,-5.208847,-127.1284,0,-142.9999,-5.582028,1,0,0,0,0,0,-5,0,0,-0.7045619,0.2989445,0,100.5419,1.38847,0.5,0,0,0,0,0.5419312,0,0,3841,0,0,4063,2,229
09.37.35.006633, 320.4164,-31.26919,20.70856,-40.71744,135.9737,1,0,0,0,0,1584.709,-1.899672,3.51275,0,1584.709,-2.241073,0.3593905,0,0,0,0,0,13,0,0,-143.791,-4.526668,-122.5187,0,-143.791,-5.208847,1,0,0,0,0,0,-5,0,0,-0.4808947,-0.6189221,0,100.5428,0.9806576,0.5,0,0,0,0,0.5428467,0,0,3841,0,0,4064,2,229
09.37.35.104638, 319.3552,-28.9581,20.41777,-39.58362,-31.26919,1,0,0,0,0,1584.709,-1.875962,-0.1813396,0,1584.709,-1.899672,0.2941048,0,0,0,0,0,13,0,0,-143.791,-4.463585,-118.4752,0,-143.791,-4.526668,1,0,0,0,0,0,-5,0,0,-0.4878449,0.1812206,0,100.5428,-2.030312,0.5,0,0,0,0,0.5428467,0,0,3841,0,0,4065,2,229
09.37.35.202644, 317.8305,-29.28778,20.12981,-40.64484,-28.9581,1,0,0,0,0,1584.709,-1.83716,-3.858678,0,1584.709,-1.875962,0.4086215,0,0,0,0,0,13,0,0,-143.791,-4.362456,-113.7893,0,-143.791,-4.463585,1,0,0,0,0,0,-5,0,0,-0.7026718,0.8535549,0,100.5428,0.594476,0.5,0,0,0,0,0.5428467,0,0,3841,0,0,4066,2,229
09.37.35.305650, 316.272,-20.24333,19.84108,-42.16946,-29.28778,1,0,0,0,0,1584.882,-1.753097,-8.315477,0,1584.709,-1.83716,0.5226189,0,0,0,0,0,13,0,0,-144.8253,-3.770536,-118.4191,0,-143.791,-4.362456,1,0,0,0,0,0,-5,0,0,-0.7031093,-0.06981012,0,100.5428,2.800002,0.5,0,0,0,0,0.7014771,0,0,3841,0,0,4067,2,229
09.37.35.403655, 315.2086,-7.680456,19.2652,-43.72797,-20.24333,1,0,0,0,0,1584.882,-1.69651,-9.829589,0,1584.882,-1.753097,0.6607798,0,0,0,0,0,13,0,0,-144.8253,-3.518987,-120.8544,0,-144.8253,-3.770536,1,0,0,0,0,0,-5,0,0,-0.7018982,-0.0270179,0,100.7015,-0.2290051,0.5,0,0,0,0,0.7014771,0,0,3841,0,0,4068,2,229
09.37.35.505661, 313.2073,10.41813,18.97898,-44.79144,-7.680456,1,0,0,0,0,1584.882,-1.616329,-10.38864,0,1584.882,-1.69651,0.7077173,0,0,0,0,0,13,0,0,-144.8253,-3.118205,-121.5393,0,-144.8253,-3.518987,1,0,0,0,0,0,-5,0,0,-0.7031603,-0.0266076,0,100.7015,-0.08862952,0.5,0,0,0,0,0.7014771,0,0,3841,0,0,4069,2,229
09.37.35.603667, 311.6296,20.91872,18.69061,-46.79269,10.41813,1,0,0,0,0,1584.703,-1.56506,-9.677622,0,1584.882,-1.616329,0.7250479,0,0,0,0,0,13,0,0,-146.1495,-2.85728,-120.5895,0,-144.8253,-3.118205,1,0,0,0,0,0,-5,0,0,-0.7021561,-0.02457275,0,100.7015,-0.08728357,0.5,0,0,0,0,0.5370483,0,0,3841,0,0,4070,2,229
09.37.35.706673, 309.1367,31.41753,18.40125,-48.37039,20.91872,1,0,0,0,0,1584.703,-1.491654,-7.219251,0,1584.703,-1.56506,0.7030063,0,0,0,0,0,13,0,0,-146.1495,-2.498525,-118.7014,0,-146.1495,-2.85728,1,0,0,0,0,0,-5,0,0,-0.7035563,-0.01072429,0,100.537,-0.08060846,0.5,0,0,0,0,0.5370483,0,0,3841,0,0,4071,2,229
09.37.35.804678, 307.3574,35.20265,17.81929,-50.86334,31.41753,1,0,0,0,0,1584.111,-1.438082,-4.979288,0,1584.111,-1.491654,0.6267967,0,0,0,0,0,13,0,0,-146.2278,-2.26746,-117.8908,0,-146.2278,-2.498525,1,0,0,0,0,0,-5,0,0,-0.7023767,-0.0323183,0,100.6725,-0.03517995,0.5,0,0,0,0,0.6725464,0,0,3841,0,0,4072,2,229
09.37.35.902684, 304.3721,32.44942,17.52837,-52.64264,35.20265,1,0,0,0,0,1584.111,-1.34185,-1.91148,0,1584.111,-1.438082,0.5573579,0,0,0,0,0,13,0,0,-146.2278,-1.953316,-117.9257,0,-146.2278,-2.26746,1,0,0,0,0,0,-5,0,0,-0.6978818,-0.01878605,0,100.6725,-0.1060169,0.5,0,0,0,0,0.6725464,0,0,3841,0,0,4073,2,229
09.37.36.004690, 302.0023,21.4877,17.23315,-55.62793,32.44942,1,0,0,0,0,1583.38,-1.265305,-1.008941,0,1584.111,-1.34185,0.4622559,0,0,0,0,0,13,0,0,-147.0738,-1.749122,-117.9597,0,-146.2278,-1.953316,1,0,0,0,0,0,-5,0,0,-0.6953277,-0.01897291,0,100.6725,-0.06162576,0.5,0,0,0,0,0.6809082,0,0,3841,0,0,4074,2,229
09.37.36.102695, 297.9735,5.430806,16.93556,-57.99768,21.4877,1,0,0,0,0,1583.38,-1.153413,-1.693714,0,1583.38,-1.265305,0.4342771,0,0,0,0,0,13,0,0,-147.0738,-1.444782,-117.6364,0,-147.0738,-1.749122,1,0,0,0,0,0,-5,0,0,-0.6953612,-0.004599893,0,100.6809,-0.06223875,0.5,0,0,0,0,0.6809082,0,0,3841,0,0,4075,2,229
09.37.36.205701, 295.2572,0.3576488,16.33148,-62.02649,5.430806,1,0,0,0,0,1583.38,-1.090266,-2.918059,0,1583.38,-1.153413,0.4555051,0,0,0,0,0,13,0,0,-147.0738,-1.248638,-117.4051,0,-147.0738,-1.444782,1,0,0,0,0,0,-5,0,0,-0.6933541,-0.01652881,0,100.6809,-0.01508949,0.5,0,0,0,0,0.6809082,0,0,3841,0,0,4076,2,229
09.37.36.303707, 292.6978,-0.8289676,16.02767,-64.74277,0.3576488,1,0,0,0,0,1583.299,-1.034603,-4.249886,0,1583.299,-1.090266,0.4934598,0,0,0,0,0,13,0,0,-148.1864,-1.079274,-117.31,0,-148.1864,-1.248638,1,0,0,0,0,0,-5,0,0,-0.690899,-0.01533579,0,100.6065,-0.0542211,0.5,0,0,0,0,0.6065063,0,0,3841,0,0,4077,2,229
09.37.36.405713, 289.2783,3.777397,15.72109,-67.30215,-0.8289676,1,0,0,0,0,1582.889,-0.959574,-5.730453,0,1583.299,-1.034603,0.5347465,0,0,0,0,0,13,0,0,-148.1314,-0.8661176,-117.26,0,-148.1864,-1.079274,1,0,0,0,0,0,-5,0,0,-0.6873321,-0.01456172,0,100.6065,-0.05030754,0.5,0,0,0,0,0.2305908,0,0,3841,0,0,4078,2,229
09.37.36.506719, 287.2419,8.056317,15.40952,-70.72171,3.777397,1,0,0,0,0,1582.889,-0.911183,-6.155506,0,1582.889,-0.959574,0.5806441,0,0,0,0,0,13,0,0,-148.1314,-0.7447063,-117.1927,0,-148.1314,-0.8661176,1,0,0,0,0,0,-5,0,0,-0.6850214,-0.01415486,0,100.2306,-0.04776826,0.5,0,0,0,0,0.2305908,0,0,3841,0,0,4079,2,229
09.37.36.606724, 284.5687,13.12637,14.78698,-72.75812,8.056317,1,0,0,0,0,1582.889,-0.8403292,-5.86852,0,1582.889,-0.911183,0.5938207,0,0,0,0,0,13,0,0,-148.1314,-0.5945899,-117.0592,0,-148.1314,-0.7447063,1,0,0,0,0,0,-5,0,0,-0.6816509,-0.01090721,0,100.2306,-0.04643359,0.5,0,0,0,0,0.2305908,0,0,3841,0,0,4080,2,229
09.37.36.704730, 282.9886,15.07498,14.47384,-75.43134,13.12637,1,0,0,0,0,1582.889,-0.7943206,-5.244135,0,1582.889,-0.8403292,0.5849241,0,0,0,0,0,13,0,0,-148.1314,-0.5139166,-116.9821,0,-148.1314,-0.5945899,1,0,0,0,0,0,-5,0,0,-0.6793967,-0.01053925,0,100.2306,-0.03578002,0.5,0,0,0,0,0.2305908,0,0,3841,0,0,4081,2,229
09.37.36.802735, 281.5079,14.8989,14.16028,-77.01141,15.07498,1,0,0,0,0,1582.889,-0.7487994,-4.505376,0,1582.889,-0.7943206,0.5655681,0,0,0,0,0,13,0,0,-148.1314,-0.4455662,-116.9155,0,-148.1314,-0.5139166,1,0,0,0,0,0,-5,0,0,-0.6773627,-0.008868994,0,100.2306,-0.03457296,0.5,0,0,0,0,0.2305908,0,0,3841,0,0,4082,2,229
09.37.36.904741, 280.1391,12.80995,13.84643,-78.49213,14.8989,1,0,0,0,0,1582.551,-0.7050404,-3.877569,0,1582.889,-0.7487994,0.5426666,0,0,0,0,0,13,0,0,-148.1314,-0.3892393,-116.8524,0,-148.1314,-0.4455662,1,0,0,0,0,0,-5,0,0,-0.6750391,-0.009222823,0,100.2306,-0.02909385,0.5,0,0,0,0,0.5991211,0,0,3841,0,0,4083,2,229
09.37.37.003747, 278.2277,8.519868,13.22212,-79.8609,12.80995,1,0,0,0,0,1582.551,-0.6432149,-3.395204,0,1582.551,-0.7050404,0.5232046,0,0,0,0,0,13,0,0,-148.1314,-0.3218142,-116.7803,0,-148.1314,-0.3892393,1,0,0,0,0,0,-5,0,0,-0.6724504,-0.007139444,0,100.5991,-0.03025455,0.5,0,0,0,0,0.5991211,0,0,3841,0,0,4084,2,229
09.37.37.105753, 277.0251,5.362706,12.91,-81.77228,8.519868,1,0,0,0,0,1582.551,-0.6043622,-3.426817,0,1582.551,-0.6432149,0.5082513,0,0,0,0,0,13,0,0,-148.1314,-0.2846572,-116.7627,0,-148.1314,-0.3218142,1,0,0,0,0,0,-5,0,0,-0.6715695,-0.004715641,0,100.5991,-0.02342023,0.5,0,0,0,0,0.5991211,0,0,3841,0,0,4085,2,229
09.37.37.203758, 275.8936,3.06547,12.59843,-82.97485,5.362706,1,0,0,0,0,1582.551,-0.568277,-3.670023,0,1582.551,-0.6043622,0.5092313,0,0,0,0,0,13,0,0,-148.1314,-0.25256,-116.7619,0,-148.1314,-0.2846572,1,0,0,0,0,0,-5,0,0,-0.6711666,-0.003040464,0,100.5991,-0.01546919,0.5,0,0,0,0,0.5991211,0,0,3841,0,0,4086,2,229
09.37.37.305764, 274.3303,1.524896,12.28742,-84.10638,3.06547,1,0,0,0,0,1582.551,-0.5191438,-4.186401,0,1582.551,-0.568277,0.5167707,0,0,0,0,0,13,0,0,-148.1314,-0.2109841,-116.7779,0,-148.1314,-0.25256,1,0,0,0,0,0,-5,0,0,-0.670795,-0.001671034,0,100.5991,-0.009973939,0.5,0,0,0,0,0.5991211,0,0,3841,0,0,4087,2,229
09.37.37.404770, 273.3679,2.003873,11.66772,-85.66968,1.524896,1,0,0,0,0,1582.551,-0.4893898,-4.470365,0,1582.551,-0.5191438,0.5327784,0,0,0,0,0,13,0,0,-148.1314,-0.1865182,-116.7836,0,-148.1314,-0.2109841,1,0,0,0,0,0,-5,0,0,-0.6706098,-0.001929855,0,100.5991,-0.005481661,0.5,0,0,0,0,0.5991211,0,0,3841,0,0,4088,2,229
09.37.37.502776, 272.4689,2.993059,11.36026,-86.63208,2.003873,1,0,0,0,0,1582.551,-0.4615819,-4.636522,0,1582.551,-0.4893898,0.5415813,0,0,0,0,0,13,0,0,-148.1314,-0.1641375,-116.7813,0,-148.1314,-0.1865182,1,0,0,0,0,0,-5,0,0,-0.6701568,-0.002143336,0,100.5991,-0.006330695,0.5,0,0,0,0,0.5991211,0,0,3841,0,0,4089,2,229
09.37.37.604781, 271.647,4.095682,11.0538,-87.53113,2.993059,1,0,0,0,0,1581.959,-0.4360245,-4.661222,0,1582.551,-0.4615819,0.5467322,0,0,0,0,0,13,0,0,-148.2096,-0.1441485,-116.7719,0,-148.1314,-0.1641375,1,0,0,0,0,0,-5,0,0,-0.6697304,-0.001968732,0,100.5991,-0.007030999,0.5,0,0,0,0,0.7347412,0,0,3841,0,0,4090,2,229
09.37.37.702787, 270.5188,5.29906,10.74849,-88.35303,4.095682,1,0,0,0,0,1581.959,-0.4003416,-4.48597,0,1581.959,-0.4360245,0.5474979,0,0,0,0,0,13,0,0,-148.2096,-0.1178986,-116.7472,0,-148.2096,-0.1441485,1,0,0,0,0,0,-5,0,0,-0.6686613,-0.002774414,0,100.7347,-0.006458228,0.5,0,0,0,0,0.7347412,0,0,3841,0,0,4091,2,229
09.37.37.805793, 269.8442,5.187091,10.14186,-89.48123,5.29906,1,0,0,0,0,1581.959,-0.3784015,-4.312362,0,1581.959,-0.4003416,0.542065,0,0,0,0,0,13,0,0,-148.2096,-0.103146,-116.7268,0,-148.2096,-0.1178986,1,0,0,0,0,0,-5,0,0,-0.6681005,-0.00206894,0,100.7347,-0.009101187,0.5,0,0,0,0,0.7347412,0,0,3841,0,0,4092,2,229
09.37.37.903798, 269.2319,4.530723,9.841491,-90.15576,5.187091,1,0,0,0,0,1581.959,-0.3580205,-4.161242,0,1581.959,-0.3784015,0.5366833,0,0,0,0,0,13,0,0,-148.2096,-0.09063546,-116.7125,0,-148.2096,-0.103146,1,0,0,0,0,0,-5,0,0,-0.6675096,-0.002266362,0,100.7347,-0.006786952,0.5,0,0,0,0,0.7347412,0,0,3841,0,0,4093,2,229
09.37.38.005804, 268.6731,3.572826,9.542722,-90.76813,4.530723,1,0,0,0,0,1581.959,-0.3390013,-4.070624,0,1581.959,-0.3580205,0.5319985,0,0,0,0,0,13,0,0,-148.2096,-0.08008545,-116.7041,0,-148.2096,-0.09063546,1,0,0,0,0,0,-5,0,0,-0.6670098,-0.001700331,0,100.7347,-0.007434573,0.5,0,0,0,0,0.7347412,0,0,3841,0,0,4094,2,229
09.37.38.103810, 267.9352,2.014373,9.245667,-91.3269,3.572826,1,0,0,0,0,1581.959,-0.3131663,-4.070485,0,1581.959,-0.3390013,0.5291893,0,0,0,0,0,13,0,0,-148.2096,-0.06734178,-116.7021,0,-148.2096,-0.08008545,1,0,0,0,0,0,-5,0,0,-0.6665713,-0.001241165,0,100.7347,-0.005577765,0.5,0,0,0,0,0.7347412,0,0,3841,0,0,4095,2,229
09.37.38.205816, 267.4845,1.350793,8.65717,-92.06476,2.014373,1,0,0,0,0,1581.959,-0.2970376,-4.137006,0,1581.959,-0.3131663,0.529185,0,0,0,0,0,13,0,0,-148.2096,-0.06012466,-116.7051,0,-148.2096,-0.06734178,1,0,0,0,0,0,-5,0,0,-0.6663698,-0.001203252,0,100.7347,-0.004071519,0.5,0,0,0,0,0.7347412,0,0,3841,0,0,4096,2,229
09.37.38.304821, 267.0795,1.033394,8.366282,-92.5155,1.350793,1,0,0,0,0,1581.959,-0.282228,-4.223296,0,1581.959,-0.2970376,0.5312472,0,0,0,0,0,13,0,0,-148.2096,-0.05385973,-116.7093,0,-148.2096,-0.06012466,1,0,0,0,0,0,-5,0,0,-0.6661783,-0.0007765064,0,100.7347,-0.003947147,0.5,0,0,0,0,0.7347412,0,0,3841,0,0,4097,2,229
09.37.38.402827, 266.7156,1.002831,8.077384,-92.92047,1.033394,1,0,0,0,0,1581.959,-0.2685913,-4.299916,0,1581.959,-0.282228,0.5339221,0,0,0,0,0,13,0,0,-148.2096,-0.048209,-116.7153,0,-148.2096,-0.05385973,1,0,0,0,0,0,-5,0,0,-0.6661582,-0.0008765415,0,100.7347,-0.002547252,0.5,0,0,0,0,0.7347412,0,0,3841,0,0,4098,2,229
09.37.38.504833, 266.243,1.329917,7.790545,-93.28436,1.002831,1,0,0,0,0,1581.959,-0.2501664,-4.357096,0,1581.959,-0.2685913,0.5362974,0,0,0,0,0,13,0,0,-148.2096,-0.04074483,-116.7121,0,-148.2096,-0.048209,1,0,0,0,0,0,-5,0,0,-0.6659083,6.322321E-05,0,100.7347,-0.002875407,0.5,0,0,0,0,0.7347412,0,0,3841,0,0,4099,2,229
09.37.38.602838, 265.975,1.499764,7.22331,-93.75705,1.329917,1,0,0,0,0,1581.959,-0.2391589,-4.353709,0,1581.959,-0.2501664,0.53807,0,0,0,0,0,13,0,0,-148.2096,-0.03636442,-116.7111,0,-148.2096,-0.04074483,1,0,0,0,0,0,-5,0,0,-0.6657774,-0.0001231555,0,100.7347,0.0002073974,0.5,0,0,0,0,0.7347412,0,0,3841,0,0,4100,2,229
09.37.38.705844, 265.7338,1.565192,6.94331,-94.02502,1.499764,1,0,0,0,0,1581.959,-0.2286921,-4.323938,0,1581.959,-0.2391589,0.5379649,0,0,0,0,0,13,0,0,-148.2096,-0.03232927,-116.7068,0,-148.2096,-0.03636442,1,0,0,0,0,0,-5,0,0,-0.6656178,-0.000321217,0,100.7347,-0.0004039993,0.5,0,0,0,0,0.7347412,0,0,3841,0,0,4101,2,229
09.37.38.803850, 265.5218,1.473823,6.665554,-94.2662,1.565192,1,0,0,0,0,1581.959,-0.2188141,-4.282901,0,1581.959,-0.2286921,0.5370421,0,0,0,0,0,13,0,0,-148.2096,-0.02872073,-116.7028,0,-148.2096,-0.03232927,1,0,0,0,0,0,-5,0,0,-0.6653522,0.000310091,0,100.7347,-0.00105372,0.5,0,0,0,0,0.7347412,0,0,3841,0,0,4102,2,229
09.37.38.905856, 265.2607,1.101611,6.390089,-94.47821,1.473823,1,0,0,0,0,1581.959,-0.2054321,-4.227157,0,1581.959,-0.2188141,0.5357699,0,0,0,0,0,13,0,0,-148.2096,-0.02422074,-116.7028,0,-148.2096,-0.02872073,1,0,0,0,0,0,-5,0,0,-0.6649989,-0.0004239283,0,100.7347,0.001017223,0.5,0,0,0,0,0.7347412,0,0,3841,0,0,4103,2,229
09.37.39.003861, 265.1188,0.7483854,5.846231,-94.73932,1.101611,1,0,0,0,0,1581.959,-0.1972657,-4.211096,0,1581.959,-0.2054321,0.5340419,0,0,0,0,0,13,0,0,-148.2096,-0.02175915,-116.7008,0,-148.2096,-0.02422074,1,0,0,0,0,0,-5,0,0,-0.664854,-0.0009606921,0,100.7347,-0.001390654,0.5,0,0,0,0,0.7347412,0,0,3841,0,0,4104,2,229
09.37.39.103867, 265.0016,0.4536793,5.578046,-94.88123,0.7483854,1,0,0,0,0,1581.959,-0.1897026,-4.215539,0,1581.959,-0.1972657,0.5335439,0,0,0,0,0,13,0,0,-148.2096,-0.01968572,-116.7002,0,-148.2096,-0.02175915,1,0,0,0,0,0,-5,0,0,-0.6646923,-0.0004113222,0,100.7347,-0.003151454,0.5,0,0,0,0,0.7347412,0,0,3841,0,0,4105,2,229
09.37.39.211873, 264.9061,0.2624761,5.312283,-94.99841,0.4536793,1,0,0,0,0,1581.959,-0.1827167,-4.230303,0,1581.959,-0.1897026,0.5336817,0,0,0,0,0,13,0,0,-148.2096,-0.01789,-116.7037,0,-148.2096,-0.01968572,1,0,0,0,0,0,-5,0,0,-0.6647154,-0.000145607,0,100.7347,-0.001349301,0.5,0,0,0,0,0.7347412,0,0,3841,0,0,4106,2,229
09.37.39.302878, 264.8286,0.1436252,5.048965,-95.09393,0.2624761,1,0,0,0,0,1581.959,-0.1760207,-4.249591,0,1581.959,-0.1827167,0.5341394,0,0,0,0,0,13,0,0,-148.2096,-0.01624097,-116.7036,0,-148.2096,-0.01789,1,0,0,0,0,0,-5,0,0,-0.664645,0.0004693383,0,100.7347,-0.0004776492,0.5,0,0,0,0,0.7347412,0,0,3841,0,0,4107,2,229
09.37.