MagYaw,YawVelocityDegreesPerSecond,YawIntegral,YawProportional,YawDerivativeError,YawControl,YawIntegralGain,YawDerivativeGain,YawProportionalGain,YawAntiWindupGain,XNEDBodyFrame,XVelocityMetersPerSecond,ThetaPitchDegrees,XIntegral,XProportional,XDerivativeError,LongitudeControl,XIntegralGain,XDerivativeGain,XProportionalGain,XAntiWindupGain,LongitudeInnerLoopGain,XLongitudeOuterLoopSetpoint,PitchAngularVelocityRadsPerSecond,PitchAngularVelocityGain,YNEDBodyFrame,YVelocityMetersPerSecond,PhiRollDegrees,YIntegral,YProportional,YDerivativeError,LateralControl,YIntegralGain,YDerivativeGain,YProportionalGain,YAntiWindupGain,LateralInnerLoopGain,YLateralOuterLoopSetpoint,RollAngularVelocityRadsPerSecond,RollAngularVelocityGain,AltitudeFeetAgl,ZVelocityMetersPerSecond,ZIntegral,ZProportional,ZDerivativeError,MainRotorCollectiveControl,ZIntegralGain,ZDerivativeGain,ZProportionalGain,ZAntiWindupGain,ZNEDBodyFrame,LatitudeDegrees,LongitudeDegrees,Timeouts,UnrecognizedMsgTypes,ChecksumErrors,NumOfBlownFrames,MessageType,NumOfBytesInMsg
231.2516,55.8044,0,0,0,0,0,0,0,0,0,-0.009413014,-0.7311804,0,0,0,0,0,0,0,0,0,0,0,0,0,0.01229024,-0.6190737,0,0,0,0,0,0,0,0,0,0,0,0,0.09277368,0.0005021124,0,0,0,0,0,0,0,0,0,0,0,72,0,0,0,2,229
236.805,56.87687,-0.05149937,-128.7484,55.8044,-1,0,0,0,0,0,-0.00846434,-0.6116639,0,0,-0.009413014,0.02212413,0,0,0,0,0,-0.01749879,0,0,0,0.01431562,-0.6145877,0,0,0.01229024,0.0601618,0,0,0,0,0,0.0348588,0,0,0.09279583,-1.598565E-05,0.09999999,100,0.00164713,1,0,0,0,0,0,0,0,72,0,0,1,2,229
245.2207,58.09538,0,-123.195,56.87687,-1,0,0,0,0,-0.4507388,-0.007844147,-0.4388159,0,0,-0.00846434,0.01847379,0,0,0,0,0,-0.01573521,0,0,-0.5012462,0.0170824,-0.5958191,0,0,0.01431562,0.06027758,0,0,0,0,0,0.0406034,0,0,0.09264632,6.766419E-05,0,100,-5.243934E-05,1,0,0,0,0,-0.4130216,0,0,72,0,0,2,2,229
253.4763,58.72276,0,-114.7793,58.09538,-1,0,0,0,0,-0.4507388,-0.007839143,-0.2821443,0,-0.4507388,-0.007844147,0.009113074,0,0,0,0,0,-0.1448458,0,0,-0.5012462,0.01951425,-0.5589153,0,-0.5012462,0.0170824,-0.006993917,0,0,0,0,0,-0.6718399,0,0,0.09253882,0.0007024595,0,99.58698,0.0002219656,1,0,0,0,0,-0.4130216,0,0,72,0,0,3,2,229
261.5442,58.8156,0,-106.5237,58.72276,-1,0,0,0,0,-0.4507388,-0.008461521,-0.1467105,0,-0.4507388,-0.007839143,0.004256544,0,0,0,0,0,-0.1448365,0,0,-0.5012462,0.02163776,-0.5122764,0,-0.5012462,0.01951425,-0.009754496,0,0,0,0,0,-0.6649424,0,0,0.09244724,0.0006001307,0,99.58698,0.002304348,1,0,0,0,0,-0.4130216,0,0,72,0,0,4,2,229
269.1735,58.33467,0,-98.45578,58.8156,-1,0,0,0,0,-0.4507388,-0.009712211,-0.03929592,0,-0.4507388,-0.008461521,2.222744E-05,0,0,0,0,0,-0.1459935,0,0,-0.5012462,0.02336477,-0.4609003,0,-0.5012462,0.02163776,-0.01349117,0,0,0,0,0,-0.6589195,0,0,0.09251671,-0.0001015885,0,99.58698,0.001968669,1,0,0,0,0,-0.4130216,0,0,72,0,0,5,2,229
274.1121,57.8563,0,-90.82651,58.33467,-1,0,0,0,0,-0.4507388,-0.01078543,0.01970532,0,-0.4507388,-0.009712211,-0.0033797,0,0,0,0,0,-0.1483185,0,0,-0.5012462,0.02432362,-0.4228919,0,-0.5012462,0.02336477,-0.01776713,0,0,0,0,0,-0.6540212,0,0,0.09241931,0.0007866948,0,99.58698,-0.0003332508,1,0,0,0,0,-0.4130216,0,0,72,0,0,6,2,229
281.3524,56.96895,0,-85.88788,57.8563,-1,0,0,0,0,-0.4507388,-0.01264104,0.09499898,0,-0.4507388,-0.01078543,-0.005270587,0,0,0,0,0,-0.1503136,0,0,-0.5012462,0.02552861,-0.3593012,0,-0.5012462,0.02432362,-0.02101369,0,0,0,0,0,-0.6513016,0,0,0.09249371,6.280335E-05,0,99.58698,0.002580673,1,0,0,0,0,-0.4130216,0,0,72,0,0,7,2,229
288.5547,56.06438,0,-78.64761,56.96895,-1,0,0,0,0,-0.4507388,-0.01473228,0.1595066,0,-0.4507388,-0.01264104,-0.007711627,0,0,0,0,0,-0.1537632,0,0,-0.5012462,0.02652846,-0.2915495,0,-0.5012462,0.02552861,-0.0265496,0,0,0,0,0,-0.6478839,0,0,0.0923881,0.000653911,0,99.58698,0.0002060201,1,0,0,0,0,-0.4130216,0,0,72,0,0,8,2,229
295.4323,54.82655,0,-71.44528,56.06438,-1,0,0,0,0,-0.4507388,-0.01693847,0.2129774,0,-0.4507388,-0.01473228,-0.009831881,0,0,0,0,0,-0.1576508,0,0,-0.5012462,0.02724863,-0.2209331,0,-0.5012462,0.02652846,-0.03252186,0,0,0,0,0,-0.645048,0,0,0.09249204,0.0001479558,0,99.58698,0.00214509,1,0,0,0,0,-0.4130216,0,0,72,0,0,9,2,229
304.0944,52.88599,0,-64.56769,54.82655,-1,0,0,0,0,-0.4507388,-0.01998599,0.2680317,0,-0.4507388,-0.01693847,-0.01161661,0,0,0,0,0,-0.1617521,0,0,-0.5012462,0.02769263,-0.1263177,0,-0.5012462,0.02724863,-0.03883066,0,0,0,0,0,-0.6430054,0,0,0.09238454,0.0004960763,0,99.58698,0.0004853541,1,0,0,0,0,-0.4130216,0,0,72,0,0,10,2,229
311.6426,103.2462,0,-55.90564,52.88599,-1,0,0,0,0,-0.4507388,-0.1271043,0.4535718,0,-0.4507388,-0.01998599,-0.01349893,0,0,0,0,0,-0.1674175,0,0,-0.5012462,-0.1581164,-0.6490364,0,-0.5012462,0.02769263,-0.04741941,0,0,0,0,0,-0.6417461,0,0,0.9051263,-3.547352,0,99.58698,0.001627329,1,0,0,0,0,-0.4130216,0,0,72,0,0,11,2,229
322.309,133.3594,-3.859532,-48.35739,103.2462,1,0,0,0,0,-0.1276256,-0.1842859,1.28859,0,-0.1276256,-0.1271043,-0.02542379,0,0,0,0,0,-0.2731707,0,0,-0.7909832,-0.2673327,-1.266347,0,-0.7909832,-0.1581164,-0.04781421,0,0,0,0,0,-1.585108,0,0,2.138248,-4.693486,0,98.52672,-11.63673,1,0,0,0,0,-1.473281,0,0,72,0,0,12,2,229
342.6439,168.6582,-7.328845,-37.69098,133.3594,1,0,0,0,0,-0.1999816,-0.2635987,3.506075,0,-0.1999816,-0.1842859,-0.05235814,0,0,0,0,0,-0.4003821,0,0,-0.7359298,-0.396538,-1.83753,0,-0.7359298,-0.2673327,-0.05054663,0,0,0,0,0,-1.815767,0,0,4.383298,-5.516969,0,97.78225,-15.39651,1,0,0,0,0,-2.21775,0,0,72,0,0,13,2,229
358.3201,161.3033,-14.06935,-17.35611,168.6582,1,0,0,0,0,-0.3334634,-0.3556943,5.53607,0,-0.1999816,-0.2635987,-0.1256709,0,0,0,0,0,-0.5478246,0,0,-0.6489978,-0.3559051,-1.547179,0,-0.7359298,-0.396538,-0.03171256,0,0,0,0,0,-2.182232,0,0,6.117768,-5.815329,0,97.78225,-18.09787,1,0,0,0,0,-5.052732,0,0,72,0,0,14,2,229
10.07914,110.2897,-25.16343,-1.679932,161.3033,1,0,0,0,0,-0.3222339,-0.5556699,7.66117,0,-0.3334634,-0.3556943,-0.195104,0,0,0,0,0,-0.7576067,0,0,-0.6721723,-0.1629834,-0.3395333,0,-0.6489978,-0.3559051,-0.03632943,0,0,0,0,0,-1.942064,0,0,7.979712,-6.042339,0,94.94727,-19.0766,1,0,0,0,0,-6.398777,0,0,72,0,0,15,2,229
17.26963,63.36995,-42.75576,10.07914,110.2897,1,0,0,0,0,0.02678919,-0.8300008,9.895329,0,0.02678919,-0.5556699,-0.2724059,0,0,0,0,0,-1.025248,0,0,-0.6953468,-0.01379369,1.202379,0,-0.6953468,-0.1629834,-0.1001556,0,0,0,0,0,-1.461483,0,0,9.922699,-6.225378,0,91.88654,-19.82129,1,0,0,0,0,-8.113462,0,0,72,0,0,16,2,229
21.04347,29.78656,-48.75582,17.26963,63.36995,1,0,0,0,0,-0.190279,-1.135362,12.2148,0,-0.190279,-0.8300008,-0.356292,0,0,0,0,0,-1.597962,0,0,-0.5301869,0.07233666,2.598278,0,-0.5301869,-0.01379369,-0.184311,0,0,0,0,0,-0.8010017,0,0,11.95036,-6.371662,0,89.65313,-20.42173,1,0,0,0,0,-10.34687,0,0,72,0,0,17,2,229
22.3765,7.079406,-50.88523,21.04347,29.78656,-1,0,0,0,0,-0.3496704,-1.45244,14.54658,0,-0.190279,-1.135362,-0.4457933,0,0,0,0,0,-2.165628,0,0,-0.7098169,0.09892923,3.282325,0,-0.5301869,0.07233666,-0.2902589,0,0,0,0,0,-0.5567101,0,0,14.01825,-6.487,0,89.65313,-20.9016,1,0,0,0,0,-12.52742,0,0,72,0,0,18,2,229
22.04272,-7.65307,-50.52396,22.3765,7.079406,-1,0,0,0,0,-0.7485895,-1.769423,16.76222,0,-0.3496704,-1.45244,-0.5377794,0,0,0,0,0,-2.801141,0,0,-0.6779385,0.07220184,2.820054,0,-0.7098169,0.09892923,-0.3699999,0,0,0,0,0,-0.739414,0,0,16.14013,-6.581094,0,87.47257,-21.27995,1,0,0,0,0,-14.2493,0,0,72,0,0,19,2,229
28.85964,89.16335,-45.20688,22.04272,-7.65307,-1,0,0,0,0,-0.7373595,-1.756344,18.17728,0,-0.7373595,-1.769423,-0.6283054,0,0,0,0,0,-3.502455,0,0,-0.7011127,-0.3578588,2.118615,0,-0.7011127,0.07220184,-0.3302309,0,0,0,0,0,-0.802713,0,0,18.28869,-6.6623,0,84.40466,-21.58862,1,0,0,0,0,-15.59534,0,0,72,0,0,20,2,229
44.14323,170.2616,-42.32841,28.85964,89.16335,1,0,0,0,0,-1.208634,-1.683811,18.30771,0,-1.208634,-1.756344,-0.6755402,0,0,0,0,0,-3.614339,0,0,-0.6141806,-0.7538456,1.891482,0,-0.6141806,-0.3578588,-0.3694893,0,0,0,0,0,-1.897572,0,0,20.39651,-6.687728,0,81.93832,-21.85501,1,0,0,0,0,-18.06168,0,0,72,0,0,21,2,229
65.79144,235.6307,-48.44276,44.14323,170.2616,1,0,0,0,0,-0.8596115,-1.53571,16.72997,0,-1.208634,-1.683811,-0.6754035,0,0,0,0,0,-3.4795,0,0,-0.6373553,-1.07004,2.063101,0,-0.6141806,-0.7538456,-0.4519216,0,0,0,0,0,-3.02071,0,0,22.46369,-6.707255,0,81.93832,-21.93843,1,0,0,0,0,-19.77637,0,0,72,0,0,22,2,229
99.95801,217.3596,-62.35873,65.79144,235.6307,1,0,0,0,0,-0.9207382,-1.587671,11.17337,0,-0.8596115,-1.53571,-0.6148318,0,0,0,0,0,-3.103313,0,0,-0.6054764,-1.365695,0.8993545,0,-0.6373553,-1.07004,-0.553282,0,0,0,0,0,-3.950834,0,0,25.52658,-6.781276,0,80.22363,-22.00248,1,0,0,0,0,-21.86688,0,0,72,0,0,23,2,229
116.8722,182.3405,-102.6629,99.95801,217.3596,1,0,0,0,0,-1.562634,-1.639422,6.985345,0,-1.562634,-1.587671,-0.4461194,0,0,0,0,0,-3.403082,0,0,-0.6750002,-1.483646,-1.928126,0,-0.6750002,-1.365695,-0.519151,0,0,0,0,0,-4.843497,0,0,27.50892,-6.916596,0,74.83226,-22.2453,1,0,0,0,0,-25.16774,0,0,72,0,0,24,2,229
131.3913,158.5679,-120.7213,116.8722,182.3405,1,0,0,0,0,-1.623761,-1.641456,2.926311,0,-1.623761,-1.639422,-0.3255712,0,0,0,0,0,-3.516952,0,0,-0.6431208,-1.476411,-6.032284,0,-0.6431208,-1.483646,-0.2947775,0,0,0,0,0,-5.132229,0,0,29.51538,-7.090078,0,72.74174,-22.6892,1,0,0,0,0,-27.25825,0,0,72,0,0,25,2,229
145.335,141.5333,-135.6827,131.3913,158.5679,1,0,0,0,0,-1.684887,-1.645778,-0.8605481,0,-1.623761,-1.641456,-0.1998584,0,0,0,0,0,-3.520733,0,0,-0.6112423,-1.326956,-11.61615,0,-0.6431208,-1.476411,0.08469283,0,0,0,0,0,-5.11171,0,0,31.69289,-7.28652,0,72.74174,-23.25829,1,0,0,0,0,-29.34876,0,0,72,0,0,26,2,229
159.0284,130.555,-148.5737,145.335,141.5333,1,0,0,0,0,-1.572984,-1.712982,-3.584519,0,-1.684887,-1.645778,-0.08326244,0,0,0,0,0,-3.546433,0,0,-1.613735,-1.069539,-17.57244,0,-0.6112423,-1.326956,0.6416213,0,0,0,0,0,-4.642001,0,0,34.01977,-7.460702,0,70.65124,-23.9027,1,0,0,0,0,-31.28073,0,0,72,0,0,27,2,229
172.4362,124.4301,-170.9413,159.0284,130.555,1,0,0,0,0,-1.732378,-1.872877,-4.730643,0,-1.732378,-1.712982,-0.001689703,0,0,0,0,0,-3.685091,0,0,-1.793365,-0.7774756,-22.15068,0,-1.793365,-1.069539,1,0,0,0,0,0,-5.610598,0,0,36.44389,-7.586248,0,66.53871,-24.47409,1,0,0,0,0,-33.46128,0,0,72,0,0,28,2,229
185.2161,120.0793,-180.6782,172.4362,124.4301,1,0,0,0,0,-1.865858,-2.076277,-4.17525,0,-1.865858,-1.872877,0.02200171,0,0,0,0,0,-4.02091,0,0,-1.706433,-0.5736929,-23.10319,0,-1.706433,-0.7774756,1,0,0,0,0,0,-4.657299,0,0,38.92277,-7.659913,0,63.70373,-24.88593,1,0,0,0,0,-36.29627,0,0,72,0,0,29,2,229
196.897,113.7549,-190.4005,-174.7839,120.0793,-1,0,0,0,0,-1.99934,-2.247199,-2.306268,0,-1.865858,-2.076277,-0.006937273,0,0,0,0,0,-4.399033,0,0,-1.619501,-0.4703329,-19.91563,0,-1.706433,-0.5736929,1,0,0,0,0,0,-4.079309,0,0,41.43164,-7.703143,0,63.70373,-25.12758,1,0,0,0,0,-39.13125,0,0,72,0,0,30,2,229
207.0042,101.6397,-164.254,-163.103,113.7549,-1,0,0,0,0,-2.652466,-2.290611,0.1832146,0,-1.99934,-2.247199,-0.07592162,0,0,0,0,0,-4.755352,0,0,-1.66585,-0.4889336,-13.14854,0,-1.619501,-0.4703329,1,0,0,0,0,0,-3.661228,0,0,43.93667,-7.761519,0,60.86875,-25.26939,1,0,0,0,0,-41.08606,0,0,72,0,0,31,2,229
222.9861,194.1235,-120.7148,-152.9958,101.6397,-1,0,0,0,0,-2.474066,-2.490046,4.22148,0,-2.474066,-2.290611,-0.1614487,0,0,0,0,0,-4.97325,0,0,-1.845481,-0.2906093,-4.678488,0,-1.845481,-0.4889336,0.8618516,0,0,0,0,0,-4.038718,0,0,46.34565,-7.75051,0,56.36475,-25.46089,1,0,0,0,0,-43.63525,0,0,72,0,0,32,2,229
245.8622,256.7121,-102.138,-137.0139,194.1235,-1,0,0,0,0,-2.945341,-2.431079,7.859168,0,-2.945341,-2.490046,-0.300752,0,0,0,0,0,-5.480199,0,0,-1.758549,-0.1708793,6.228303,0,-1.758549,-0.2906093,0.1221023,0,0,0,0,0,-3.35129,0,0,48.79539,-8.053096,0,53.8984,-25.42477,1,0,0,0,0,-46.1016,0,0,72,0,0,33,2,229
273.8967,297.3856,-94.86892,-114.1378,256.7121,1,0,0,0,0,-3.078821,-2.033905,8.241252,0,-2.945341,-2.431079,-0.4101222,0,0,0,0,0,-5.370579,0,0,-1.671616,0.05972871,19.06307,0,-1.758549,-0.1708793,-0.8500803,0,0,0,0,0,-3.011699,0,0,51.41839,-8.59753,0,53.8984,-26.41738,1,0,0,0,0,-48.93658,0,0,72,0,0,34,2,229
319.2723,334.9614,-95.72322,-86.10327,297.3856,1,0,0,0,0,-3.550098,-1.251901,-0.4942146,0,-3.078821,-2.033905,-0.4002739,0,0,0,0,0,-4.670808,0,0,-1.584684,0.8617602,32.91881,0,-1.671616,0.05972871,-1,0,0,0,0,0,-2.232703,0,0,55.50364,-9.136682,0,51.06342,-28.20334,1,0,0,0,0,-51.40292,0,0,72,0,0,35,2,229
346.0981,297.4895,-116.7764,-40.72766,334.9614,1,0,0,0,0,-3.360468,-0.98511,-8.160917,0,-3.360468,-1.251901,-0.08863047,0,0,0,0,0,-3.298459,0,0,-1.787489,1.617504,32.05001,0,-1.787489,0.8617602,-1,0,0,0,0,0,-0.1244113,0,0,58.08575,-9.012299,0,44.70184,-29.97197,1,0,0,0,0,-55.29816,0,0,72,0,0,36,2,229
9.662432,255.0563,-129.4033,-13.90192,297.4895,1,0,0,0,0,-3.831741,-1.013666,-13.53322,0,-3.831741,-0.98511,0.1618889,0,0,0,0,0,-2.938693,0,0,-1.700556,2.389813,24.9009,0,-1.700556,1.617504,-1,0,0,0,0,0,2.144028,0,0,60.5784,-8.826237,0,42.2355,-29.56394,1,0,0,0,0,-57.7645,0,0,72,0,0,37,2,229
39.97302,202.3561,-140.2555,9.662432,255.0563,1,0,0,0,0,-3.965221,-1.223671,-16.12404,0,-3.831741,-1.013666,0.3267847,0,0,0,0,0,-2.991779,0,0,-1.613625,3.341678,7.448043,0,-1.700556,2.389813,-1,0,0,0,0,0,4.334529,0,0,64.4333,-9.09026,0,42.2355,-28.95359,1,0,0,0,0,-60.59949,0,0,72,0,0,38,2,229
56.48158,182.7133,-148.76,39.97302,202.3561,1,0,0,0,0,-4.286411,-1.231212,-14.28587,0,-3.965221,-1.223671,0.393802,0,0,0,0,0,-3.420754,0,0,-0.7820587,3.675106,-5.147054,0,-1.613625,3.341678,-0.02657146,0,0,0,0,0,7.159223,0,0,67.02641,-9.419365,0,39.40051,-29.81969,1,0,0,0,0,-64.28464,0,0,72,0,0,39,2,229
77.35952,173.5573,-160.5193,56.48158,182.7133,1,0,0,0,0,-4.75769,-0.8040694,-7.258606,0,-4.75769,-1.231212,0.3335066,0,0,0,0,0,-3.663797,0,0,-0.6951275,3.911528,-22.8504,0,-0.6951275,3.675106,1,0,0,0,0,0,9.424805,0,0,70.95132,-9.798917,0,33.24902,-30.89929,1,0,0,0,0,-66.75098,0,0,72,0,0,40,2,229
89.49757,177.9977,-165.5152,77.35952,173.5573,1,0,0,0,0,-4.469791,-0.3725247,0.08037847,0,-4.469791,-0.8040694,0.1386342,0,0,0,0,0,-2.786535,0,0,-0.6864223,4.010661,-31.52649,0,-0.6864223,3.911528,1,0,0,0,0,0,10,0,0,73.56812,-9.948557,0,29.44382,-32.14437,1,0,0,0,0,-70.55618,0,0,72,0,0,41,2,229
101.3277,186.5199,-171.3162,89.49757,177.9977,1,0,0,0,0,-4.267887,0.1720221,9.68699,0,-4.469791,-0.3725247,-0.06400482,0,0,0,0,0,-1.984293,0,0,0.5913372,4.108055,-36.44867,0,-0.6864223,4.010661,1,0,0,0,0,0,10,0,0,76.28065,-10.00947,0,29.44382,-32.63525,1,0,0,0,0,-73.08384,0,0,72,0,0,42,2,229
120.1182,190.264,-178.1236,101.3277,186.5199,1,0,0,0,0,-4.24543,1.075203,27.02529,0,-4.267887,0.1720221,-0.3286192,0,0,0,0,0,-0.9136302,0,0,0.5449886,4.219828,-32.75466,0,0.5913372,4.108055,1,0,0,0,0,0,10,0,0,80.52605,-9.997365,0,26.91616,-32.83505,1,0,0,0,0,-75.77592,0,0,72,0,0,43,2,229
134.729,171.018,-195.5714,120.1182,190.264,1,0,0,0,0,-4.621887,1.736862,38.34893,0,-4.621887,1.075203,-0.8138558,0,0,0,0,0,0.6630764,0,0,0.5305176,4.129754,-22.26178,0,0.5305176,4.219828,1,0,0,0,0,0,10,0,0,83.54109,-10.0087,0.01685428,19.8101,-32.79536,0.8116535,0,0,0,0,-80.1899,0,0,72,0,0,44,2,229
150.0532,130.7085,-204.0446,134.729,171.018,1,0,0,0,0,-4.434662,2.526738,46.93785,0,-4.434662,1.736862,-1,0,0,0,0,0,1.947209,0,0,1.518539,3.770552,-6.331221,0,1.518539,4.129754,1,0,0,0,0,0,10,0,0,86.61668,-10.08273,0.03344512,16.59084,-32.83255,0.6378509,0,0,0,0,-83.40916,0,0,72,0,0,45,2,229
163.4451,82.8448,-211.4896,150.0532,130.7085,1,0,0,0,0,-4.230354,2.86733,52.13204,0,-4.434662,2.526738,-1,0,0,0,0,0,3.415588,0,0,1.605471,3.211588,11.20871,0,1.518539,3.770552,1,0,0,0,0,0,10,0,0,89.4851,-9.579982,0.05003595,16.59084,-33.07539,0.6516709,0,0,0,0,-86.61279,0,0,72,0,0,46,2,229
173.9712,0.2934592,-216.2908,163.4451,82.8448,1,0,0,0,0,-3.714153,3.4786,57.62295,0,-4.230354,2.86733,-1,0,0,0,0,0,4.107794,0,0,1.425842,2.147582,33.23462,0,1.605471,3.211588,-0.1112015,0,0,0,0,0,10,0,0,93.44664,-8.567035,0.06342316,13.38721,-31.42617,0.4948296,0,0,0,0,-89.53062,0,0,72,0,0,47,2,229
172.1526,-48.31128,-213.543,173.9712,0.2934592,-1,0,0,0,0,-3.26149,4.202137,61.79509,0,-3.26149,3.4786,-1,0,0,0,0,0,5.524146,0,0,2.468916,1.226953,41.17669,0,2.468916,2.147582,-1,0,0,0,0,0,9.639019,0,0,95.74412,-8.123011,0.08002951,6.136978,-28.1033,0.1215139,0,0,0,0,-93.86302,0,0,72,0,0,48,2,229
153.8179,-107.4143,-209.6419,172.1526,-48.31128,-1,0,0,0,0,-3.322617,4.219263,69.84703,0,-3.322617,4.202137,-1,0,0,0,0,0,6.851536,0,0,2.500795,0.5777907,35.71543,0,2.500795,1.226953,-1,0,0,0,0,0,7.07365,0,0,98.59917,-6.909459,0.08407597,4.046463,-26.64672,0.01881862,0,0,0,0,-95.95354,0,0,72,0,0,49,2,229
144.5492,4.650123,-201.825,153.8179,-107.4143,-1,0,0,0,0,-1.960217,3.072989,71.64215,0,-3.322617,4.219263,-1,0,0,0,0,0,6.883374,0,0,2.477621,1.8879,32.75919,0,2.500795,0.5777907,-1,0,0,0,0,0,5.23243,0,0,100.6913,-5.141127,0.08812243,4.046463,-22.66579,0.06828755,0,0,0,0,-98.77414,0,0,72,0,0,50,2,229
157.429,85.27087,-187.9363,144.5492,4.650123,-1,0,0,0,0,-1.940163,2.215491,66.53906,0,-1.960217,3.072989,-1,0,0,0,0,0,5.146183,0,0,3.622099,2.983845,45.59201,0,2.477621,1.8879,-1,0,0,0,0,0,8.914991,0,0,102.1314,-3.559554,0.08934829,1.225861,-16.86495,-0.03074276,0,0,0,0,-100.7903,0,0,72,0,0,51,2,229
167.4085,124.5146,-188.4548,157.429,85.27087,1,0,0,0,0,-1.674725,2.03962,59.09417,0,-1.674725,2.215491,-1,0,0,0,0,0,3.634603,0,0,3.677151,3.310676,52.743,0,3.677151,2.983845,-1,0,0,0,0,0,10,0,0,102.8424,-2.723112,0.08665465,-1.903374,-11.67676,-0.1588953,0,0,0,0,-101.9034,0,0,72,0,0,52,2,229
178.6989,169.41,-192.4333,167.4085,124.5146,1,0,0,0,0,-1.747082,1.465154,42.68142,0,-1.747082,2.03962,-1,0,0,0,0,0,3.286747,0,0,3.732204,4.084501,56.84037,0,3.732204,3.310676,-1,0,0,0,0,0,10,0,0,103.4807,-1.244727,0.08400681,-2.647842,-8.932898,-0.1741667,0,0,0,0,-102.6478,0,0,72,0,0,53,2,229
181.5581,99.59277,-200.3431,178.6989,169.41,1,0,0,0,0,-1.409286,0.7457558,32.99559,0,-1.747082,1.465154,-1,0,0,0,0,0,2.218814,0,0,3.732204,4.504854,55.23354,0,3.732204,4.084501,-1,0,0,0,0,0,10,0,0,103.5129,0.2544534,0.08135897,-2.647842,-4.083203,-0.1214796,0,0,0,0,-103.0165,0,0,72,0,0,54,2,229
179.9195,25.53531,-212.5499,-178.4419,99.59277,-1,0,0,0,0,-1.426376,0.321315,27.38898,0,-1.409286,0.7457558,-0.9925119,0,0,0,0,0,0.9790763,0,0,4.633295,4.646722,51.22454,0,3.732204,4.504854,-1,0,0,0,0,0,10,0,0,103.1351,1.702246,0.07834248,-3.016487,0.834709,-0.09013639,0,0,0,0,-103.0321,0,0,72,0,0,55,2,229
174.068,-33.5509,-183.7402,179.9195,25.53531,1,0,0,0,0,-1.764172,0.3838,25.29149,0,-1.764172,0.321315,-0.8433203,0,0,0,0,0,0.08747888,0,0,4.633295,4.291523,45.01043,0,4.633295,4.646722,-1,0,0,0,0,0,10,0,0,102.4038,2.682443,0.07264684,-2.663498,5.584049,-0.02081217,0,0,0,0,-102.6635,0,0,72,0,0,56,2,229
172.5547,18.62299,-185.359,174.068,-33.5509,-1,0,0,0,0,-1.691811,0.5118901,22.63951,0,-1.691811,0.3838,-0.7770752,0,0,0,0,0,0.2245508,0,0,4.578241,4.299303,41.77219,0,4.578241,4.291523,-1,0,0,0,0,0,10,0,0,101.9595,2.871126,0.0707278,-1.919037,8.799485,0.05788756,0,0,0,0,-101.919,0,0,72,0,0,57,2,229
171.8573,25.80523,-181.4091,172.5547,18.62299,1,0,0,0,0,-1.298748,0.7586025,14.95779,0,-1.691811,0.5118901,-0.6874821,0,0,0,0,0,0.4626704,0,0,5.424278,3.931779,35.36027,0,4.578241,4.299303,-1,0,0,0,0,0,10,0,0,100.9458,3.336605,0.06880876,-1.919037,9.418442,0.06303082,0,0,0,0,-101.5589,0,0,72,0,0,58,2,229
169.4512,42.10517,-181.9379,171.8573,25.80523,1,0,0,0,0,-1.720127,1.014746,8.433711,0,-1.298748,0.7586025,-0.4316095,0,0,0,0,0,1.034904,0,0,5.502504,3.464439,28.46518,0,5.424278,3.931779,-1,0,0,0,0,0,10,0,0,99.81217,3.450799,0.0672499,-1.558861,10.9454,0.1001485,0,0,0,0,-100.5886,0,0,72,0,0,59,2,229
164.9877,-31.20035,-185.0162,169.4512,42.10517,1,0,0,0,0,-0.8998337,1.189706,2.745545,0,-0.8998337,1.014746,-0.2183768,0,0,0,0,0,1.626361,0,0,5.392401,2.712127,21.72298,0,5.392401,3.464439,-1,0,0,0,0,0,10,0,0,98.65641,3.595477,0.06682426,0.1630096,11.32,0.2056047,0,0,0,0,-99.83699,0,0,72,0,0,60,2,229
160.9572,-60.31051,-186.8726,164.9877,-31.20035,-1,0,0,0,0,-1.248852,1.229875,0.7294155,0,-1.248852,1.189706,-0.02773879,0,0,0,0,0,1.850746,0,0,5.415573,2.35519,18.54613,0,5.415573,2.712127,-1,0,0,0,0,0,10,0,0,98.08257,3.520314,0.06870197,1.877701,11.7946,0.3140815,0,0,0,0,-98.1223,0,0,72,0,0,61,2,229
149.8497,-109.7554,-182.0677,160.9572,-60.31051,-1,0,0,0,0,-0.659256,1.200632,-2.118993,0,-1.248852,1.229875,0.03707613,0,0,0,0,0,1.92542,0,0,6.684628,1.700014,12.4345,0,5.415573,2.35519,-0.7862444,0,0,0,0,0,10,0,0,97.03475,2.974443,0.07057967,1.877701,11.54804,0.3131459,0,0,0,0,-97.58205,0,0,72,0,0,62,2,229
138.6525,-78.80574,-174.8703,149.8497,-109.7554,-1,0,0,0,0,-1.080635,1.102338,-4.342245,0,-0.659256,1.200632,0.1289737,0,0,0,0,0,2.041449,0,0,6.762856,1.506343,5.670964,0,6.684628,1.700014,-0.2239736,0,0,0,0,0,10,0,0,96.29707,1.891398,0.07299762,2.417953,9.757362,0.3270125,0,0,0,0,-96.61183,0,0,72,0,0,63,2,229
137.7875,13.62959,-153.9865,138.6525,-78.80574,-1,0,0,0,0,-0.6704903,1.106815,-7.067185,0,-0.6704903,1.102338,0.1884548,0,0,0,0,0,1.855475,0,0,6.707804,1.863678,-3.774966,0,6.707804,1.506343,0.3982713,0,0,0,0,0,10,0,0,95.89496,1.074906,0.08014978,3.764,6.204543,0.3730573,0,0,0,0,-96.236,0,0,72,0,0,64,2,229
144.0813,73.82351,-145.7995,137.7875,13.62959,1,0,0,0,0,-0.5981331,1.081712,-8.438758,0,-0.5981331,1.106815,0.2775087,0,0,0,0,0,1.884708,0,0,6.65275,2.293978,-12.84709,0,6.65275,1.863678,1,0,0,0,0,0,10,0,0,95.66373,0.6352657,0.08465825,4.508469,3.52612,0.390936,0,0,0,0,-95.49153,0,0,72,0,0,65,2,229
154.8858,115.7252,-145.9992,144.0813,73.82351,1,0,0,0,0,-0.5981331,0.9864523,-7.322481,0,-0.5981331,1.081712,0.3185808,0,0,0,0,0,1.838043,0,0,6.65275,2.792422,-18.37232,0,6.65275,2.293978,1,0,0,0,0,0,10,0,0,95.59195,0.1366613,0.08916672,4.508469,2.083926,0.378989,0,0,0,0,-95.49153,0,0,72,0,0,66,2,229
159.61,22.92311,-151.9205,154.8858,115.7252,1,0,0,0,0,-0.5981331,0.7936782,-6.666635,0,-0.5981331,0.9864523,0.2784865,0,0,0,0,0,1.660954,0,0,6.65275,2.758415,-16.6144,0,6.65275,2.792422,1,0,0,0,0,0,10,0,0,95.7044,-0.4617433,0.09367518,4.508469,0.4483037,0.3648351,0,0,0,0,-95.49153,0,0,72,0,0,67,2,229
158.658,-19.63489,-163.4464,159.61,22.92311,1,0,0,0,0,-0.4333687,0.7144778,-6.9423,0,-0.4333687,0.7936782,0.2470459,0,0,0,0,0,1.350204,0,0,7.68712,2.711871,-13.45154,0,7.68712,2.758415,1,0,0,0,0,0,10,0,0,95.81808,-0.6709697,0.1021649,3.981277,-1.514703,0.3198173,0,0,0,0,-96.01872,0,0,72,0,0,68,2,229
151.3943,-87.95022,-164.8478,158.658,-19.63489,-1,0,0,0,0,-0.09557724,0.5466993,-7.72998,0,-0.09557724,0.7144778,0.2555296,0,0,0,0,0,1.300592,0,0,7.68712,2.571974,-4.280623,0,7.68712,2.711871,1,0,0,0,0,0,10,0,0,96.13241,-1.002419,0.1057776,3.61264,-2.201049,0.2938455,0,0,0,0,-96.38736,0,0,72,0,0,69,2,229
138.4939,-139.2262,-162.5993,151.3943,-87.95022,-1,0,0,0,0,0.1415443,0.3366086,-7.306834,0,-0.09557724,0.5466993,0.2702788,0,0,0,0,0,0.9886921,0,0,8.666437,2.325028,7.151334,0,7.68712,2.571974,1,0,0,0,0,0,10,0,0,96.51401,-1.136263,0.1093902,3.61264,-3.288336,0.2850522,0,0,0,0,-96.17007,0,0,72,0,0,70,2,229
125.0546,-110.1646,-154.0476,138.4939,-139.2262,-1,0,0,0,0,0.06919479,0.1838552,-4.926756,0,0.1415443,0.3366086,0.2471784,0,0,0,0,0,0.6666616,0,0,8.721493,2.231028,18.23773,0,8.666437,2.325028,0.2620772,0,0,0,0,0,10,0,0,96.89904,-1.153245,0.1132201,3.829926,-3.727397,0.2966944,0,0,0,0,-96.91455,0,0,72,0,0,71,2,229
121.1104,-21.44223,-129.8287,125.0546,-110.1646,-1,0,0,0,0,-0.3409576,0.1103307,-3.676058,0,-0.3409576,0.1838552,0.1639447,0,0,0,0,0,0.2432501,0,0,8.776546,2.242137,26.25367,0,8.776546,2.231028,-0.7578715,0,0,0,0,0,10,0,0,97.27467,-1.161465,0.1190152,2.709625,-3.783104,0.235745,0,0,0,0,-97.29037,0,0,72,0,0,72,2,229
125.6487,55.22125,-120.0388,121.1104,-21.44223,-1,0,0,0,0,-0.003166199,-0.188491,-5.343138,0,-0.003166199,0.1103307,0.1202877,0,0,0,0,0,0.2041897,0,0,8.776546,1.985417,34.36937,0,8.776546,2.242137,-1,0,0,0,0,0,10,0,0,97.78843,-1.0889,0.1213562,2.340981,-3.81007,0.2160245,0,0,0,0,-97.65902,0,0,72,0,0,73,2,229
131.668,79.97191,-118.3731,125.6487,55.22125,1,0,0,0,0,0.08041763,-0.303848,-8.048651,0,-0.003166199,-0.188491,0.1547464,0,0,0,0,0,-0.3513198,0,0,8.698318,1.905012,35.23342,0,8.776546,1.985417,-1,0,0,0,0,0,10,0,0,98.0116,-0.6743534,0.1236972,2.340981,-3.572028,0.2210816,0,0,0,0,-98.26059,0,0,72,0,0,74,2,229
143.3716,110.0756,-123.6418,131.668,79.97191,1,0,0,0,0,0.08041763,-0.4980455,-13.4667,0,0.08041763,-0.303848,0.2327182,0,0,0,0,0,-0.5416128,0,0,8.698318,1.777193,29.5975,0,8.698318,1.905012,-1,0,0,0,0,0,10,0,0,98.13448,-0.08844234,0.1254366,1.73941,-2.212149,0.2028386,0,0,0,0,-98.26059,0,0,72,0,0,75,2,229
148.4584,44.22361,-141.5125,143.3716,110.0756,1,0,0,0,0,-0.09260941,-0.7028411,-15.08236,0,-0.09260941,-0.4980455,0.3894863,0,0,0,0,0,-0.9526306,0,0,9.732687,1.372618,24.44997,0,9.732687,1.777193,-1,0,0,0,0,0,10,0,0,98.05908,0.4029056,0.1287568,1.580856,-0.2901263,0.2187328,0,0,0,0,-98.41914,0,0,72,0,0,76,2,229
148.344,-19.698,-150.8954,148.4584,44.22361,1,0,0,0,0,-0.09260941,-0.8823902,-14.05324,0,-0.09260941,-0.7028411,0.4262193,0,0,0,0,0,-1.333346,0,0,9.732687,0.9935337,20.1926,0,9.732687,1.372618,-1,0,0,0,0,0,10,0,0,97.84081,0.8889741,0.1303377,1.580856,1.321692,0.2387045,0,0,0,0,-98.41914,0,0,72,0,0,77,2,229
144.9337,-51.47803,-154.2514,148.344,-19.698,-1,0,0,0,0,-0.7681923,-1.078843,-11.59171,0,-0.09260941,-0.8823902,0.3839695,0,0,0,0,0,-1.667127,0,0,9.732687,0.732025,15.90628,0,9.732687,0.9935337,-0.9377192,0,0,0,0,0,10,0,0,97.5101,1.189328,0.1319185,1.580856,2.916191,0.2584786,0,0,0,0,-97.68186,0,0,72,0,0,78,2,229
139.0331,-76.39594,-152.0284,144.9337,-51.47803,-1,0,0,0,0,-0.3580437,-1.278481,-8.100265,0,-0.7681923,-1.078843,0.290288,0,0,0,0,0,-2.227576,0,0,9.677637,0.5171793,11.07824,0,9.732687,0.732025,-0.5433775,0,0,0,0,0,10,0,0,97.1155,1.326238,0.1342367,2.318138,3.90147,0.3155458,0,0,0,0,-97.30603,0,0,72,0,0,79,2,229
133.0867,-48.24617,-139.7429,139.0331,-76.39594,-1,0,0,0,0,-0.6958389,-1.33574,-4.24548,0,-0.6958389,-1.278481,0.1742229,0,0,0,0,0,-2.577794,0,0,9.677637,0.5674046,4.67652,0,9.677637,0.5171793,-0.09919794,0,0,0,0,0,10,0,0,96.67104,1.480302,0.1399933,3.062607,4.35059,0.3703579,0,0,0,0,-96.93739,0,0,72,0,0,80,2,229
134.5374,34.44268,-133.225,133.0867,-48.24617,-1,0,0,0,0,-0.6234818,-1.148241,-1.089576,0,-0.6234818,-1.33574,0.04904674,0,0,0,0,0,-2.663327,0,0,9.622583,0.9146392,-3.866106,0,9.622583,0.5674046,0.4897602,0,0,0,0,0,10,0,0,95.95632,2.167495,0.1438003,3.807068,4.855982,0.4238622,0,0,0,0,-96.19293,0,0,72,0,0,81,2,229
142.4678,97.06363,-129.1565,134.5374,34.44268,1,0,0,0,0,-0.5511246,-0.9915182,2.420131,0,-0.6234818,-1.148241,-0.0379809,0,0,0,0,0,-2.314766,0,0,9.567528,1.276101,-11.23672,0,9.622583,0.9146392,1,0,0,0,0,0,10,0,0,95.29332,1.791297,0.1476074,3.807068,7.110252,0.4533904,0,0,0,0,-95.44846,0,0,72,0,0,82,2,229
147.9787,117.3809,-132.4652,142.4678,97.06363,1,0,0,0,0,-0.888916,-1.011181,4.679769,0,-0.5511246,-0.9915182,-0.1371018,0,0,0,0,0,-2.002507,0,0,9.567528,1.231553,-14.13962,0,9.567528,1.276101,1,0,0,0,0,0,10,0,0,94.73022,3.456756,0.1521589,4.551544,5.876172,0.4877927,0,0,0,0,-95.07982,0,0,72,0,0,83,2,229
158.5658,92.73338,-152.0171,147.9787,117.3809,1,0,0,0,0,-0.9001503,-0.6977118,8.53975,0,-0.9001503,-1.011181,-0.21131,0,0,0,0,0,-2.139928,0,0,9.590704,1.578212,-13.84715,0,9.590704,1.231553,1,0,0,0,0,0,10,0,0,94.1181,1.405367,0.1633454,6.266235,11.33954,0.6625001,0,0,0,0,-93.73376,0,0,72,0,0,84,2,229
161.9345,17.43091,-161.4272,158.5658,92.73338,1,0,0,0,0,-0.9001503,-0.5929572,10.14779,0,-0.9001503,-0.6977118,-0.3130051,0,0,0,0,0,-1.55719,0,0,9.590704,1.44828,-10.45932,0,9.590704,1.578212,1,0,0,0,0,0,10,0,0,93.38155,1.606545,0.1696116,6.266235,4.610165,0.5919842,0,0,0,0,-93.73376,0,0,72,0,0,85,2,229
158.9139,-43.89035,-168.8586,161.9345,17.43091,1,0,0,0,0,-1.00082,-0.2647797,9.851518,0,-0.9001503,-0.5929572,-0.3568173,0,0,0,0,0,-1.362451,0,0,10.57002,1.394615,-4.456273,0,9.590704,1.44828,1,0,0,0,0,0,10,0,0,92.98937,0.3904723,0.1758778,6.266235,5.270109,0.6057804,0,0,0,0,-93.14785,0,0,72,0,0,86,2,229
155.5002,-67.64391,-169.4843,158.9139,-43.89035,-1,0,0,0,0,-1.084408,-0.08992357,9.328398,0,-1.00082,-0.2647797,-0.3296224,0,0,0,0,0,-0.7814624,0,0,10.64825,1.332347,-0.8355802,0,10.57002,1.394615,1,0,0,0,0,0,10,0,0,93.05308,-0.3814616,0.18273,6.85215,1.280905,0.6016905,0,0,0,0,-92.54627,0,0,72,0,0,87,2,229
145.7222,-104.4109,-158.099,155.5002,-67.64391,-1,0,0,0,0,-1.084408,0.1605268,8.218129,0,-1.084408,-0.08992357,-0.3040777,0,0,0,0,0,-0.4805618,0,0,10.64825,1.020978,6.763404,0,10.64825,1.332347,0.9968734,0,0,0,0,0,10,0,0,93.53407,-1.751787,0.1976374,7.453728,-1.251347,0.623204,0,0,0,0,-92.54627,0,0,72,0,0,88,2,229
135.3883,-80.2692,-152.1311,145.7222,-104.4109,-1,0,0,0,0,-1.00082,0.2573507,7.294402,0,-1.00082,0.1605268,-0.2544774,0,0,0,0,0,0.009182364,0,0,10.57002,0.7281588,14.53973,0,10.57002,1.020978,0.2977668,0,0,0,0,0,10,0,0,94.29092,-2.433833,0.2044896,6.85215,-5.746563,0.5432667,0,0,0,0,-93.14785,0,0,72,0,0,89,2,229
132.474,-2.303093,-142.6611,135.3883,-80.2692,-1,0,0,0,0,-1.073174,0.2824073,5.050725,0,-1.00082,0.2573507,-0.2202619,0,0,0,0,0,0.189178,0,0,10.62507,0.5417681,22.4853,0,10.57002,0.7281588,-0.4176553,0,0,0,0,0,10,0,0,95.16827,-2.727193,0.2113417,6.85215,-7.983947,0.5245903,0,0,0,0,-93.89232,0,0,72,0,0,90,2,229
135.1843,53.39783,-135.158,132.474,-2.303093,-1,0,0,0,0,-1.145535,0.25311,0.9205983,0,-1.073174,0.2824073,-0.1499122,0,0,0,0,0,0.2148481,0,0,10.68013,0.4892212,29.30519,0,10.62507,0.5417681,-1,0,0,0,0,0,10,0,0,95.95727,-2.249601,0.2174494,6.107681,-8.946285,0.4757866,0,0,0,0,-94.6368,0,0,72,0,0,91,2,229
141.3006,90.67783,-139.1689,135.1843,53.39783,1,0,0,0,0,-0.8800964,0.1584398,-5.083591,0,-0.8800964,0.25311,-0.02421491,0,0,0,0,0,0.2161836,0,0,10.73518,0.377757,32.61764,0,10.73518,0.4892212,-1,0,0,0,0,0,10,0,0,96.5828,-1.793372,0.2270627,4.250099,-7.379592,0.3936599,0,0,0,0,-95.7499,0,0,72,0,0,92,2,229
149.5787,110.599,-143.1528,141.3006,90.67783,1,0,0,0,0,-1.134304,0.025666,-12.23903,0,-1.134304,0.1584398,0.1565598,0,0,0,0,0,-0.03327432,0,0,10.65695,0.2340642,31.17026,0,10.65695,0.377757,-1,0,0,0,0,0,10,0,0,97.04063,-1.269469,0.2310799,4.017166,-5.882978,0.4010081,0,0,0,0,-95.98283,0,0,72,0,0,93,2,229
154.8299,54.19971,-150.5153,149.5787,110.599,1,0,0,0,0,-1.206657,-0.09005848,-16.95753,0,-1.134304,0.025666,0.3707269,0,0,0,0,0,-0.2801008,0,0,10.71201,-0.1218911,27.84113,0,10.65695,0.2340642,-1,0,0,0,0,0,10,0,0,97.24642,-0.462833,0.235097,4.017166,-4.164366,0.4246346,0,0,0,0,-96.7273,0,0,72,0,0,94,2,229
155.7081,7.453655,-159.6607,154.8299,54.19971,1,0,0,0,0,-1.206657,-0.2660511,-18.77686,0,-1.206657,-0.09005848,0.5096829,0,0,0,0,0,-0.5161427,0,0,10.71201,-0.5156835,24.46716,0,10.71201,-0.1218911,-1,0,0,0,0,0,10,0,0,97.26797,0.04280921,0.2383697,3.272697,-1.518278,0.4141681,0,0,0,0,-96.7273,0,0,72,0,0,95,2,229
153.3551,-24.57834,-163.5021,155.7081,7.453655,-1,0,0,0,0,-0.868866,-0.6016232,-18.78355,0,-0.868866,-0.2660511,0.55594,0,0,0,0,0,-0.7456912,0,0,10.71201,-0.96349,19.00758,0,10.71201,-0.5156835,-1,0,0,0,0,0,10,0,0,97.12262,0.4331805,0.2445465,2.90406,0.1404313,0.4175174,0,0,0,0,-97.09594,0,0,72,0,0,96,2,229
150.5323,-36.86526,-163.3949,153.3551,-24.57834,-1,0,0,0,0,-1.206657,-0.8212941,-17.53805,0,-1.206657,-0.6016232,0.5368087,0,0,0,0,0,-1.467142,0,0,10.71201,-1.176771,14.94496,0,10.71201,-0.96349,-0.8286971,0,0,0,0,0,10,0,0,96.95964,0.6153671,0.2478192,3.272697,1.421005,0.4571547,0,0,0,0,-96.7273,0,0,72,0,0,97,2,229
148.6703,-9.361216,-160.3416,150.5323,-36.86526,-1,0,0,0,0,-1.544453,-1.020799,-15.91762,0,-1.206657,-0.8212941,0.4855388,0,0,0,0,0,-1.87551,0,0,10.71201,-1.184975,9.854136,0,10.71201,-1.176771,-0.454936,0,0,0,0,0,10,0,0,96.77083,0.6780915,0.2510919,3.272697,2.01865,0.4672466,0,0,0,0,-96.35866,0,0,72,0,0,98,2,229
152.6332,58.25013,-156.2676,148.6703,-9.361216,-1,0,0,0,0,-1.544453,-1.196708,-14.58206,0,-1.544453,-1.020799,0.4207819,0,0,0,0,0,-2.344012,0,0,10.71201,-0.9529601,1.578927,0,10.71201,-1.184975,0.01341953,0,0,0,0,0,10,0,0,96.58706,0.5915676,0.2547332,3.641342,2.224411,0.4949894,0,0,0,0,-96.35866,0,0,72,0,0,99,2,229
162.6327,120.7437,-159.3295,152.6332,58.25013,1,0,0,0,0,-1.544453,-1.371878,-12.2407,0,-1.544453,-1.196708,0.3692419,0,0,0,0,0,-2.671027,0,0,10.71201,-0.6194111,-9.100416,0,10.71201,-0.9529601,0.7747387,0,0,0,0,0,10,0,0,96.43462,0.4820152,0.2620159,3.641342,1.940578,0.4990335,0,0,0,0,-96.35866,0,0,72,0,0,100,2,229
176.4804,157.5657,-163.4461,162.6327,120.7437,1,0,0,0,0,-1.544453,-1.565156,-7.476254,0,-1.544453,-1.371878,0.2865649,0,0,0,0,0,-2.996668,0,0,10.71201,-0.273729,-19.14479,0,10.71201,-0.6194111,1,0,0,0,0,0,10,0,0,96.30115,0.3998147,0.2656572,3.641342,1.581203,0.4985743,0,0,0,0,-96.35866,0,0,72,0,0,101,2,229
190.2528,147.4683,-173.4574,176.4804,157.5657,1,0,0,0,0,-1.954601,-1.711884,-0.815466,0,-1.544453,-1.565156,0.1277288,0,0,0,0,0,-3.355971,0,0,10.76706,-0.04400432,-25.01385,0,10.71201,-0.273729,1,0,0,0,0,0,10,0,0,96.19495,0.3068189,0.2692986,3.641342,1.311552,0.499139,0,0,0,0,-96.7345,0,0,72,0,0,102,2,229
199.3369,94.47073,-187.1207,-169.7472,147.4683,-1,0,0,0,0,-1.882244,-1.741298,4.949791,0,-1.954601,-1.711884,-0.09088596,0,0,0,0,0,-3.747271,0,0,10.71201,0.08688361,-24.91452,0,10.76706,-0.04400432,1,0,0,0,0,0,10,0,0,96.12614,0.1949461,0.2725641,3.265503,1.006489,0.4767454,0,0,0,0,-95.99002,0,0,72,0,0,103,2,229
203.7938,47.57383,-139.8477,-160.6631,94.47073,-1,0,0,0,0,-1.882244,-1.713113,8.935135,0,-1.882244,-1.741298,-0.2706558,0,0,0,0,0,-3.781041,0,0,10.71201,0.2532494,-20.88441,0,10.71201,0.08688361,1,0,0,0,0,0,10,0,0,96.08591,0.1175693,0.2805841,4.009979,0.6395012,0.5245096,0,0,0,0,-95.99002,0,0,72,0,0,104,2,229
211.2809,93.30276,-117.9891,-156.2062,47.57383,-1,0,0,0,0,-2.292393,-1.863959,14.44704,0,-2.292393,-1.713113,-0.3962517,0,0,0,0,0,-3.847179,0,0,10.76706,0.7352729,-11.40038,0,10.76706,0.2532494,1,0,0,0,0,0,10,0,0,96.02335,0.2022122,0.2842182,3.634148,0.3856743,0.5030698,0,0,0,0,-96.36585,0,0,72,0,0,105,2,229
223.0617,140.4733,-94.77283,-148.7191,93.30276,-1,0,0,0,0,-2.292393,-1.92343,18.2522,0,-2.292393,-1.863959,-0.5758139,0,0,0,0,0,-4.127601,0,0,10.76706,1.097368,-2.754159,0,10.76706,0.7352729,1,0,0,0,0,0,10,0,0,96.0016,0.0473976,0.2878524,3.634148,0.6633369,0.5098721,0,0,0,0,-96.36585,0,0,72,0,0,106,2,229
239.2731,178.0453,-78.50915,-136.9383,140.4733,-1,0,0,0,0,-2.967979,-1.857884,20.04223,0,-2.292393,-1.92343,-0.6972012,0,0,0,0,0,-4.238158,0,0,10.76706,1.368531,8.016854,0,10.76706,1.097368,1,0,0,0,0,0,10,0,0,96.00589,-0.01931348,0.2914865,3.634148,0.1554831,0.5077116,0,0,0,0,-95.62857,0,0,72,0,0,107,2,229
258.5406,210.3885,-65.35709,-120.7269,178.0453,-1,0,0,0,0,-2.967979,-1.65998,18.20996,0,-2.967979,-1.857884,-0.7549672,0,0,0,0,0,-4.311553,0,0,10.76706,1.62187,19.80945,0,10.76706,1.368531,0.1824494,0,0,0,0,0,10,0,0,96.03162,-0.09550985,0.3002294,4.371429,-0.06335595,0.5574646,0,0,0,0,-95.62857,0,0,72,0,0,108,2,229
290.2003,257.2386,-62.02311,-101.4594,210.3885,1,0,0,0,0,-3.222187,-1.169869,6.335543,0,-3.222187,-1.65998,-0.6890392,0,0,0,0,0,-4.017116,0,0,10.68883,2.018729,34.86137,0,10.68883,1.62187,-0.9024698,0,0,0,0,0,10,0,0,96.08257,-0.06984455,0.3043679,4.138496,-0.3133105,0.5450057,0,0,0,0,-95.8615,0,0,72,0,0,109,2,229
310.9792,287.6181,-63.4858,-69.79968,257.2386,1,0,0,0,0,-3.222187,-0.7615961,-6.525455,0,-3.222187,-1.169869,-0.2926878,0,0,0,0,0,-3.105999,0,0,10.68883,2.342639,38.35429,0,10.68883,2.018729,-1,0,0,0,0,0,10,0,0,96.11002,-0.06952742,0.3085064,4.138496,-0.2291181,0.5501048,0,0,0,0,-95.8615,0,0,72,0,0,110,2,229
331.4497,282.5471,-71.94214,-49.02084,287.6181,1,0,0,0,0,-3.222187,-0.3953726,-19.70193,0,-3.222187,-0.7615961,0.1295315,0,0,0,0,0,-2.347019,0,0,10.68883,2.736323,35.06664,0,10.68883,2.342639,-1,0,0,0,0,0,10,0,0,96.09482,0.1484363,0.3126449,4.138496,-0.2280778,0.5542552,0,0,0,0,-95.8615,0,0,72,0,0,111,2,229
358.6193,231.4749,-96.85722,-28.55026,282.5471,1,0,0,0,0,-3.222187,0.01314854,-32.60662,0,-3.222187,-0.3953726,0.5591075,0,0,0,0,0,-1.66621,0,0,10.68883,3.413321,21.14089,0,10.68883,2.736323,-1,0,0,0,0,0,10,0,0,95.94592,0.5467941,0.3209219,4.138496,0.4869305,0.5706905,0,0,0,0,-95.8615,0,0,72,0,0,112,2,229
34.21978,194.0968,-108.2335,-1.380737,231.4749,1,0,0,0,0,-3.141006,0.5391829,-38.60315,0,-3.141006,0.01314854,0.9834226,0,0,0,0,0,-0.8833078,0,0,11.80143,4.149263,-7.443444,0,11.80143,3.413321,-1,0,0,0,0,0,10,0,0,95.61457,0.8340781,0.3251348,4.212883,1.793703,0.5942032,0,0,0,0,-95.78712,0,0,72,0,0,113,2,229
57.15177,165.2969,-116.8338,34.21978,194.0968,1,0,0,0,0,-3.141006,1.074728,-34.90409,0,-3.141006,0.5391829,1,0,0,0,0,0,0.09459013,0,0,11.80143,4.628849,-28.64568,0,11.80143,4.149263,1,0,0,0,0,0,10,0,0,95.32468,0.89588,0.3293477,4.212883,2.73611,0.6091689,0,0,0,0,-95.78712,0,0,72,0,0,114,2,229
72.22279,132.4259,-124.9478,57.15177,165.2969,1,0,0,0,0,-3.158096,1.728535,-26.98096,0,-3.141006,1.074728,1,0,0,0,0,0,1.090169,0,0,12.70252,5.016815,-44.16354,0,11.80143,4.628849,1,0,0,0,0,0,10,0,0,95.01243,0.9833297,0.3335606,4.212883,2.938845,0.615695,0,0,0,0,-95.80277,0,0,72,0,0,115,2,229
80.16084,95.54774,-137.2301,72.22279,132.4259,1,0,0,0,0,-3.258766,2.314168,-18.28253,0,-3.258766,1.728535,0.9077302,0,0,0,0,0,2.271563,0,0,13.68184,5.379436,-51.10947,0,13.68184,5.016815,1,0,0,0,0,0,10,0,0,94.6732,1.04521,0.3425409,4.783142,3.225715,0.6615995,0,0,0,0,-95.21686,0,0,72,0,0,116,2,229
82.37103,68.99278,-141.8536,80.16084,95.54774,1,0,0,0,0,-2.77626,2.716793,-13.11089,0,-2.77626,2.314168,0.675249,0,0,0,0,0,3.499699,0,0,13.57173,5.569191,-50.95,0,13.57173,5.379436,1,0,0,0,0,0,10,0,0,94.42686,1.099891,0.3484444,5.903442,3.428708,0.7359281,0,0,0,0,-94.09656,0,0,72,0,0,117,2,229
81.73438,25.25586,-143.6729,82.37103,68.99278,-1,0,0,0,0,-2.77626,3.460068,-6.776843,0,-2.77626,2.716793,0.5381312,0,0,0,0,0,4.248178,0,0,13.57173,5.813072,-45.5365,0,13.57173,5.569191,1,0,0,0,0,0,10,0,0,94.05827,0.9704255,0.3543479,5.903442,3.608082,0.7438782,0,0,0,0,-94.09656,0,0,72,0,0,118,2,229
78.60383,-6.554718,-143.4744,81.73438,25.25586,-1,0,0,0,0,-2.103077,4.160186,-3.413629,0,-2.77626,3.460068,0.3846099,0,0,0,0,0,5.629928,0,0,14.76256,5.956564,-39.19353,0,13.57173,5.813072,1,0,0,0,0,0,10,0,0,93.89947,0.5329528,0.3602513,5.903442,3.183384,0.7449358,0,0,0,0,-94.15788,0,0,72,0,0,119,2,229
74.8064,40.65499,-132.9359,78.60383,-6.554718,-1,0,0,0,0,-1.594666,5.347272,3.95298,0,-1.594666,4.160186,0.3267284,0,0,0,0,0,7.272928,0,0,14.91902,5.982394,-28.4799,0,14.91902,5.956564,1,0,0,0,0,0,10,0,0,93.86733,-0.1004009,0.3724014,6.307999,1.748299,0.7645845,0,0,0,0,-93.692,0,0,72,0,0,120,2,229
77.49826,87.47019,-127.0156,74.8064,40.65499,-1,0,0,0,0,-1.201603,6.067246,12.44059,0,-1.201603,5.347272,0.1748504,0,0,0,0,0,9.593315,0,0,15.76505,5.832216,-21.10969,0,15.76505,5.982394,1,0,0,0,0,0,10,0,0,94.01009,-0.6804421,0.3790696,6.668167,-0.329355,0.7688001,0,0,0,0,-93.33183,0,0,72,0,0,121,2,229
84.53762,121.463,-125.3194,77.49826,87.47019,1,0,0,0,0,-0.8638115,6.67565,22.19549,0,-1.201603,6.067246,-0.07565825,0,0,0,0,0,10,0,0,15.76505,5.430048,-11.9138,0,15.76505,5.832216,1,0,0,0,0,0,10,0,0,94.38148,-1.558667,0.3857378,6.668167,-2.232122,0.7537578,0,0,0,0,-93.70047,0,0,72,0,0,122,2,229
104.9459,154.682,-127.8384,84.53762,121.463,1,0,0,0,0,0.07480621,7.25199,35.1233,0,-0.8638115,6.67565,-0.3780602,0,0,0,0,0,10,0,0,17.01093,4.177941,9.007809,0,15.76505,5.430048,1,0,0,0,0,0,10,0,0,95.46669,-2.994651,0.3920373,6.29953,-5.113051,0.7054327,0,0,0,0,-94.87491,0,0,72,0,0,123,2,229
121.3749,118.0989,-143.8222,104.9459,154.682,1,0,0,0,0,0.7333069,7.226888,39.68012,0,0.7333069,7.25199,-0.7788222,0,0,0,0,0,10,0,0,17.91202,2.840379,26.88835,0,17.91202,4.177941,0.0912816,0,0,0,0,0,10,0,0,96.49979,-3.665382,0.4015346,4.372162,-9.823654,0.5474479,0,0,0,0,-95.62784,0,0,72,0,0,124,2,229
135.3801,80.03434,-152.934,121.3749,118.0989,1,0,0,0,0,1.492477,7.078912,41.3756,0,1.492477,7.226888,-0.9200836,0,0,0,0,0,10,0,0,17.83379,1.432972,44.18161,0,17.83379,2.840379,-1,0,0,0,0,0,10,0,0,97.60912,-3.841225,0.4045679,3.03331,-12.02392,0.4463705,0,0,0,0,-96.96669,0,0,72,0,0,125,2,229
145.4131,36.55878,-159.6624,135.3801,80.03434,1,0,0,0,0,2.168064,6.8609,42.22403,0,1.492477,7.078912,-0.9726436,0,0,0,0,0,10,0,0,17.83379,0.6005048,57.78912,0,17.83379,1.432972,-1,0,0,0,0,0,10,0,0,98.59498,-3.252693,0.4076012,3.03331,-12.60076,0.4428222,0,0,0,0,-97.70398,0,0,72,0,0,126,2,229
152.4932,-32.35176,-163.8789,145.4131,36.55878,1,0,0,0,0,2.843651,6.548556,46.28622,0,2.168064,6.8609,-0.998945,0,0,0,0,0,10,0,0,17.83379,-0.3536415,69.35245,0,17.83379,0.6005048,-1,0,0,0,0,0,10,0,0,99.67291,-2.021457,0.4098972,2.296021,-10.67013,0.4236391,0,0,0,0,-98.44125,0,0,72,0,0,127,2,229
152.61,-73.17313,-161.0193,152.4932,-32.35176,-1,0,0,0,0,3.44688,6.359457,52.01468,0,3.44688,6.548556,-1,0,0,0,0,0,10,0,0,17.88885,-0.9049304,70.51508,0,17.88885,-0.3536415,-1,0,0,0,0,0,10,0,0,100.0532,-1.193713,0.411533,0.07699585,-6.631186,0.3404146,0,0,0,0,-99.923,0,0,72,0,0,128,2,229
143.5954,-123.0913,-157.4558,152.61,-73.17313,-1,0,0,0,0,4.194824,6.090047,64.44441,0,4.194824,6.359457,-1,0,0,0,0,0,10,0,0,17.83379,-1.541968,61.05703,0,17.83379,-0.9049304,-1,0,0,0,0,0,10,0,0,100.2006,0.009048378,0.4116172,0.08418274,-3.915855,0.3719049,0,0,0,0,-99.91582,0,0,72,0,0,129,2,229
133.8057,-17.30162,-150.794,143.5954,-123.0913,-1,0,0,0,0,4.194824,6.338617,68.83366,0,4.194824,6.090047,-1,0,0,0,0,0,10,0,0,17.83379,-1.335421,46.30673,0,17.83379,-1.541968,-1,0,0,0,0,0,10,0,0,99.92765,1.045567,0.4117014,0.08418274,0.0296823,0.4170077,0,0,0,0,-99.91582,0,0,72,0,0,130,2,229
135.1078,35.71603,-139.6579,133.8057,-17.30162,-1,0,0,0,0,5.534767,6.502976,66.85934,0,4.194824,6.338617,-1,0,0,0,0,0,10,0,0,17.85697,-1.339028,41.65429,0,17.83379,-1.335421,-1,0,0,0,0,0,10,0,0,99.55546,1.667603,0.4117855,0.08418274,3.429878,0.4558881,0,0,0,0,-100.0443,0,0,72,0,0,131,2,229
145.2658,100.9271,-140.2758,135.1078,35.71603,1,0,0,0,0,5.944916,6.772949,58.93586,0,5.944916,6.502976,-1,0,0,0,0,0,10,0,0,17.80191,-1.428792,40.30223,0,17.80191,-1.339028,-1,0,0,0,0,0,10,0,0,98.76653,2.474719,0.4120727,0.3314896,5.470405,0.4940512,0,0,0,0,-99.66851,0,0,72,0,0,132,2,229
159.157,164.8095,-142.6367,145.2658,100.9271,1,0,0,0,0,6.609272,7.200263,44.5933,0,6.609272,6.772949,-1,0,0,0,0,0,10,0,0,17.82509,-1.716066,39.31,0,17.82509,-1.428792,-1,0,0,0,0,0,10,0,0,97.73739,3.017578,0.413013,0.9402618,8.118068,0.561125,0,0,0,0,-99.05974,0,0,72,0,0,133,2,229
164.2846,104.4243,-151.3148,159.157,164.8095,1,0,0,0,0,7.345982,7.473806,34.42588,0,6.609272,7.200263,-1,0,0,0,0,0,10,0,0,17.79321,-2.451064,34.69943,0,17.82509,-1.716066,-1,0,0,0,0,0,10,0,0,96.89608,3.260887,0.4139532,0.9402618,9.898864,0.5823841,0,0,0,0,-97.70651,0,0,72,0,0,134,2,229
165.4119,81.8053,-165.9421,164.2846,104.4243,1,0,0,0,0,8.183365,7.773109,29.59423,0,7.345982,7.473806,-0.7572023,0,0,0,0,0,10,0,0,16.78201,-2.942622,31.37432,0,17.79321,-2.451064,-1,0,0,0,0,0,10,0,0,96.45135,3.122262,0.4162467,2.293488,10.69701,0.6736383,0,0,0,0,-96.93919,0,0,72,0,0,135,2,229
166.3109,53.42048,-180.3661,165.4119,81.8053,1,0,0,0,0,8.183365,8.406392,20.0414,0,8.183365,7.773109,-0.6074212,0,0,0,0,0,10,0,0,16.78201,-3.864092,23.83113,0,16.78201,-2.942622,-1,0,0,0,0,0,10,0,0,95.64738,2.45639,0.4223683,3.060806,10.24227,0.7198508,0,0,0,0,-96.93919,0,0,72,0,0,136,2,229
166.8775,41.17685,-185.6576,166.3109,53.42048,1,0,0,0,0,9.356136,9.034963,10.20271,0,9.356136,8.406392,-0.3112833,0,0,0,0,0,10,0,0,16.96164,-4.761268,15.61794,0,16.96164,-3.864092,-1,0,0,0,0,0,10,0,0,95.23578,0.8703905,0.4265038,4.135437,8.057942,0.762477,0,0,0,0,-95.86456,0,0,72,0,0,137,2,229
168.3733,38.35638,-188.0969,166.8775,41.17685,1,0,0,0,0,9.939316,9.271059,0.2461516,0,9.356136,9.034963,-0.006283897,0,0,0,0,0,10,0,0,15.87222,-5.311916,6.753144,0,16.96164,-4.761268,-0.5168504,0,0,0,0,0,10,0,0,95.42847,-1.162977,0.4306392,4.135437,2.855229,0.7072495,0,0,0,0,-95.33018,0,0,72,0,0,138,2,229
171.9169,44.73595,-189.3077,168.3733,38.35638,1,0,0,0,0,10.6149,9.000636,-8.936953,0,9.939316,9.271059,0.3023693,0,0,0,0,0,10,0,0,15.87222,-5.409461,-3.086568,0,15.87222,-5.311916,0.09099229,0,0,0,0,0,7.74219,0,0,96.34444,-3.429042,0.435309,4.669815,-3.815029,0.6673453,0,0,0,0,-96.06747,0,0,72,0,0,139,2,229
178.2234,58.64943,-192.1006,171.9169,44.73595,1,0,0,0,0,11.71772,8.31665,-15.9324,0,11.71772,9.000636,0.5870456,0,0,0,0,0,10,0,0,14.91608,-5.125091,-13.21481,0,14.91608,-5.409461,0.9707925,0,0,0,0,0,6.091547,0,0,97.8568,-5.115434,0.4428283,3.586731,-11.24863,0.5261344,0,0,0,0,-96.41327,0,0,72,0,0,140,2,229
190.9023,86.93047,-193.7135,178.2234,58.64943,1,0,0,0,0,12.65875,7.055529,-19.79682,0,12.65875,8.31665,0.8039044,0,0,0,0,0,10,0,0,14.97113,-4.543743,-23.98746,0,14.97113,-5.125091,1,0,0,0,0,0,6.97722,0,0,100.5693,-6.622658,0.4445646,1.736343,-16.78067,0.3555588,0,0,0,0,-98.26366,0,0,72,0,0,141,2,229
199.8429,105.7624,-197.1174,-169.0977,86.93047,-1,0,0,0,0,13.50391,6.600122,-18.57124,0,12.65875,7.055529,0.9237014,0,0,0,0,0,10,0,0,13.62385,-4.385496,-27.34663,0,14.97113,-4.543743,1,0,0,0,0,0,8.626096,0,0,102.2952,-6.535895,0.446301,1.736343,-21.72497,0.3008807,0,0,0,0,-100.8801,0,0,72,0,0,142,2,229
213.5057,128.7812,-168.049,-160.1571,105.7624,-1,0,0,0,0,14.19073,6.298983,-12.55847,0,13.50391,6.600122,0.8857083,0,0,0,0,0,10,0,0,13.60067,-4.305223,-27.37596,0,13.62385,-4.385496,1,0,0,0,0,0,7.13889,0,0,104.6521,-5.714608,0.4454209,-0.8800507,-21.44035,0.1488547,0,0,0,0,-102.9634,0,0,72,0,0,143,2,229
226.0949,204.1494,-126.3947,-146.4943,128.7812,-1,0,0,0,0,14.7216,6.114973,-4.768422,0,14.7216,6.298983,0.6993126,0,0,0,0,0,10,0,0,13.71078,-4.161885,-25.70694,0,13.71078,-4.305223,1,0,0,0,0,0,7.491488,0,0,105.929,-4.736068,0.437268,-5.18959,-18.7462,-0.08286391,0,0,0,0,-105.1896,0,0,72,0,0,144,2,229
245.1591,290.0572,-110.2057,-133.9051,204.1494,-1,0,0,0,0,15.16006,5.9146,7.054001,0,15.16006,6.114973,0.457821,0,0,0,0,0,10,0,0,12.73146,-4.082724,-21.513,0,12.73146,-4.161885,1,0,0,0,0,0,6.490755,0,0,106.9828,-3.554788,0.4311238,-6.14415,-15.5362,-0.1087104,0,0,0,0,-106.1441,0,0,72,0,0,145,2,229
292.7665,394.1297,-103.2933,-114.8409,290.0572,1,0,0,0,0,15.85274,5.838736,25.63615,0,15.16006,5.9146,0.09132595,0,0,0,0,0,10,0,0,11.83037,-4.395298,-1.319023,0,12.73146,-4.082724,1,0,0,0,0,0,6.715279,0,0,107.8116,-1.12772,0.4249797,-6.14415,-11.66113,-0.07064004,0,0,0,0,-106.8658,0,0,72,0,0,146,2,229
332.2876,411.9115,-106.0616,-67.23346,394.1297,1,0,0,0,0,16.86612,5.787899,26.55596,0,15.85274,5.838736,-0.4847207,0,0,0,0,0,10,0,0,11.83037,-4.451838,20.78399,0,11.83037,-4.395298,0.5384652,0,0,0,0,0,4.53386,0,0,107.9248,-0.2857216,0.4181139,-6.865784,-3.699374,-0.02924581,0,0,0,0,-107.9717,0,0,72,0,0,147,2,229
6.735418,382.7929,-142.0822,-27.71237,411.9115,1,0,0,0,0,17.20391,5.560421,16.73992,0,17.20391,5.787899,-0.5132346,0,0,0,0,0,10,0,0,11.83037,-4.01926,38.38332,0,11.83037,-4.451838,-1,0,0,0,0,0,4.373493,0,0,107.9325,-0.008795233,0.4018019,-8.340332,-0.9372812,-0.1010555,0,0,0,0,-108.3403,0,0,72,0,0,148,2,229
34.18265,319.394,-160.0125,6.735418,382.7929,1,0,0,0,0,17.37694,4.964064,2.221145,0,17.37694,5.560421,-0.2089374,0,0,0,0,0,10,0,0,10.796,-3.227365,48.15271,0,10.796,-4.01926,-1,0,0,0,0,0,4.114024,0,0,107.895,0.1381491,0.3936201,-8.181786,-0.02885188,-0.08951625,0,0,0,0,-108.1818,0,0,72,0,0,149,2,229
63.68267,207.4232,-177.1085,34.18265,319.394,1,0,0,0,0,18.12488,4.069356,-16.69502,0,17.37694,4.964064,0.2411445,0,0,0,0,0,10,0,0,10.74095,-2.507872,47.96422,0,10.796,-3.227365,-1,0,0,0,0,0,6.360076,0,0,107.6178,0.9971994,0.3854383,-8.181786,0.4531844,-0.092198,0,0,0,0,-108.1746,0,0,72,0,0,150,2,229
79.4505,87.36703,-189.8389,63.68267,207.4232,1,0,0,0,0,18.53503,3.230502,-24.09819,0,18.12488,4.069356,0.8275456,0,0,0,0,0,10,0,0,10.68589,-2.241491,38.18483,0,10.74095,-2.507872,-1,0,0,0,0,0,8.321664,0,0,106.9503,1.94612,0.3772637,-8.174606,3.271213,-0.06779526,0,0,0,0,-107.7988,0,0,72,0,0,151,2,229
83.97283,2.195629,-190.6897,79.4505,87.36703,-1,0,0,0,0,18.78924,2.527372,-23.91039,0,18.78924,3.230502,1,0,0,0,0,0,10,0,0,10.76412,-2.154713,30.4351,0,10.76412,-2.241491,-1,0,0,0,0,0,9.110502,0,0,106.0087,2.7586,0.3618991,-7.565842,6.384053,-0.01171916,0,0,0,0,-107.5658,0,0,72,0,0,152,2,229
82.8273,-39.21449,-187.0584,83.97283,2.195629,-1,0,0,0,0,19.85492,2.064757,-21.35961,0,19.85492,2.527372,1,0,0,0,0,0,10,0,0,9.56459,-2.072546,26.85557,0,9.56459,-2.154713,-1,0,0,0,0,0,7.632904,0,0,105.2821,3.103193,0.3559879,-5.911163,9.049313,0.1104229,0,0,0,0,-105.9112,0,0,72,0,0,153,2,229
82.60323,20.777,-177.0034,82.8273,-39.21449,-1,0,0,0,0,19.77133,1.774198,-16.97225,0,19.85492,2.064757,0.9590179,0,0,0,0,0,9.576456,0,0,9.642818,-1.7933,19.54878,0,9.56459,-2.072546,-1,0,0,0,0,0,7.865956,0,0,104.1169,3.139431,0.3500768,-5.911163,10.17971,0.1174096,0,0,0,0,-105.3096,0,0,72,0,0,154,2,229
93.5229,115.0598,-164.3195,82.60323,20.777,-1,0,0,0,0,20.25384,1.596222,-14.6512,0,19.77133,1.774198,0.8055163,0,0,0,0,0,9.012149,0,0,9.532711,-1.36931,6.339699,0,9.642818,-1.7933,-0.9916112,0,0,0,0,0,8.770393,0,0,103.1507,2.482337,0.3447672,-5.309586,10.29859,0.1489554,0,0,0,0,-104.1893,0,0,72,0,0,155,2,229
105.6407,161.8377,-161.1738,93.5229,115.0598,1,0,0,0,0,19.83246,1.634871,-12.00937,0,19.83246,1.596222,0.72763,0,0,0,0,0,8.698958,0,0,9.610939,-1.127653,-4.191667,0,9.610939,-1.36931,0.319703,0,0,0,0,0,9.927145,0,0,102.5502,2.345523,0.3373588,-3.219078,8.143059,0.2403133,0,0,0,0,-103.2191,0,0,72,0,0,156,2,229
120.3364,197.0706,-164.0465,105.6407,161.8377,1,0,0,0,0,20.24261,1.746825,-7.206418,0,20.24261,1.634871,0.6478599,0,0,0,0,0,8.889339,0,0,9.555887,-0.8549474,-14.61897,0,9.555887,-1.127653,1,0,0,0,0,0,10,0,0,101.958,2.260228,0.3345155,-2.843246,7.694255,0.254527,0,0,0,0,-102.8432,0,0,72,0,0,157,2,229
134.9254,174.6462,-171.814,120.3364,197.0706,1,0,0,0,0,20.65276,1.840924,-0.3216263,0,20.24261,1.746825,0.5054202,0,0,0,0,0,9.097461,0,0,9.500832,-0.6442611,-22.6974,0,9.555887,-0.8549474,1,0,0,0,0,0,10,0,0,101.3668,2.037346,0.3316723,-2.843246,7.414453,0.2484912,0,0,0,0,-102.4674,0,0,72,0,0,158,2,229
143.3218,91.69324,-183.2633,134.9254,174.6462,1,0,0,0,0,20.66744,1.92956,5.834418,0,20.65276,1.840924,0.301089,0,0,0,0,0,9.390924,0,0,9.790571,-0.6154467,-23.84865,0,9.500832,-0.6442611,1,0,0,0,0,0,10,0,0,100.8639,1.603129,0.3292049,-2.467422,6.683309,0.2598588,0,0,0,0,-101.7758,0,0,72,0,0,159,2,229
145.4041,21.43852,-195.7742,143.3218,91.69324,1,0,0,0,0,20.73979,2.089298,10.09822,0,20.73979,1.92956,0.1154912,0,0,0,0,0,9.580852,0,0,9.735516,-0.6185756,-20.06754,0,9.735516,-0.6154467,1,0,0,0,0,0,10,0,0,100.3972,1.480969,0.3263977,-1.031334,5.258903,0.3255428,0,0,0,0,-101.0313,0,0,72,0,0,160,2,229
142.2572,-33.80355,-198.1647,145.4041,21.43852,-1,0,0,0,0,21.14994,2.28606,12.77527,0,21.14994,2.089298,-0.003158253,0,0,0,0,0,9.996338,0,0,9.680462,-0.6370893,-14.18169,0,9.680462,-0.6185756,1,0,0,0,0,0,10,0,0,99.93624,1.442601,0.3257422,-0.6555023,4.85817,0.3424928,0,0,0,0,-100.6555,0,0,72,0,0,161,2,229
139.0146,-57.27646,-194.754,142.2572,-33.80355,-1,0,0,0,0,21.2223,2.436645,13.66876,0,21.14994,2.28606,-0.08603329,0,0,0,0,0,10,0,0,9.62541,-0.644514,-10.96019,0,9.680462,-0.6370893,1,0,0,0,0,0,10,0,0,99.73309,1.255455,0.3250867,-0.6555023,4.732307,0.3404012,0,0,0,0,-99.91103,0,0,72,0,0,162,2,229
132.8757,-33.29167,-186.6754,139.0146,-57.27646,-1,0,0,0,0,20.90159,2.781565,15.39164,0,21.2223,2.436645,-0.1137315,0,0,0,0,0,10,0,0,8.724321,-0.5367807,-4.300168,0,9.62541,-0.644514,1,0,0,0,0,0,10,0,0,99.319,1.061803,0.3251757,0.088974,4.118396,0.3774169,0,0,0,0,-99.52673,0,0,72,0,0,163,2,229
136.1019,51.82683,-169.8836,132.8757,-33.29167,-1,0,0,0,0,21.49359,3.176239,17.59599,0,21.49359,2.781565,-0.1671407,0,0,0,0,0,10,0,0,8.802547,-0.3464147,3.554922,0,8.802547,-0.5367807,1,0,0,0,0,0,10,0,0,99.03182,0.9956322,0.3259865,0.3375626,3.483139,0.3856487,0,0,0,0,-99.66244,0,0,72,0,0,164,2,229
146.8073,114.3707,-163.3986,136.1019,51.82683,1,0,0,0,0,21.56595,3.508979,18.35379,0,21.56595,3.176239,-0.2354756,0,0,0,0,0,10,0,0,8.747494,-0.3873445,13.33505,0,8.747494,-0.3464147,0.5929472,0,0,0,0,0,10,0,0,98.84701,0.8218082,0.3270685,1.082024,3.266072,0.4281846,0,0,0,0,-98.91798,0,0,72,0,0,165,2,229
154.2254,139.5137,-164.9155,146.8073,114.3707,1,0,0,0,0,21.90374,3.640102,17.62519,0,21.56595,3.508979,-0.2589675,0,0,0,0,0,10,0,0,8.747494,-0.4699209,18.82056,0,8.747494,-0.3873445,-0.306825,0,0,0,0,0,10,0,0,98.73071,0.7828556,0.3281506,1.082024,2.69586,0.4227605,0,0,0,0,-99.28661,0,0,72,0,0,166,2,229
168.711,117.7086,-172.6645,154.2254,139.5137,1,0,0,0,0,21.9761,3.852085,14.48325,0,21.90374,3.640102,-0.236381,0,0,0,0,0,10,0,0,8.692442,-1.000038,29.66168,0,8.747494,-0.4699209,-0.8114915,0,0,0,0,0,10,0,0,98.3684,0.8559479,0.3288639,0.7133865,2.568079,0.4002627,0,0,0,0,-98.54214,0,0,72,0,0,167,2,229
176.3909,58.84054,-190.9694,168.711,117.7086,1,0,0,0,0,21.9761,4.075992,12.72356,0,21.9761,3.852085,-0.1389807,0,0,0,0,0,10,0,0,8.692442,-1.679035,38.34837,0,8.692442,-1.000038,-1,0,0,0,0,0,9.654633,0,0,97.89149,1.152724,0.3317797,1.457855,2.807852,0.4498453,0,0,0,0,-98.54214,0,0,72,0,0,168,2,229
180.1162,19.94809,-198.5782,176.3909,58.84054,1,0,0,0,0,22.64046,4.275877,12.58807,0,22.64046,4.075992,-0.08443037,0,0,0,0,0,10,0,0,8.715616,-2.157164,41.49418,0,8.715616,-1.679035,-1,0,0,0,0,0,7.762094,0,0,97.50547,1.636965,0.3338463,2.06662,3.781396,0.4989433,0,0,0,0,-97.93338,0,0,72,0,0,169,2,229
180.9646,6.049056,-201.3329,-179.8838,19.94809,-1,0,0,0,0,23.6426,4.426144,13.06054,0,22.64046,4.275877,-0.08023017,0,0,0,0,0,10,0,0,8.73879,-2.442866,41.19897,0,8.715616,-2.157164,-1,0,0,0,0,0,6.405977,0,0,97.2674,1.770985,0.3359129,2.06662,5.369899,0.5191347,0,0,0,0,-97.69325,0,0,72,0,0,170,2,229
181.2591,-13.02144,-165.0784,-179.0354,6.049056,-1,0,0,0,0,23.6426,4.768434,14.76281,0,23.6426,4.426144,-0.09487659,0,0,0,0,0,10,0,0,8.73879,-3.008329,37.87634,0,8.73879,-2.442866,-1,0,0,0,0,0,5.62894,0,0,96.50282,1.941512,0.3382197,2.306747,5.809539,0.5406277,0,0,0,0,-97.69325,0,0,72,0,0,171,2,229
181.985,17.74831,-99.40802,-178.7409,-13.02144,-1,0,0,0,0,24.12511,5.143471,15.82917,0,24.12511,4.768434,-0.147647,0,0,0,0,0,10,0,0,8.628683,-3.391412,31.87731,0,8.628683,-3.008329,-1,0,0,0,0,0,3.866896,0,0,95.63186,1.84742,0.3439535,3.42704,6.368936,0.6188527,0,0,0,0,-96.57296,0,0,72,0,0,172,2,229
189.0518,93.14553,-70.65751,-178.015,17.74831,-1,0,0,0,0,24.21455,5.513184,12.74108,0,24.21455,5.143471,-0.1807043,0,0,0,0,0,10,0,0,7.67254,-3.531628,24.44884,0,7.67254,-3.391412,-1,0,0,0,0,0,1.40638,0,0,95.19576,1.463196,0.3481406,4.187164,6.060276,0.664373,0,0,0,0,-95.81284,0,0,72,0,0,173,2,229
202.9388,168.4733,-47.46724,-170.9482,93.14553,-1,0,0,0,0,24.6247,5.870518,6.454902,0,24.21455,5.513184,-0.08497334,0,0,0,0,0,10,0,0,7.617487,-3.602417,15.73349,0,7.67254,-3.531628,-1,0,0,0,0,0,1.008684,0,0,94.93808,0.5956545,0.3523278,4.187164,4.799868,0.6541788,0,0,0,0,-95.437,0,0,72,0,0,174,2,229
222.8385,238.0039,-33.70589,-157.0612,168.4733,-1,0,0,0,0,25.54567,5.937213,-0.7019856,0,24.6247,5.870518,0.109898,0,0,0,0,0,10,0,0,6.528063,-3.550959,5.477712,0,7.617487,-3.602417,-1,0,0,0,0,0,0.7287951,0,0,94.99269,-0.4676711,0.3568908,4.562996,1.953985,0.6484481,0,0,0,0,-95.27127,0,0,72,0,0,175,2,229
261.5673,296.1033,-32.66289,-137.1615,238.0039,1,0,0,0,0,26.13767,5.454509,-7.062037,0,26.13767,5.937213,0.3317615,0,0,0,0,0,10,0,0,6.60629,-3.612671,-13.19704,0,6.60629,-3.550959,-0.5674992,0,0,0,0,0,-0.5783463,0,0,95.58911,-1.759998,0.3662125,4.593025,-1.534148,0.6197423,0,0,0,0,-95.40697,0,0,72,0,0,176,2,229
288.7531,308.0868,-35.85015,-98.43268,296.1033,1,0,0,0,0,26.80443,4.973363,-5.365973,0,26.80443,5.454509,0.5289231,0,0,0,0,0,10,0,0,5.438637,-3.883452,-25.05331,0,5.438637,-3.612671,0.9904485,0,0,0,0,0,-2.431296,0,0,95.99876,-2.212531,0.3707384,4.525826,-5.773498,0.5719318,0,0,0,0,-95.47417,0,0,72,0,0,177,2,229
323.9064,273.9016,-47.51915,-71.24692,308.0868,1,0,0,0,0,27.48001,4.615443,3.04114,0,26.80443,4.973363,0.4763452,0,0,0,0,0,10,0,0,5.438637,-4.297249,-36.59781,0,5.438637,-3.883452,1,0,0,0,0,0,-3.199313,0,0,97.02359,-2.156193,0.3752642,4.525826,-7.257987,0.5595195,0,0,0,0,-96.21146,0,0,72,0,0,178,2,229
343.4061,235.1297,-61.74436,-36.0936,273.9016,1,0,0,0,0,27.74546,4.570275,9.309419,0,27.48001,4.615443,0.2157246,0,0,0,0,0,10,0,0,5.493692,-4.344658,-38.41183,0,5.438637,-4.297249,1,0,0,0,0,0,-4.372965,0,0,97.60476,-1.85057,0.3790528,3.788544,-7.073175,0.5219098,0,0,0,0,-97.32457,0,0,72,0,0,179,2,229
1.353628,192.8904,-85.86723,-16.5939,235.1297,1,0,0,0,0,28.25628,4.523561,14.86425,0,28.25628,4.570275,0.02140802,0,0,0,0,0,10,0,0,4.459322,-4.345312,-35.42838,0,4.459322,-4.344658,1,0,0,0,0,0,-5.914708,0,0,98.39988,-1.414904,0.3841935,2.465347,-6.070609,0.460408,0,0,0,0,-97.53465,0,0,72,0,0,180,2,229
16.80443,149.3463,-95.50661,1.353628,192.8904,1,0,0,0,0,28.52171,4.424898,18.66047,0,28.52171,4.523561,-0.1507919,0,0,0,0,0,10,0,0,4.514374,-4.310459,-28.67586,0,4.514374,-4.345312,1,0,0,0,0,0,-5.837451,0,0,98.64496,-0.945245,0.3855458,1.352234,-4.641452,0.4123821,0,0,0,0,-98.64777,0,0,72,0,0,181,2,229
28.7051,102.1175,-102.3803,16.80443,149.3463,1,0,0,0,0,29.26966,4.245989,20.09374,0,28.52171,4.424898,-0.2684747,0,0,0,0,0,10,0,0,4.459322,-4.197798,-19.72399,0,4.514374,-4.310459,1,0,0,0,0,0,-5.738599,0,0,99.05438,-0.3882338,0.386898,1.352234,-3.100782,0.4313134,0,0,0,0,-98.64058,0,0,72,0,0,182,2,229
35.80126,51.76403,-106.4056,28.7051,102.1175,1,0,0,0,0,29.62453,3.977308,19.58263,0,29.26966,4.245989,-0.3129059,0,0,0,0,0,10,0,0,3.558231,-4.190773,-9.950326,0,4.459322,-4.197798,1,0,0,0,0,0,-5.498169,0,0,99.28321,-0.003171066,0.3882574,1.359421,-1.273562,0.4539455,0,0,0,0,-98.99356,0,0,72,0,0,183,2,229
37.24926,-1.561681,-104.5469,35.80126,51.76403,-1,0,0,0,0,29.96233,3.595605,18.08685,0,29.96233,3.977308,-0.2970617,0,0,0,0,0,10,0,0,3.558231,-4.321755,-0.4285176,0,3.558231,-4.190773,0.2923037,0,0,0,0,0,-6.773112,0,0,99.18639,-0.08727207,0.3899016,0.6378021,-0.01040237,0.4274196,0,0,0,0,-99.3622,0,0,72,0,0,184,2,229
33.02348,-53.7823,-102.1573,37.24926,-1.561681,-1,0,0,0,0,30.55433,3.05048,16.64575,0,30.55433,3.595605,-0.2506922,0,0,0,0,0,10,0,0,3.636457,-4.406214,8.270622,0,3.636457,-4.321755,-0.6075392,0,0,0,0,0,-7.032205,0,0,99.25877,-0.4916102,0.3904037,0.5020905,-0.2862873,0.4167655,0,0,0,0,-99.49791,0,0,72,0,0,185,2,229
26.49388,-46.51136,-95.62059,33.02348,-53.7823,-1,0,0,0,0,30.81094,2.5791,15.62119,0,30.55433,3.05048,-0.2060184,0,0,0,0,0,10,0,0,2.523861,-4.467287,15.84484,0,3.636457,-4.406214,-1,0,0,0,0,0,-7.271756,0,0,99.68277,-0.8860009,0.3909058,0.5020905,-1.612678,0.4021335,0,0,0,0,-99.94093,0,0,72,0,0,186,2,229
25.04678,4.360619,-84.87878,26.49388,-46.51136,-1,0,0,0,0,30.81094,2.236886,13.60008,0,30.81094,2.5791,-0.174257,0,0,0,0,0,10,0,0,2.523861,-4.533002,21.40304,0,2.523861,-4.467287,-1,0,0,0,0,0,-9.043777,0,0,100.1086,-1.154275,0.3909649,0.05906677,-2.906437,0.361288,0,0,0,0,-99.94093,0,0,72,0,0,187,2,229
27.42576,44.75233,-70.62444,25.04678,4.360619,-1,0,0,0,0,31.57597,1.929909,10.27357,0,31.57597,2.236886,-0.1116026,0,0,0,0,0,10,0,0,1.567717,-4.518618,23.01663,0,1.567717,-4.533002,-1,0,0,0,0,0,-10,0,0,100.4654,-1.282174,0.3911058,0.08190918,-3.786483,0.3527355,0,0,0,0,-99.91809,0,0,72,0,0,188,2,229
32.89417,78.20559,-66.52636,27.42576,44.75233,-1,0,0,0,0,31.50362,1.710594,5.710025,0,31.50362,1.929909,-0.008480612,0,0,0,0,0,10,0,0,1.622768,-4.460724,21.17019,0,1.622768,-4.518618,-1,0,0,0,0,0,-10,0,0,100.9541,-1.216447,0.3904433,-0.6625595,-4.206045,0.3033547,0,0,0,0,-100.6626,0,0,72,0,0,189,2,229
46.38516,121.8936,-66.50709,32.89417,78.20559,1,0,0,0,0,31.76023,1.547877,-2.562797,0,31.50362,1.710594,0.1329892,0,0,0,0,0,10,0,0,0.5101719,-4.345236,13.83541,0,1.622768,-4.460724,-1,0,0,0,0,0,-10,0,0,101.5154,-0.9373212,0.3897807,-0.6625595,-3.990431,0.3051522,0,0,0,0,-101.1056,0,0,72,0,0,190,2,229
58.47602,148.8496,-69.67471,46.38516,121.8936,1,0,0,0,0,32.09802,1.562557,-7.727828,0,31.76023,1.547877,0.3894467,0,0,0,0,0,10,0,0,0.5101719,-4.273481,6.752611,0,0.5101719,-4.345236,-1,0,0,0,0,0,-10,0,0,101.5727,-0.587723,0.3886751,-1.105591,-3.074789,0.2883509,0,0,0,0,-101.4742,0,0,72,0,0,191,2,229
76.17635,111.4988,-88.20142,58.47602,148.8496,1,0,0,0,0,32.01684,1.361514,-12.91631,0,32.01684,1.562557,0.5495626,0,0,0,0,0,10,0,0,-0.6024284,-4.069031,-4.747772,0,-0.6024284,-4.273481,-1,0,0,0,0,0,-10,0,0,101.7212,-0.301378,0.3856523,-1.548615,-1.927967,0.2722704,0,0,0,0,-101.5486,0,0,72,0,0,192,2,229
