DateTime,MagYaw,YawVelocityDegreesPerSecond,YawIntegral,YawProportional,YawDerivativeError,YawControl,YawIntegralGain,YawDerivativeGain,YawProportionalGain,YawAntiWindupGain,XNEDBodyFrame,XVelocityMetersPerSecond,ThetaPitchDegrees,XIntegral,XProportional,XDerivativeError,LongitudeControl,XIntegralGain,XDerivativeGain,XProportionalGain,XAntiWindupGain,LongitudeInnerLoopGain,XLongitudeOuterLoopSetpoint,PitchAngularVelocityRadsPerSecond,PitchAngularVelocityGain,YNEDBodyFrame,YVelocityMetersPerSecond,PhiRollDegrees,YIntegral,YProportional,YDerivativeError,LateralControl,YIntegralGain,YDerivativeGain,YProportionalGain,YAntiWindupGain,LateralInnerLoopGain,YLateralOuterLoopSetpoint,RollAngularVelocityRadsPerSecond,RollAngularVelocityGain,AltitudeFeetAgl,ZVelocityMetersPerSecond,ZIntegral,ZProportional,ZDerivativeError,MainRotorCollectiveControl,ZIntegralGain,ZDerivativeGain,ZProportionalGain,ZAntiWindupGain,ZNEDBodyFrame,LatitudeDegrees,LongitudeDegrees,Timeouts,UnrecognizedMsgTypes,ChecksumErrors,NumOfBlownFrames,MessageType,NumOfBytesInMsg
1/14/2014 9:25:10 PM 269.332,133.1817,-22.21351,-90.668,133.1817,-1,0,0,0,0,0.02590933,0.05789847,8.466613,0,0.02590933,0.05789847,-0.2588962,0,0,0,0,0,0.115121,0,0,0.2665614,6.39543,-27.58277,0,0.2665614,6.39543,1,0,0,0,0,0,5,0,0,0.3713732,-0.08496317,0,99.34557,-0.2787132,0.5,0,0,0,0,-0.6544262,0,0,10579,0,0,10506,2,229
1/14/2014 9:25:10 PM 269.332,133.1817,-22.21351,-90.668,133.1817,-1,0,0,0,0,0.02590933,0.05789847,8.466613,0,0.02590933,0.05789847,-0.2588962,0,0,0,0,0,0.115121,0,0,0.2665614,6.39543,-27.58277,0,0.2665614,6.39543,1,0,0,0,0,0,5,0,0,0.3713732,-0.08496317,0,99.34557,-0.2787132,0.5,0,0,0,0,-0.6544262,0,0,10580,0,0,10507,2,229
1/14/2014 9:25:10 PM 269.332,133.1817,-22.21351,-90.668,133.1817,-1,0,0,0,0,0.02590933,0.05789847,8.466613,0,0.02590933,0.05789847,-0.2588962,0,0,0,0,0,0.115121,0,0,0.2665614,6.39543,-27.58277,0,0.2665614,6.39543,1,0,0,0,0,0,5,0,0,0.3713732,-0.08496317,0,99.34557,-0.2787132,0.5,0,0,0,0,-0.6544262,0,0,10581,0,0,10508,2,229
1/14/2014 9:25:10 PM 269.332,133.1817,-22.21351,-90.668,133.1817,-1,0,0,0,0,0.02590933,0.05789847,8.466613,0,0.02590933,0.05789847,-0.2588962,0,0,0,0,0,0.115121,0,0,0.2665614,6.39543,-27.58277,0,0.2665614,6.39543,1,0,0,0,0,0,5,0,0,0.3713732,-0.08496317,0,99.34557,-0.2787132,0.5,0,0,0,0,-0.6544262,0,0,10582,0,0,10509,2,229
1/14/2014 9:25:10 PM 269.332,133.1817,-22.21351,-90.668,133.1817,-1,0,0,0,0,0.02590933,0.05789847,8.466613,0,0.02590933,0.05789847,-0.2588962,0,0,0,0,0,0.115121,0,0,0.2665614,6.39543,-27.58277,0,0.2665614,6.39543,1,0,0,0,0,0,5,0,0,0.3713732,-0.08496317,0,99.34557,-0.2787132,0.5,0,0,0,0,-0.6544262,0,0,10583,0,0,10510,2,229
1/14/2014 9:25:10 PM 269.332,133.1817,-22.21351,-90.668,133.1817,-1,0,0,0,0,0.02590933,0.05789847,8.466613,0,0.02590933,0.05789847,-0.2588962,0,0,0,0,0,0.115121,0,0,0.2665614,6.39543,-27.58277,0,0.2665614,6.39543,1,0,0,0,0,0,5,0,0,0.3713732,-0.08496317,0,99.34557,-0.2787132,0.5,0,0,0,0,-0.6544262,0,0,10584,0,0,10511,2,229
1/14/2014 9:25:10 PM 269.332,133.1817,-22.21351,-90.668,133.1817,-1,0,0,0,0,0.02590933,0.05789847,8.466613,0,0.02590933,0.05789847,-0.2588962,0,0,0,0,0,0.115121,0,0,0.2665614,6.39543,-27.58277,0,0.2665614,6.39543,1,0,0,0,0,0,5,0,0,0.3713732,-0.08496317,0,99.34557,-0.2787132,0.5,0,0,0,0,-0.6544262,0,0,10585,0,0,10512,2,229
1/14/2014 9:25:10 PM 269.332,133.1817,-22.21351,-90.668,133.1817,-1,0,0,0,0,0.02590933,0.05789847,8.466613,0,0.02590933,0.05789847,-0.2588962,0,0,0,0,0,0.115121,0,0,0.2665614,6.39543,-27.58277,0,0.2665614,6.39543,1,0,0,0,0,0,5,0,0,0.3713732,-0.08496317,0,99.34557,-0.2787132,0.5,0,0,0,0,-0.6544262,0,0,10586,0,0,10513,2,229
1/14/2014 9:25:10 PM 269.332,133.1817,-22.21351,-90.668,133.1817,-1,0,0,0,0,0.02590933,0.05789847,8.466613,0,0.02590933,0.05789847,-0.2588962,0,0,0,0,0,0.115121,0,0,0.2665614,6.39543,-27.58277,0,0.2665614,6.39543,1,0,0,0,0,0,5,0,0,0.3713732,-0.08496317,0,99.34557,-0.2787132,0.5,0,0,0,0,-0.6544262,0,0,10587,0,0,10514,2,229
1/14/2014 9:25:10 PM 269.332,133.1817,-22.21351,-90.668,133.1817,-1,0,0,0,0,0.02590933,0.05789847,8.466613,0,0.02590933,0.05789847,-0.2588962,0,0,0,0,0,0.115121,0,0,0.2665614,6.39543,-27.58277,0,0.2665614,6.39543,1,0,0,0,0,0,5,0,0,0.3713732,-0.08496317,0,99.34557,-0.2787132,0.5,0,0,0,0,-0.6544262,0,0,10588,0,0,10515,2,229
1/14/2014 9:25:10 PM 269.332,133.1817,-22.21351,-90.668,133.1817,-1,0,0,0,0,0.02590933,0.05789847,8.466613,0,0.02590933,0.05789847,-0.2588962,0,0,0,0,0,0.115121,0,0,0.2665614,6.39543,-27.58277,0,0.2665614,6.39543,1,0,0,0,0,0,5,0,0,0.3713732,-0.08496317,0,99.34557,-0.2787132,0.5,0,0,0,0,-0.6544262,0,0,10589,0,0,10516,2,229
1/14/2014 9:25:10 PM 269.332,133.1817,-22.21351,-90.668,133.1817,-1,0,0,0,0,0.02590933,0.05789847,8.466613,0,0.02590933,0.05789847,-0.2588962,0,0,0,0,0,0.115121,0,0,0.2665614,6.39543,-27.58277,0,0.2665614,6.39543,1,0,0,0,0,0,5,0,0,0.3713732,-0.08496317,0,99.34557,-0.2787132,0.5,0,0,0,0,-0.6544262,0,0,10590,0,0,10517,2,229
1/14/2014 9:25:10 PM 269.332,133.1817,-22.21351,-90.668,133.1817,-1,0,0,0,0,0.02590933,0.05789847,8.466613,0,0.02590933,0.05789847,-0.2588962,0,0,0,0,0,0.115121,0,0,0.2665614,6.39543,-27.58277,0,0.2665614,6.39543,1,0,0,0,0,0,5,0,0,0.3713732,-0.08496317,0,99.34557,-0.2787132,0.5,0,0,0,0,-0.6544262,0,0,10591,0,0,10518,2,229
1/14/2014 9:25:10 PM 269.332,133.1817,-22.21351,-90.668,133.1817,-1,0,0,0,0,0.02590933,0.05789847,8.466613,0,0.02590933,0.05789847,-0.2588962,0,0,0,0,0,0.115121,0,0,0.2665614,6.39543,-27.58277,0,0.2665614,6.39543,1,0,0,0,0,0,5,0,0,0.3713732,-0.08496317,0,99.34557,-0.2787132,0.5,0,0,0,0,-0.6544262,0,0,10592,0,0,10519,2,229
1/14/2014 9:25:10 PM 269.332,133.1817,-22.21351,-90.668,133.1817,-1,0,0,0,0,0.02590933,0.05789847,8.466613,0,0.02590933,0.05789847,-0.2588962,0,0,0,0,0,0.115121,0,0,0.2665614,6.39543,-27.58277,0,0.2665614,6.39543,1,0,0,0,0,0,5,0,0,0.3713732,-0.08496317,0,99.34557,-0.2787132,0.5,0,0,0,0,-0.6544262,0,0,10593,0,0,10520,2,229
1/14/2014 9:25:10 PM 269.332,133.1817,-22.21351,-90.668,133.1817,-1,0,0,0,0,0.02590933,0.05789847,8.466613,0,0.02590933,0.05789847,-0.2588962,0,0,0,0,0,0.115121,0,0,0.2665614,6.39543,-27.58277,0,0.2665614,6.39543,1,0,0,0,0,0,5,0,0,0.3713732,-0.08496317,0,99.34557,-0.2787132,0.5,0,0,0,0,-0.6544262,0,0,10594,0,0,10521,2,229
1/14/2014 9:25:11 PM 269.332,133.1817,-22.21351,-90.668,133.1817,-1,0,0,0,0,0.02590933,0.05789847,8.466613,0,0.02590933,0.05789847,-0.2588962,0,0,0,0,0,0.115121,0,0,0.2665614,6.39543,-27.58277,0,0.2665614,6.39543,1,0,0,0,0,0,5,0,0,0.3713732,-0.08496317,0,99.34557,-0.2787132,0.5,0,0,0,0,-0.6544262,0,0,10595,0,0,10522,2,229
1/14/2014 9:25:11 PM 269.332,133.1817,-22.21351,-90.668,133.1817,-1,0,0,0,0,0.02590933,0.05789847,8.466613,0,0.02590933,0.05789847,-0.2588962,0,0,0,0,0,0.115121,0,0,0.2665614,6.39543,-27.58277,0,0.2665614,6.39543,1,0,0,0,0,0,5,0,0,0.3713732,-0.08496317,0,99.34557,-0.2787132,0.5,0,0,0,0,-0.6544262,0,0,10596,0,0,10523,2,229
1/14/2014 9:25:11 PM 269.332,133.1817,-22.21351,-90.668,133.1817,-1,0,0,0,0,0.02590933,0.05789847,8.466613,0,0.02590933,0.05789847,-0.2588962,0,0,0,0,0,0.115121,0,0,0.2665614,6.39543,-27.58277,0,0.2665614,6.39543,1,0,0,0,0,0,5,0,0,0.3713732,-0.08496317,0,99.34557,-0.2787132,0.5,0,0,0,0,-0.6544262,0,0,10597,0,0,10524,2,229
1/14/2014 9:25:11 PM 269.332,133.1817,-22.21351,-90.668,133.1817,-1,0,0,0,0,0.02590933,0.05789847,8.466613,0,0.02590933,0.05789847,-0.2588962,0,0,0,0,0,0.115121,0,0,0.2665614,6.39543,-27.58277,0,0.2665614,6.39543,1,0,0,0,0,0,5,0,0,0.3713732,-0.08496317,0,99.34557,-0.2787132,0.5,0,0,0,0,-0.6544262,0,0,10598,0,0,10525,2,229
1/14/2014 9:25:11 PM 269.332,133.1817,-22.21351,-90.668,133.1817,-1,0,0,0,0,0.02590933,0.05789847,8.466613,0,0.02590933,0.05789847,-0.2588962,0,0,0,0,0,0.115121,0,0,0.2665614,6.39543,-27.58277,0,0.2665614,6.39543,1,0,0,0,0,0,5,0,0,0.3713732,-0.08496317,0,99.34557,-0.2787132,0.5,0,0,0,0,-0.6544262,0,0,10599,0,0,10526,2,229
1/14/2014 9:25:11 PM 269.332,133.1817,-22.21351,-90.668,133.1817,-1,0,0,0,0,0.02590933,0.05789847,8.466613,0,0.02590933,0.05789847,-0.2588962,0,0,0,0,0,0.115121,0,0,0.2665614,6.39543,-27.58277,0,0.2665614,6.39543,1,0,0,0,0,0,5,0,0,0.3713732,-0.08496317,0,99.34557,-0.2787132,0.5,0,0,0,0,-0.6544262,0,0,10600,0,0,10527,2,229
1/14/2014 9:25:11 PM 269.332,133.1817,-22.21351,-90.668,133.1817,-1,0,0,0,0,0.02590933,0.05789847,8.466613,0,0.02590933,0.05789847,-0.2588962,0,0,0,0,0,0.115121,0,0,0.2665614,6.39543,-27.58277,0,0.2665614,6.39543,1,0,0,0,0,0,5,0,0,0.3713732,-0.08496317,0,99.34557,-0.2787132,0.5,0,0,0,0,-0.6544262,0,0,10601,0,0,10528,2,229
1/14/2014 9:25:11 PM 269.332,133.1817,-22.21351,-90.668,133.1817,-1,0,0,0,0,0.02590933,0.05789847,8.466613,0,0.02590933,0.05789847,-0.2588962,0,0,0,0,0,0.115121,0,0,0.2665614,6.39543,-27.58277,0,0.2665614,6.39543,1,0,0,0,0,0,5,0,0,0.3713732,-0.08496317,0,99.34557,-0.2787132,0.5,0,0,0,0,-0.6544262,0,0,10602,0,0,10529,2,229
1/14/2014 9:25:11 PM 269.332,133.1817,-22.21351,-90.668,133.1817,-1,0,0,0,0,0.02590933,0.05789847,8.466613,0,0.02590933,0.05789847,-0.2588962,0,0,0,0,0,0.115121,0,0,0.2665614,6.39543,-27.58277,0,0.2665614,6.39543,1,0,0,0,0,0,5,0,0,0.3713732,-0.08496317,0,99.34557,-0.2787132,0.5,0,0,0,0,-0.6544262,0,0,10603,0,0,10530,2,229
1/14/2014 9:25:11 PM 269.332,133.1817,-22.21351,-90.668,133.1817,-1,0,0,0,0,0.02590933,0.05789847,8.466613,0,0.02590933,0.05789847,-0.2588962,0,0,0,0,0,0.115121,0,0,0.2665614,6.39543,-27.58277,0,0.2665614,6.39543,1,0,0,0,0,0,5,0,0,0.3713732,-0.08496317,0,99.34557,-0.2787132,0.5,0,0,0,0,-0.6544262,0,0,10604,0,0,10531,2,229
1/14/2014 9:25:11 PM 269.332,133.1817,-22.21351,-90.668,133.1817,-1,0,0,0,0,0.02590933,0.05789847,8.466613,0,0.02590933,0.05789847,-0.2588962,0,0,0,0,0,0.115121,0,0,0.2665614,6.39543,-27.58277,0,0.2665614,6.39543,1,0,0,0,0,0,5,0,0,0.3713732,-0.08496317,0,99.34557,-0.2787132,0.5,0,0,0,0,-0.6544262,0,0,10605,0,0,10532,2,229
1/14/2014 9:25:11 PM 269.332,133.1817,-22.21351,-90.668,133.1817,-1,0,0,0,0,0.02590933,0.05789847,8.466613,0,0.02590933,0.05789847,-0.2588962,0,0,0,0,0,0.115121,0,0,0.2665614,6.39543,-27.58277,0,0.2665614,6.39543,1,0,0,0,0,0,5,0,0,0.3713732,-0.08496317,0,99.34557,-0.2787132,0.5,0,0,0,0,-0.6544262,0,0,10606,0,0,10533,2,229
1/14/2014 9:25:11 PM 269.332,133.1817,-22.21351,-90.668,133.1817,-1,0,0,0,0,0.02590933,0.05789847,8.466613,0,0.02590933,0.05789847,-0.2588962,0,0,0,0,0,0.115121,0,0,0.2665614,6.39543,-27.58277,0,0.2665614,6.39543,1,0,0,0,0,0,5,0,0,0.3713732,-0.08496317,0,99.34557,-0.2787132,0.5,0,0,0,0,-0.6544262,0,0,10607,0,0,10534,2,229
1/14/2014 9:25:11 PM 269.332,133.1817,-22.21351,-90.668,133.1817,-1,0,0,0,0,0.02590933,0.05789847,8.466613,0,0.02590933,0.05789847,-0.2588962,0,0,0,0,0,0.115121,0,0,0.2665614,6.39543,-27.58277,0,0.2665614,6.39543,1,0,0,0,0,0,5,0,0,0.3713732,-0.08496317,0,99.34557,-0.2787132,0.5,0,0,0,0,-0.6544262,0,0,10608,0,0,10535,2,229
1/14/2014 9:25:11 PM 269.332,133.1817,-22.21351,-90.668,133.1817,-1,0,0,0,0,0.02590933,0.05789847,8.466613,0,0.02590933,0.05789847,-0.2588962,0,0,0,0,0,0.115121,0,0,0.2665614,6.39543,-27.58277,0,0.2665614,6.39543,1,0,0,0,0,0,5,0,0,0.3713732,-0.08496317,0,99.34557,-0.2787132,0.5,0,0,0,0,-0.6544262,0,0,10609,0,0,10536,2,229
1/14/2014 9:25:11 PM 269.332,133.1817,-22.21351,-90.668,133.1817,-1,0,0,0,0,0.02590933,0.05789847,8.466613,0,0.02590933,0.05789847,-0.2588962,0,0,0,0,0,0.115121,0,0,0.2665614,6.39543,-27.58277,0,0.2665614,6.39543,1,0,0,0,0,0,5,0,0,0.3713732,-0.08496317,0,99.34557,-0.2787132,0.5,0,0,0,0,-0.6544262,0,0,10610,0,0,10537,2,229
1/14/2014 9:25:11 PM 269.332,133.1817,-22.21351,-90.668,133.1817,-1,0,0,0,0,0.02590933,0.05789847,8.466613,0,0.02590933,0.05789847,-0.2588962,0,0,0,0,0,0.115121,0,0,0.2665614,6.39543,-27.58277,0,0.2665614,6.39543,1,0,0,0,0,0,5,0,0,0.3713732,-0.08496317,0,99.34557,-0.2787132,0.5,0,0,0,0,-0.6544262,0,0,10611,0,0,10538,2,229
1/14/2014 9:25:11 PM 269.332,133.1817,-22.21351,-90.668,133.1817,-1,0,0,0,0,0.02590933,0.05789847,8.466613,0,0.02590933,0.05789847,-0.2588962,0,0,0,0,0,0.115121,0,0,0.2665614,6.39543,-27.58277,0,0.2665614,6.39543,1,0,0,0,0,0,5,0,0,0.3713732,-0.08496317,0,99.34557,-0.2787132,0.5,0,0,0,0,-0.6544262,0,0,10612,0,0,10539,2,229
1/14/2014 9:25:11 PM 269.332,133.1817,-22.21351,-90.668,133.1817,-1,0,0,0,0,0.02590933,0.05789847,8.466613,0,0.02590933,0.05789847,-0.2588962,0,0,0,0,0,0.115121,0,0,0.2665614,6.39543,-27.58277,0,0.2665614,6.39543,1,0,0,0,0,0,5,0,0,0.3713732,-0.08496317,0,99.34557,-0.2787132,0.5,0,0,0,0,-0.6544262,0,0,10613,0,0,10540,2,229
1/14/2014 9:25:11 PM 269.332,133.1817,-22.21351,-90.668,133.1817,-1,0,0,0,0,0.02590933,0.05789847,8.466613,0,0.02590933,0.05789847,-0.2588962,0,0,0,0,0,0.115121,0,0,0.2665614,6.39543,-27.58277,0,0.2665614,6.39543,1,0,0,0,0,0,5,0,0,0.3713732,-0.08496317,0,99.34557,-0.2787132,0.5,0,0,0,0,-0.6544262,0,0,10614,0,0,10541,2,229
1/14/2014 9:25:11 PM 269.332,133.1817,-22.21351,-90.668,133.1817,-1,0,0,0,0,0.02590933,0.05789847,8.466613,0,0.02590933,0.05789847,-0.2588962,0,0,0,0,0,0.115121,0,0,0.2665614,6.39543,-27.58277,0,0.2665614,6.39543,1,0,0,0,0,0,5,0,0,0.3713732,-0.08496317,0,99.34557,-0.2787132,0.5,0,0,0,0,-0.6544262,0,0,10615,0,0,10542,2,229
1/14/2014 9:25:11 PM 269.332,133.1817,-22.21351,-90.668,133.1817,-1,0,0,0,0,0.02590933,0.05789847,8.466613,0,0.02590933,0.05789847,-0.2588962,0,0,0,0,0,0.115121,0,0,0.2665614,6.39543,-27.58277,0,0.2665614,6.39543,1,0,0,0,0,0,5,0,0,0.3713732,-0.08496317,0,99.34557,-0.2787132,0.5,0,0,0,0,-0.6544262,0,0,10616,0,0,10543,2,229
1/14/2014 9:25:11 PM 269.332,133.1817,-22.21351,-90.668,133.1817,-1,0,0,0,0,0.02590933,0.05789847,8.466613,0,0.02590933,0.05789847,-0.2588962,0,0,0,0,0,0.115121,0,0,0.2665614,6.39543,-27.58277,0,0.2665614,6.39543,1,0,0,0,0,0,5,0,0,0.3713732,-0.08496317,0,99.34557,-0.2787132,0.5,0,0,0,0,-0.6544262,0,0,10616,0,0,10544,2,229
1/14/2014 9:25:11 PM 269.332,133.1817,-22.21351,-90.668,133.1817,-1,0,0,0,0,0.02590933,0.05789847,8.466613,0,0.02590933,0.05789847,-0.2588962,0,0,0,0,0,0.115121,0,0,0.2665614,6.39543,-27.58277,0,0.2665614,6.39543,1,0,0,0,0,0,5,0,0,0.3713732,-0.08496317,0,99.34557,-0.2787132,0.5,0,0,0,0,-0.6544262,0,0,10617,0,0,10545,2,229
1/14/2014 9:25:11 PM 269.332,133.1817,-22.21351,-90.668,133.1817,-1,0,0,0,0,0.02590933,0.05789847,8.466613,0,0.02590933,0.05789847,-0.2588962,0,0,0,0,0,0.115121,0,0,0.2665614,6.39543,-27.58277,0,0.2665614,6.39543,1,0,0,0,0,0,5,0,0,0.3713732,-0.08496317,0,99.34557,-0.2787132,0.5,0,0,0,0,-0.6544262,0,0,10617,0,0,10546,2,229
1/14/2014 9:25:11 PM 269.332,133.1817,-22.21351,-90.668,133.1817,-1,0,0,0,0,0.02590933,0.05789847,8.466613,0,0.02590933,0.05789847,-0.2588962,0,0,0,0,0,0.115121,0,0,0.2665614,6.39543,-27.58277,0,0.2665614,6.39543,1,0,0,0,0,0,5,0,0,0.3713732,-0.08496317,0,99.34557,-0.2787132,0.5,0,0,0,0,-0.6544262,0,0,10617,0,0,10547,2,229
1/14/2014 9:25:11 PM 269.332,133.1817,-22.21351,-90.668,133.1817,-1,0,0,0,0,0.02590933,0.05789847,8.466613,0,0.02590933,0.05789847,-0.2588962,0,0,0,0,0,0.115121,0,0,0.2665614,6.39543,-27.58277,0,0.2665614,6.39543,1,0,0,0,0,0,5,0,0,0.3713732,-0.08496317,0,99.34557,-0.2787132,0.5,0,0,0,0,-0.6544262,0,0,10617,0,0,10548,2,229
1/14/2014 9:25:12 PM 269.332,133.1817,-22.21351,-90.668,133.1817,-1,0,0,0,0,0.02590933,0.05789847,8.466613,0,0.02590933,0.05789847,-0.2588962,0,0,0,0,0,0.115121,0,0,0.2665614,6.39543,-27.58277,0,0.2665614,6.39543,1,0,0,0,0,0,5,0,0,0.3713732,-0.08496317,0,99.34557,-0.2787132,0.5,0,0,0,0,-0.6544262,0,0,10617,0,0,10549,2,229
1/14/2014 9:25:12 PM 269.332,133.1817,-22.21351,-90.668,133.1817,-1,0,0,0,0,0.02590933,0.05789847,8.466613,0,0.02590933,0.05789847,-0.2588962,0,0,0,0,0,0.115121,0,0,0.2665614,6.39543,-27.58277,0,0.2665614,6.39543,1,0,0,0,0,0,5,0,0,0.3713732,-0.08496317,0,99.34557,-0.2787132,0.5,0,0,0,0,-0.6544262,0,0,10617,0,0,10550,2,229
1/14/2014 9:25:12 PM 269.332,133.1817,-22.21351,-90.668,133.1817,-1,0,0,0,0,0.02590933,0.05789847,8.466613,0,0.02590933,0.05789847,-0.2588962,0,0,0,0,0,0.115121,0,0,0.2665614,6.39543,-27.58277,0,0.2665614,6.39543,1,0,0,0,0,0,5,0,0,0.3713732,-0.08496317,0,99.34557,-0.2787132,0.5,0,0,0,0,-0.6544262,0,0,10617,0,0,10551,2,229
1/14/2014 9:25:12 PM 269.332,133.1817,-22.21351,-90.668,133.1817,-1,0,0,0,0,0.02590933,0.05789847,8.466613,0,0.02590933,0.05789847,-0.2588962,0,0,0,0,0,0.115121,0,0,0.2665614,6.39543,-27.58277,0,0.2665614,6.39543,1,0,0,0,0,0,5,0,0,0.3713732,-0.08496317,0,99.34557,-0.2787132,0.5,0,0,0,0,-0.6544262,0,0,10617,0,0,10552,2,229
1/14/2014 9:25:12 PM 269.332,133.1817,-22.21351,-90.668,1