DateTime,PitchVelocityRadsPerS,RollVelocityRadsPerS,YawVelocityRadsPerS,PitchDegrees,RollDegrees,MagHeadingDegrees,LatitudeDegrees,LongitudeDegrees,ZAltitudeFtAgl,YVelocityNEDFrameMs,ZVelocityNEDFrameMs,XVelocityNEDFrameMs
11.42.53.234709, 0.0004740258,-0.0102123,0.1665445,0.3513149,0.6025708,348.1673,47.50031,-122.2168,0.09261112,0.02635711,-0.0004494537,-0.03715518
11.42.53.295712, 0.0005621475,0.01136956,0.01277738,0.3525464,0.6355315,348.2041,47.50031,-122.2168,0.0925635,0.06724656,0.0008961693,-0.04230345
11.42.53.356716, 0.0003991393,-0.0106349,0.1667275,0.3483586,0.6078429,348.6841,47.50031,-122.2168,0.09272902,0.02610832,-0.0003513391,-0.03728669
11.42.53.413719, 0.0003164304,0.01092377,0.01304639,0.348871,0.6395229,348.7217,47.50031,-122.2168,0.0924667,0.06697103,0.001591073,-0.04280647
11.42.53.465722, 0.0004057235,-0.009999684,0.1662072,0.3446858,0.6136233,349.2002,47.50031,-122.2168,0.09265746,0.02600379,-0.0005061161,-0.03740879
11.42.53.524726, 0.0003455825,0.01124467,0.01277293,0.3452868,0.64622,349.237,47.50031,-122.2168,0.09258163,0.06682487,0.001067239,-0.04329517
11.42.53.581729, 0.0002763591,-0.009575076,0.1662869,0.3406706,0.6215141,349.7157,47.50031,-122.2168,0.09267656,0.02579997,-0.0005330336,-0.03752459
11.42.53.659733, 0.0003386988,-0.03415141,0.2917675,0.3324972,0.5281135,350.5557,47.50031,-122.2168,0.09260927,-0.00495946,0.0004081165,-0.03280456
11.42.53.718737, -0.008685842,-0.09346613,0.5035161,0.2940229,0.2672488,352.0051,47.50031,-122.2168,0.3389418,-0.04754839,-1.494673,-0.009487845
11.42.53.766739, 0.03269382,-0.1342088,0.7115313,0.3784119,-0.1088207,354.0543,47.50031,-122.2168,0.6237599,-0.1001002,-1.728177,0.005920106
11.42.53.819742, 0.04449859,-0.1465735,0.833761,0.5093416,-0.5105352,356.429,47.50031,-122.2168,0.9163751,-0.1319083,-1.795327,0.01525479
11.42.53.871745, 0.0516112,-0.1410777,0.9329114,0.6799212,-0.8892413,359.0922,47.50031,-122.2168,1.213359,-0.1586066,-1.81719,0.02289055
11.42.53.922748, 0.05753113,-0.1307932,1.014552,0.8887149,-1.228003,1.992846,47.50031,-122.2168,1.510482,-0.1829008,-1.81437,0.02926853
11.42.53.970751, 0.06323791,-0.1116209,1.064332,1.134013,-1.498966,5.038948,47.50031,-122.2168,1.805137,-0.2005087,-1.796607,0.03224032
11.42.54.019754, 0.06887915,-0.09412638,1.11092,1.409819,-1.701343,8.18198,47.50031,-122.2168,2.092157,-0.218487,-1.770153,0.03420928
11.42.54.067757, 0.07379294,-0.05721915,1.100756,1.709085,-1.78437,11.2915,47.50031,-122.2168,2.373826,-0.2226737,-1.739102,0.02794889
11.42.54.115759, 0.07952818,-0.02874843,1.115506,2.026962,-1.769292,14.41318,47.50031,-122.2168,2.647558,-0.2330928,-1.705822,0.02268836
11.42.54.163762, 0.08369896,0.02045914,1.069765,2.349496,-1.604665,17.3877,47.50031,-122.2168,2.914186,-0.2297336,-1.672116,0.006534237
11.42.54.218765, 0.08912843,0.06067411,1.059372,2.677465,-1.312564,20.33445,47.50031,-122.2168,3.175541,-0.2338348,-1.638298,-0.008106068
11.42.54.267768, 0.09320439,0.1153585,0.9865316,2.999754,-0.8574396,23.10236,47.50031,-122.2168,3.433535,-0.2235309,-1.604813,-0.03730856
11.42.54.316771, 0.09824352,0.1563762,0.9478431,3.312514,-0.2775563,25.76448,47.50031,-122.2168,3.686347,-0.2191716,-1.571844,-0.06645742
11.42.54.366774, 0.1015556,0.2042338,0.8265702,3.606895,0.4321068,28.0919,47.50031,-122.2168,3.934257,-0.1989048,-1.539393,-0.1152
11.42.54.415776, 0.1048592,0.2372673,0.7436196,3.884444,1.233515,30.1943,47.50031,-122.2168,4.177555,-0.1841955,-1.507593,-0.1645365
11.42.54.462779, 0.1045283,0.2501251,0.6009134,4.14091,2.053675,31.89684,47.50031,-122.2168,4.415685,-0.1603562,-1.47559,-0.2282707
11.42.54.512782, 0.1023268,0.2498589,0.4954349,4.37561,2.851465,33.29143,47.50031,-122.2168,4.646606,-0.1408272,-1.444537,-0.2926463
11.42.54.562785, 0.09615038,0.2287422,0.3302359,4.598242,3.564353,34.23107,47.50031,-122.2168,4.873422,-0.1133211,-1.412619,-0.3708878
11.42.54.611788, 0.08761707,0.1996441,0.1995133,4.809403,4.172952,34.80794,47.50031,-122.2168,5.096332,-0.08944409,-1.381323,-0.4496187
11.42.54.660790, 0.07566482,0.1408239,0.01894171,5.018322,4.57589,34.87589,47.50031,-122.2168,5.314358,-0.06073683,-1.349581,-0.5370533
11.42.54.712793, 0.06152605,0.07905042,-0.1271895,5.219677,4.768447,34.53018,47.50031,-122.2168,5.527482,-0.03564827,-1.319363,-0.622402
11.42.54.767797, 0.0448473,-0.0009259132,-0.3587835,5.43002,4.673491,33.52279,47.50031,-122.2168,5.736996,-0.001088998,-1.289433,-0.720195
11.42.54.816799, 0.02781899,-0.07960348,-0.5539357,5.635256,4.296557,31.95116,47.50031,-122.2168,5.943049,0.02880896,-1.262397,-0.8120462
11.42.54.864802, 0.009550009,-0.1818004,-0.7256692,5.813154,3.574402,29.88694,47.50031,-122.2168,6.145353,0.05240633,-1.24021,-0.892823
11.42.54.913805, -0.006425034,-0.2748213,-0.8714042,5.942891,2.546216,27.42119,47.5003,-122.2168,6.343152,0.0704606,-1.221696,-0.9647321
11.42.54.962808, -0.0218742,-0.3685111,-0.9975255,5.99888,1.214366,24.6016,47.5003,-122.2168,6.538458,0.0815111,-1.208628,-1.024872
11.42.55.012811, -0.03369188,-0.4506387,-1.108456,5.961358,-0.3791702,21.47504,47.5003,-122.2168,6.731911,0.08498728,-1.199854,-1.074818
11.42.55.059813, -0.0448182,-0.4993466,-1.208422,5.801796,-2.142798,18.05276,47.5003,-122.2168,6.925622,0.08311091,-1.194804,-1.115525
11.42.55.107816, -0.05217179,-0.5375511,-1.298251,5.508723,-4.009408,14.41726,47.5003,-122.2168,7.117488,0.07116693,-1.194444,-1.14475
11.42.55.156819, -0.05878841,-0.5179006,-1.381031,5.064234,-5.811753,10.57973,47.5003,-122.2168,7.308951,0.05630619,-1.19581,-1.167048
11.42.55.203822, -0.06316154,-0.4926523,-1.459139,4.466366,-7.523302,6.551443,47.5003,-122.2168,7.500784,0.03089516,-1.200097,-1.178945
11.42.55.253824, -0.06764159,-0.3830882,-1.533767,3.713238,-8.890221,2.360077,47.5003,-122.2168,7.692631,0.008847425,-1.205619,-1.187559
11.42.55.306827, -0.07233112,-0.2733893,-1.607526,2.812745,-9.909164,357.968,47.5003,-122.2168,7.886068,-0.02092474,-1.210115,-1.187591
11.42.55.355830, -0.07842003,-0.07621382,-1.64913,1.791338,-10.31382,353.4443,47.5003,-122.2168,8.0815,-0.04624269,-1.212116,-1.183922
11.42.55.403833, -0.08808301,0.1109108,-1.686652,0.696436,-10.11309,348.8332,47.5003,-122.2168,8.277259,-0.07219891,-1.215168,-1.173437
11.42.55.450836, -0.1004084,0.3577352,-1.649148,-0.3905565,-9.136476,344.3421,47.5003,-122.2168,8.472313,-0.09508038,-1.214329,-1.158121
11.42.55.495838, -0.1183489,0.5841615,-1.625552,-1.424234,-7.466632,339.9568,47.5003,-122.2168,8.665164,-0.1072295,-1.216377,-1.136683
11.42.55.542841, -0.1434272,0.775322,-1.614657,-2.379168,-5.22513,335.6356,47.5003,-122.2168,8.856342,-0.103838,-1.221085,-1.107927
11.42.55.584843, -0.1689636,0.9414854,-1.5149,-3.20277,-2.492741,331.5776,47.5003,-122.2168,9.046981,-0.1003475,-1.225299,-1.074086
11.42.55.628846, -0.194461,1.083205,-1.434587,-3.874472,0.5878664,327.7961,47.50029,-122.2168,9.233939,-0.07411934,-1.230691,-1.030203
11.42.55.671848, -0.2126973,1.185485,-1.264383,-4.387874,3.895717,324.4855,47.50029,-122.2168,9.418705,-0.04779329,-1.235701,-0.9827258
11.42.55.712851, -0.2268265,1.273535,-1.118125,-4.768562,7.385977,321.5658,47.50029,-122.2168,9.601716,0.004723891,-1.240648,-0.9216905
11.42.55.756853, -0.2293406,1.297838,-0.8823758,-5.051828,10.83724,319.277,47.50029,-122.2168,9.781776,0.05302841,-1.245093,-0.8600702
11.42.55.804856, -0.2249116,1.317194,-0.6774774,-5.284534,14.30094,317.4879,47.50029,-122.2168,9.961407,0.1293301,-1.243747,-0.7828696
11.42.55.848858, -0.2038882,1.099737,-0.3410901,-5.576213,17.22859,316.4977,47.50029,-122.2168,10.14661,0.1697247,-1.249038,-0.7185153
11.42.55.888861, -0.178259,0.8832336,-0.05136048,-5.972852,19.51421,316.2328,47.50029,-122.2168,10.32945,0.2370989,-1.243917,-0.6394058
11.42.55.930863, -0.147949,0.6964738,0.1988119,-6.487726,21.22042,316.5769,47.50029,-122.2168,10.50607,0.3224237,-1.228134,-0.5503703
11.42.55.973866, -0.1116526,0.4094348,0.5566146,-7.250012,22.10302,317.7783,47.50029,-122.2168,10.68181,0.3675072,-1.222805,-0.476445
11.42.56.014868, -0.07871371,0.1051327,0.8659073,-8.227106,22.10663,319.6948,47.50029,-122.2168,10.85222,0.4234032,-1.205073,-0.3956345
11.42.56.057870, -0.05228864,-0.2190387,1.197066,-9.435468,21.16146,322.3851,47.50029,-122.2168,11.01888,0.4648601,-1.187535,-0.3172036
11.42.56.100873, -0.03813905,-0.5034114,1.483397,-10.81542,19.33304,325.7923,47.50029,-122.2168,11.18247,0.5089488,-1.162926,-0.2328723
11.42.56.142875, -0.03098549,-0.7399233,1.747548,-12.27646,16.70006,329.8999,47.50029,-122.2168,11.34246,0.546905,-1.135329,-0.1470786
11.42.56.185878, -0.03560854,-0.9302443,1.955944,-13.68952,13.38378,334.5784,47.50029,-122.2168,11.49746,0.5821559,-1.105628,-0.05610322
11.42.56.229880, -0.05158577,-1.080654,2.123939,-14.95404,9.47583,339.7628,47.50029,-122.2168,11.64832,0.6096496,-1.077378,0.04027187
11.42.56.272883, -0.06955821,-1.19942,2.266476,-15.9689,5.016873,345.4626,47.50029,-122.2168,11.79681,0.6240543,-1.050289,0.1404062
11.42.56.322886, -0.09408523,-1.29241,2.401505,-16.62982,0.123426,351.6073,47.50029,-122.2168,11.94205,0.6185316,-1.026185,0.2494634
11.42.56.364888, -0.114828,-1.366371,2.534843,-16.82814,-5.322582,358.4202,47.50029,-122.2168,12.08971,0.590107,-1.002491,0.3703139
11.42.56.408890, -0.1394219,-1.420771,2.658797,-16.43851,-10.89769,5.446104,47.50029,-122.2168,12.23097,0.5393901,-0.9747587,0.5034683
11.42.56.452893, -0.151208,-1.408132,2.644375,-15.44457,-16.30692,12.32204,47.50029,-122.2168,12.36769,0.5001276,-0.9475972,0.6326424
11.42.56.498896, -0.1552689,-1.392934,2.660553,-13.83484,-21.51335,19.09273,47.50029,-122.2168,12.49925,0.4315732,-0.9091823,0.7809011
11.42.56.544898, -0.1568668,-1.382426,2.701844,-11.59394,-26.49049,25.79242,47.50029,-122.2168,12.62366,0.3388155,-0.8531907,0.9497954
11.42.56.591901, -0.1500751,-1.133077,2.630575,-8.852925,-30.51014,32.10439,47.50029,-122.2168,12.74304,0.2772202,-0.8122646,1.096789
11.42.56.638904, -0.1146307,-0.862854,2.604317,-5.621171,-33.5023,38.12135,47.50029,-122.2168,12.85411,0.1913471,-0.7473381,1.264109
11.42.56.690907, -0.05652847,-0.4085083,2.42068,-2.225932,-34.93177,43.4732,47.50029,-122.2168,12.96054,0.1271376,-0.7143707,1.39864
11.42.56.741910, 0.03981745,0.002279746,2.262665,1.343031,-34.96923,48.36595,47.5003,-122.2168,13.06128,0.04509314,-0.6613276,1.542104
11.42.56.792912, 0.1484502,0.3836029,1.923444,4.682267,-33.72463,52.42695,47.5003,-122.2168,13.1591,-0.03273648,-0.6320906,1.651571
11.42.56.849916, 0.2683766,0.7004551,1.62843,7.794965,-31.44793,55.76858,47.5003,-122.2168,13.2529,-0.1283796,-0.5990794,1.757456
11.42.56.903919, 0.3700276,0.9918296,1.169757,10.37827,-28.34216,58.0335,47.5003,-122.2168,13.347,-0.2271398,-0.5963106,1.818193
11.42.56.953922, 0.433023,1.232103,0.7174301,12.40923,-24.64972,59.24357,47.5003,-122.2168,13.4434,-0.3346109,-0.6062202,1.86037
11.42.57.007925, 0.4790598,1.418866,0.3100814,14.00891,-20.58599,59.46927,47.5003,-122.2168,13.54321,-0.459488,-0.625194,1.883244
11.42.57.064928, 0.4737058,1.553919,-0.05919871,15.21021,-16.329,58.80582,47.5003,-122.2168,13.64893,-0.5872165,-0.6601543,1.883467
11.42.57.115931, 0.4488298,1.650141,-0.3903255,16.12119,-12.01006,57.31335,47.5003,-122.2168,13.7629,-0.724358,-0.7085781,1.852424
11.42.57.167934, 0.3833311,1.721791,-0.6880635,16.77233,-7.704104,55.06355,47.5003,-122.2168,13.88723,-0.856162,-0.7709138,1.786895
11.42.57.218937, 0.3036305,1.773324,-0.9533808,17.24728,-3.468482,52.10925,47.5003,-122.2168,14.02326,-0.9840279,-0.8414878,1.681205
11.42.57.267940, 0.1986089,1.812701,-1.187539,17.57794,0.6692149,48.51112,47.50031,-122.2168,14.17197,-1.094643,-0.9177587,1.535184
11.42.57.318943, 0.08714028,1.841993,-1.390376,17.82933,4.665967,44.35469,47.50031,-122.2168,14.33231,-1.184049,-0.9937856,1.348812
11.42.57.368945, -0.03730213,1.85614,-1.557126,18.02931,8.528862,39.68776,47.50031,-122.2168,14.50476,-1.241371,-1.065528,1.125234
11.42.57.424949, -0.1611684,1.867653,-1.696411,18.22502,12.2612,34.56751,47.50031,-122.2168,14.68778,-1.261402,-1.127404,0.8683706
11.42.57.473951, -0.2884866,1.614227,-1.81433,18.44039,15.10761,29.03511,47.50031,-122.2168,14.87683,-1.25976,-1.162076,0.6259071
11.42.57.523954, -0.4108884,1.380505,-1.917242,18.64097,17.11262,23.15799,47.50031,-122.2168,15.06953,-1.21867,-1.190687,0.3683431
11.42.57.572957, -0.5211027,0.9030113,-2.005658,18.79784,17.60965,16.94531,47.50031,-122.2168,15.26275,-1.173224,-1.19432,0.1466568
11.42.57.622960, -0.6126471,0.4902857,-2.090758,18.81853,16.8033,10.43457,47.50031,-122.2168,15.45504,-1.101128,-1.191329,-0.06832366
11.42.57.668963, -0.6816751,0.1225354,-2.171017,18.61883,14.85116,3.619823,47.50031,-122.2168,15.64655,-1.016451,-1.182122,-0.2622346
11.42.57.716965, -0.7212814,-0.17815,-2.238043,18.14398,12.06471,356.7389,47.50031,-122.2168,15.83274,-0.9289767,-1.170364,-0.4301862
11.42.57.766968, -0.7461237,-0.4084345,-2.305233,17.32259,8.667094,349.728,47.50031,-122.2168,16.01599,-0.8463511,-1.1549,-0.5702144
11.42.57.814971, -0.7541785,-0.6178908,-2.373909,16.10717,4.75339,342.5806,47.50031,-122.2168,16.19841,-0.7770133,-1.14325,-0.6887079
11.42.57.858973, -0.7531552,-0.7951439,-2.444511,14.45519,0.5096989,335.3931,47.50031,-122.2168,16.37924,-0.7278205,-1.135458,-0.7846131
11.42.57.903976, -0.7402148,-0.9434279,-2.516581,12.39344,-3.818412,328.3593,47.50031,-122.2168,16.55475,-0.7057725,-1.127817,-0.8611539
11.42.57.949979, -0.7176242,-1.068702,-2.590842,9.916937,-8.150391,321.4336,47.50031,-122.2168,16.72672,-0.713354,-1.120137,-0.924493
11.42.57.995981, -0.6867002,-1.175561,-2.667913,7.015267,-12.42519,314.5626,47.50031,-122.2168,16.89624,-0.7525417,-1.108569,-0.9801611
11.42.58.040984, -0.6488197,-1.266257,-2.747625,3.716102,-16.5328,307.7772,47.5003,-122.2168,17.06132,-0.8237457,-1.088381,-1.032895
11.42.58.085986, -0.5983327,-1.356658,-2.680133,0.1690974,-20.42732,301.423,47.5003,-122.2168,17.21894,-0.950989,-1.04662,-1.107191
11.42.58.133989, -0.5463405,-1.429982,-2.633002,-3.586532,-24.09155,295.4056,47.5003,-122.2168,17.36597,-1.099887,-0.9829018,-1.188142
11.42.58.176992, -0.4785326,-1.396286,-2.39913,-7.335059,-27.3678,290.0262,47.5003,-122.2168,17.50537,-1.2752,-0.9209522,-1.291758
11.42.58.220994, -0.4217868,-1.208619,-2.1998,-10.93013,-29.83823,285.3121,47.5003,-122.2168,17.62816,-1.45795,-0.8272911,-1.401528
11.42.58.264997, -0.3544704,-0.7941688,-1.808085,-14.02559,-31.12655,281.5763,47.5003,-122.2168,17.73503,-1.655153,-0.7297318,-1.541571
11.42.58.307999, -0.3074803,-0.3832264,-1.478395,-16.6457,-31.35245,278.5845,47.5003,-122.2168,17.82315,-1.850012,-0.6074485,-1.682013
11.42.58.354002, -0.2530861,-0.07198048,-0.9045002,-18.39146,-31.03041,276.843,47.5003,-122.2168,17.88786,-2.052903,-0.4502527,-1.880807
11.42.58.398004, -0.2104768,0.1996522,-0.4114828,-19.39558,-30.30936,276.1696,47.5003,-122.2168,17.93038,-2.251929,-0.298816,-2.060609
11.42.58.447007, -0.174636,0.43356,0.004335675,-19.77559,-29.28367,276.4156,47.5003,-122.2168,17.95285,-2.449395,-0.1622292,-2.219504
11.42.58.488009, -0.09061477,0.591832,0.596058,-19.21352,-28.25493,277.9832,47.5003,-122.2168,17.95556,-2.651784,-0.02691631,-2.419837
11.42.58.535012, 0.000414733,0.74683,1.082029,-17.88663,-27.16107,280.5555,47.50029,-122.2168,17.94285,-2.852491,0.07868467,-2.587354
11.42.58.578015, 0.1242199,0.8906462,1.510039,-15.7866,-25.8696,284.0385,47.50029,-122.2168,17.91916,-3.05037,0.1510781,-2.739704
11.42.58.631018, 0.2571636,1.022722,1.862059,-13.0796,-24.30464,288.1696,47.50029,-122.2168,17.89017,-3.241101,0.1897528,-2.866599
11.42.58.668020, 0.4047392,1.141282,2.152682,-9.857586,-22.37811,292.82,47.50029,-122.2168,17.86187,-3.418561,0.1879736,-2.97569
11.42.58.725023, 0.560632,1.247774,2.399549,-6.135856,-19.96727,298.0392,47.50029,-122.2168,17.83916,-3.582079,0.1466221,-3.07187
11.42.58.763025, 0.7152065,1.340058,2.607266,-2.076521,-17.0254,303.7636,47.50029,-122.2168,17.82849,-3.722617,0.06622896,-3.157693
11.42.58.812028, 0.8717527,1.419759,2.787328,2.284071,-13.41629,310.1476,47.50029,-122.2169,17.83548,-3.832983,-0.05224075,-3.241551
11.42.58.848030, 0.9927659,1.484326,2.9367,6.530768,-9.215917,317.0088,47.50029,-122.2169,17.86441,-3.906196,-0.2004229,-3.318159
11.42.58.893033, 1.102271,1.522648,3.065086,10.51153,-4.41748,324.4221,47.50029,-122.2169,17.91695,-3.932761,-0.3636625,-3.401132
11.42.58.938035, 1.205418,1.538535,3.184658,14.11642,1.043443,332.5608,47.50028,-122.2169,17.99355,-3.911729,-0.5260339,-3.499995
11.42.58.996038, 1.270368,1.535527,3.304082,17.05076,7.123337,341.4406,47.50028,-122.2169,18.09356,-3.847555,-0.6870137,-3.613385
11.42.59.045041, 1.32535,1.506309,3.43822,19.16019,13.92813,351.3964,47.50028,-122.2169,18.21554,-3.742482,-0.8116081,-3.754917
11.42.59.097044, 1.336164,1.452098,3.594462,20.01371,21.17394,2.233503,47.50028,-122.2169,18.35268,-3.604199,-0.9075479,-3.921289
11.42.59.147047, 1.342445,1.374743,3.782082,19.34832,28.51968,13.80932,47.50028,-122.2169,18.49445,-3.45344,-0.9232875,-4.113572
11.42.59.199050, 1.311918,1.012173,3.998657,16.89976,34.70799,25.75966,47.50027,-122.2169,18.63075,-3.341104,-0.8776655,-4.296903
11.42.59.251053, 1.2436,0.6280599,4.259488,12.67456,39.1917,37.81431,47.50027,-122.2169,18.74949,-3.242883,-0.7611745,-4.486694
11.42.59.304056, 1.108419,0.03490786,4.500272,6.88373,40.96902,49.70744,47.50027,-122.2169,18.8477,-3.16682,-0.6307078,-4.65801
11.42.59.355059, 0.8916697,-0.4757687,4.522617,0.3221044,40.05233,61.06292,47.50027,-122.2169,18.91377,-3.07945,-0.4308921,-4.861118
11.42.59.405062, 0.623062,-0.9238474,4.661496,-6.796919,36.57504,72.471,47.50027,-122.2169,18.95104,-3.007526,-0.2540781,-5.045466
11.42.59.450064, 0.3090436,-1.245856,4.550119,-13.62339,30.93751,83.74568,47.50026,-122.2169,18.95965,-2.932189,-0.07934951,-5.283566
11.42.59.496067, -0.01899365,-1.508366,4.569444,-19.91112,23.39311,95.37108,47.50026,-122.2169,18.9545,-2.831503,0.005313606,-5.499031
11.42.59.539070, -0.3495225,-1.703499,4.637958,-25.38383,14.00785,107.8973,47.50026,-122.2169,18.94631,-2.689141,0.02603874,-5.7102
11.42.59.575072, -0.6296646,-1.760934,4.2698,-29.28894,3.793852,120.196,47.50026,-122.2169,18.93977,-2.575956,0.01843714,-5.995162
11.42.59.777083, -0.8502817,-1.774227,4.030429,-31.598,-6.468438,131.9441,47.50026,-122.2169,18.93993,-2.405806,-0.02280817,-6.24405
11.42.59.814085, -0.9353652,-1.731661,3.672848,-32.42944,-16.97282,143.542,47.50025,-122.2169,18.95597,-2.205528,-0.1246058,-6.50402
11.42.59.851087, -0.9033781,-1.668182,3.347062,-31.7482,-26.36988,153.6468,47.50025,-122.2169,18.98506,-1.972146,-0.2159552,-6.730157
11.42.59.888089, -0.8475409,-1.619939,3.033833,-30.05844,-34.52788,162.164,47.50025,-122.2169,19.01769,-1.734202,-0.2443783,-6.924646
11.42.59.929092, -0.7862542,-1.585754,2.722722,-27.79352,-41.53172,169.1857,47.50024,-122.2169,19.04619,-1.498186,-0.2150146,-7.10299
11.42.59.970094, -0.7211697,-1.556054,2.400716,-25.22176,-47.69563,175.0169,47.50024,-122.2169,19.06432,-1.27026,-0.1305826,-7.271475
11.43.00.013097, -0.6518451,-1.52835,2.067274,-22.59687,-53.13541,179.7453,47.50024,-122.2169,19.06512,-1.057517,0.003028546,-7.429116
11.43.00.057099, -0.5684583,-1.072334,1.711179,-20.12271,-56.9864,183.4654,47.50024,-122.2169,19.04913,-0.927269,0.131292,-7.572017
11.43.00.105102, -0.4455803,-0.6112111,1.353459,-17.95476,-59.34367,186.2678,47.50023,-122.2169,19.01033,-0.7904253,0.295419,-7.706777
11.43.00.153105, -0.3183854,-0.1919134,0.9866367,-16.23531,-60.39718,188.2791,47.50023,-122.2169,18.94161,-0.671775,0.4957525,-7.835347
11.43.00.209108, -0.1777023,0.1885121,0.6111153,-15.09455,-60.23486,189.4895,47.50023,-122.2169,18.84178,-0.5463552,0.6921729,-7.965417
11.43.00.257111, -0.05947843,0.5187992,0.231076,-14.64198,-58.97943,189.9434,47.50023,-122.2169,18.70671,-0.4413355,0.9010509,-8.092623
11.43.00.307113, 0.05242115,0.7997262,-0.1474202,-14.90813,-56.74842,189.6083,47.50022,-122.2169,18.54008,-0.3270035,1.088941,-8.223474
11.43.00.356116, 0.1286498,0.8807352,0.63983,-13.26031,-54.52411,190.2885,47.50022,-122.2169,18.30663,-0.05999024,1.499877,-8.381351
11.43.00.409119, 0.2065223,0.9643927,1.279692,-10.06028,-52.21383,191.8937,47.50021,-122.2169,18.01645,0.2104288,1.839775,-8.557324
11.43.00.463122, 0.29244,1.054358,1.809017,-5.57605,-49.64961,194.3479,47.50021,-122.2169,17.67884,0.4806967,2.115408,-8.750463
11.43.00.517125, 0.3912706,1.155807,2.201755,-0.1495288,-46.6231,197.5159,47.50021,-122.2169,17.30938,0.7658278,2.296636,-8.962299
11.43.00.571129, 0.5002378,1.264563,2.469401,5.888089,-42.94814,201.3076,47.5002,-122.2169,16.92579,1.073362,2.374044,-9.180296
11.43.00.626132, 0.6167672,1.373067,2.628794,12.23246,-38.47819,205.69,47.5002,-122.2169,16.54739,1.415063,2.339514,-9.388302
11.43.00.678135, 0.7108077,1.472176,2.69966,18.55359,-33.08952,210.7349,47.50019,-122.2169,16.19147,1.785351,2.204829,-9.56522
11.43.00.733138, 0.7889789,1.54686,2.701056,24.5649,-26.71084,216.5244,47.50019,-122.2169,15.87676,2.205289,1.95916,-9.693304
11.43.00.788141, 0.7986134,1.597054,2.653469,29.87646,-19.2558,223.213,47.50018,-122.2169,15.61595,2.653585,1.636716,-9.75236
11.43.00.837144, 0.7385321,1.606058,2.587435,34.10759,-10.75305,230.8895,47.50018,-122.2169,15.42168,3.143118,1.235559,-9.731748
11.43.00.880146, 0.6822636,1.588363,2.557368,37.09116,-1.380484,239.4815,47.50018,-122.2169,15.29792,3.641983,0.8116953,-9.631004
11.43.00.919148, 0.6030039,1.548126,2.509784,38.60257,8.214274,248.3549,47.50017,-122.2169,15.2468,4.134508,0.3740431,-9.438131
11.43.00.958151, 0.5011352,1.502486,2.483503,38.66747,17.40864,256.8947,47.50017,-122.2169,15.25838,4.618835,-0.03306564,-9.171417
11.43.01.006153, 0.3974151,1.460614,2.491066,37.47636,25.93539,264.8252,47.50016,-122.2169,15.31949,5.088425,-0.385222,-8.848301
11.43.01.045156, 0.2993481,1.423096,2.536808,35.11473,33.91611,272.2586,47.50016,-122.2169,15.42281,5.556585,-0.6822025,-8.471338
11.43.01.089158, 0.2127173,1.389007,2.624351,31.69538,41.10168,278.9808,47.50016,-122.2169,15.55716,6.011859,-0.9090106,-8.058517
11.43.01.136161, 0.1375351,1.355218,2.759799,27.23792,47.52376,285.0679,47.50016,-122.2169,15.71405,6.456185,-1.062386,-7.620243
11.43.01.181163, 0.08723985,1.014253,2.941473,21.72915,52.44479,290.641,47.50015,-122.2169,15.87657,6.809432,-1.084357,-7.267502
11.43.01.232166, 0.008602976,0.5844218,3.179823,15.20969,55.57652,295.725,47.50015,-122.2169,16.04069,7.161747,-1.090898,-6.919631
11.43.01.286169, -0.09405968,0.03564952,3.496378,7.403223,56.682,300.6938,47.50014,-122.2169,16.20727,7.482243,-1.067705,-6.602999
11.43.01.335172, -0.2390591,-0.4930156,3.863143,-1.688992,55.6681,305.788,47.50014,-122.2168,16.37518,7.781848,-1.043141,-6.284906
11.43.01.378175, -0.4240846,-0.9545152,4.317287,-12.03793,52.49191,311.4848,47.50014,-122.2168,16.54559,8.043873,-1.039693,-5.957646
11.43.01.416177, -0.6470044,-1.340896,4.877944,-23.27008,46.97096,318.466,47.50014,-122.2168,16.71993,8.253109,-1.083324,-5.595582
11.43.01.454179, -0.902181,-1.647359,5.489668,-34.75333,38.43803,327.8886,47.50014,-122.2168,16.89795,8.408827,-1.152551,-5.171393
11.43.01.490181, -1.187256,-1.877577,6.092078,-45.54661,25.13208,341.916,47.50013,-122.2168,17.07971,8.535856,-1.22323,-4.667179
11.43.01.534184, -1.493995,-2.028563,6.641224,-53.60724,4.36562,3.610065,47.50013,-122.2168,17.2609,8.645765,-1.267172,-4.096217
11.43.01.575186, -1.80494,-2.100169,7.14158,-55.59199,-25.03057,34.46111,47.50013,-122.2168,17.44261,8.742655,-1.248976,-3.463341
11.43.01.614188, -2.106205,-2.067905,7.496746,-48.90894,-52.01686,63.19215,47.50013,-122.2168,17.60841,8.853771,-1.136304,-2.815298
11.43.01.652190, -2.328007,-1.994734,7.734086,-36.19582,-69.00005,82.2991,47.50013,-122.2168,17.74674,8.982793,-0.9582126,-2.170858
11.43.01.701193, -2.461852,-1.922243,7.82118,-20.86062,-78.56077,94.60777,47.50013,-122.2168,17.84145,9.113718,-0.6570988,-1.67504
11.43.01.748196, -2.502599,-1.869143,7.744215,-3.517995,-84.15643,104.0828,47.50013,-122.2168,17.88897,9.246619,-0.2849534,-1.300155
11.43.01.804199, -2.576507,-1.849372,7.556954,14.48285,-86.87451,112.4871,47.50013,-122.2168,17.87841,9.331742,0.1235606,-1.189258
11.43.01.847202, -0.5472368,-1.337199,7.204008,33.0302,-88.93098,115.1806,47.50013,-122.2168,17.82644,9.324595,0.3939336,-1.225432
11.43.01.903205, -0.610608,-0.9416582,6.87577,50.57111,-89.09589,117.8865,47.50013,-122.2168,17.73258,9.262156,0.6817043,-1.277686
11.43.01.941207, -0.6517136,-0.507879,6.236052,66.92984,-85.82494,122.4391,47.50013,-122.2168,17.59804,9.065268,0.9314912,-1.302759
11.43.02.142218, -0.592275,-0.1239298,5.646196,80.69815,-70.68334,136.9883,47.50013,-122.2168,17.42433,8.847467,1.24529,-1.268385
11.43.02.175220, -0.6553245,0.2051279,5.206871,83.21429,45.7882,259.9385,47.50013,-122.2168,17.19959,8.672536,1.550059,-1.230641
11.43.02.208222, -0.6434419,0.5094964,4.768242,72.37545,70.24635,280.6709,47.50013,-122.2168,16.94004,8.559672,1.915854,-1.090314
11.43.02.239224, -0.5997722,0.7601796,4.408797,62.26235,76.33594,284.547,47.50013,-122.2168,16.64587,8.510153,2.28671,-0.9103039
11.43.02.272226, -0.5460708,0.9858498,4.039203,53.46682,79.86069,285.7828,47.50013,-122.2168,16.32367,8.491046,2.659354,-0.6909973
11.43.02.306228, -0.487271,1.192365,3.640273,45.74445,82.80505,286.0939,47.50013,-122.2167,15.96425,8.487967,3.049153,-0.4453068
11.43.02.342230, -0.4279345,1.37849,3.22287,39.03313,85.66294,285.9241,47.50013,-122.2167,15.56331,8.492392,3.459578,-0.1915231
11.43.02.381232, -0.3694525,1.552457,2.75099,33.32743,88.66283,285.4492,47.50013,-122.2167,15.1116,8.490307,3.901206,0.06203474
11.43.02.433235, -0.314317,1.711608,2.232378,28.6186,91.9649,284.7637,47.50013,-122.2167,14.59226,8.476358,4.381304,0.3037195
11.43.02.486238, -0.268382,1.224714,2.678611,22.48909,94.42424,283.8012,47.50013,-122.2167,13.99206,8.603719,4.631137,0.4808629
11.43.02.536241, -0.2422362,0.7033766,3.149016,14.86312,95.78954,282.5017,47.50013,-122.2167,13.31081,8.69997,4.933722,0.6721456
11.43.02.584244, -0.2441859,0.2100346,3.67306,5.616806,96.09599,280.8485,47.50013,-122.2167,12.55282,8.764627,5.255476,0.8496475
11.43.02.636247, -0.2812855,-0.2432095,4.241879,-5.27032,95.52856,278.8483,47.50013,-122.2167,11.73163,8.803924,5.567148,1.026933
11.43.02.688250, -0.36384,-0.65623,4.87616,-18.12342,94.36214,276.3968,47.50013,-122.2167,10.84153,8.810006,5.866905,1.21768
11.43.02.724252, -0.5043452,-1.027066,5.538589,-32.87137,93.05357,273.2752,47.50013,-122.2167,9.89651,8.779092,6.162499,1.438027
11.43.02.757254, -0.7038018,-1.334662,6.159333,-48.66294,92.50791,268.9789,47.50013,-122.2167,8.942234,8.71517,6.458983,1.688149
11.43.02.788255, -0.9425614,-1.567098,6.70469,-64.60087,94.91039,261.5227,47.50013,-122.2167,8.010166,8.618519,6.76496,1.951626
11.43.02.821257, -1.198243,-1.719273,7.142102,-79.5919,113.5158,237.2372,47.50013,-122.2167,7.099215,8.498943,7.099898,2.191057
11.43.02.853259, -1.412022,-1.803739,7.452236,-80.27297,-141.5053,132.7135,47.50013,-122.2167,6.179738,8.386546,7.461187,2.424446
11.43.02.917263, -1.808541,-1.78975,7.642707,-50.19635,-117.4634,98.61736,47.50013,-122.2167,4.305545,8.216249,8.255918,2.567952
11.43.02.953265, -1.87407,-1.752959,7.530379,-35.2315,-117.5195,94.09407,47.50013,-122.2167,3.33855,8.178838,8.620093,2.638148
11.43.03.004268, -1.929027,-1.735933,7.350879,-20.40864,-118.8398,90.41971,47.50013,-122.2167,2.32437,8.186591,8.941223,2.544482
11.43.03.049270, -2.00208,-1.715132,7.042302,-4.578704,-121.257,86.72134,47.50013,-122.2167,1.169696,8.250853,9.166855,2.276962
11.43.03.091273, -2.08954,-1.673904,6.631341,10.9344,-124.6708,82.81951,47.50013,-122.2167,-0.03682515,8.323683,9.23765,1.920364
11.43.03.138275, -1.345097,-0.6804647,3.155416,18.7761,-126.4899,81.06109,47.50014,-122.2167,-1.147954,8.213276,8.37845,1.80116
11.43.06.261454, 0,0,0,0,0,0,47.50032,-122.2168,0,0,0,0
11.43.06.321457, -0.08293158,0.229731,-0.5056874,1.181146,0.8117288,153.8384,47.50032,-122.2168,0.2712163,-0.1245241,-1.805822,0.000332789
11.43.06.381461, -0.1367267,0.5564508,-0.8110859,0.8437176,2.261703,151.6544,47.50032,-122.2168,0.5802171,-0.2485146,-2.009721,-0.04625032
11.43.06.440464, -0.2208933,0.8211862,-1.08321,0.3556587,4.461251,148.6718,47.50032,-122.2168,0.8930103,-0.3638043,-2.000043,-0.09369118
11.43.06.500468, -0.3125957,1.036175,-1.329095,-0.2225087,7.300788,144.9353,47.50032,-122.2168,1.203195,-0.4854828,-1.957672,-0.1517504
11.43.06.560471, -0.339642,1.096533,-1.552612,-0.613025,10.3656,140.5075,47.50032,-122.2168,1.507775,-0.6080821,-1.905756,-0.1965545
11.43.06.620475, -0.3643211,1.113211,-1.757622,-0.7305813,13.51822,135.4506,47.50031,-122.2168,1.803925,-0.74458,-1.840496,-0.2639213
11.43.06.677478, -0.3692594,0.882137,-1.94448,-0.4586013,16.0258,129.847,47.50031,-122.2168,2.090724,-0.861306,-1.774302,-0.329446
11.43.06.729481, -0.3653387,0.6710225,-2.118955,0.2060011,17.8936,123.7609,47.50031,-122.2168,2.364592,-0.9859925,-1.688426,-0.4149595
11.43.06.778484, -0.3510623,0.3190382,-2.279494,1.245456,18.66468,117.253,47.50031,-122.2168,2.626956,-1.091405,-1.614207,-0.4990552
11.43.06.822486, -0.3217969,0.0159057,-2.420183,2.562733,18.42892,110.4427,47.50031,-122.2168,2.873953,-1.192045,-1.530276,-0.5912543
11.43.06.863488, -0.2774658,-0.2447671,-2.523803,4.014232,17.31254,103.5632,47.50031,-122.2168,3.102018,-1.281159,-1.452825,-0.6809291
11.43.06.907491, -0.2236312,-0.4599985,-2.605973,5.475282,15.48839,96.72634,47.50031,-122.2168,3.310977,-1.358588,-1.382972,-0.7634235
11.43.06.950493, -0.1626703,-0.6445768,-2.674551,6.895944,13.01971,89.77557,47.50031,-122.2168,3.508495,-1.427715,-1.323069,-0.8372979
11.43.06.993496, -0.09544315,-0.8028117,-2.731263,8.191689,10.00757,82.75712,47.50031,-122.2168,3.695375,-1.490797,-1.27372,-0.8983769
11.43.07.039499, -0.03094904,-0.9395455,-2.778324,9.279134,6.534629,75.67617,47.50031,-122.2168,3.873683,-1.547277,-1.233861,-0.9442913
11.43.07.082501, 0.03720419,-1.055696,-2.810025,10.1195,2.605363,68.40563,47.50031,-122.2168,4.048447,-1.604566,-1.201497,-0.9728281
11.43.07.127504, 0.107099,-1.154579,-2.838307,10.63857,-1.639736,61.07431,47.50031,-122.2168,4.21788,-1.664739,-1.173903,-0.981591
11.43.07.179507, 0.1633151,-1.239249,-2.867032,10.75861,-6.177412,53.59801,47.50031,-122.2168,4.385108,-1.726448,-1.152735,-0.9688927
11.43.07.225509, 0.2166763,-1.309974,-2.901741,10.40789,-11.03413,45.80178,47.50031,-122.2168,4.553393,-1.800074,-1.125581,-0.9342895
11.43.07.269512, 0.2596271,-1.365182,-2.9392,9.508269,-15.93276,37.99297,47.50031,-122.2168,4.715987,-1.883598,-1.092527,-0.8773974
11.43.07.307514, 0.3047365,-1.406441,-2.980328,8.061347,-20.72895,30.25082,47.50031,-122.2168,4.869603,-1.981448,-1.043419,-0.8039365
11.43.07.345516, 0.3434668,-1.41302,-3.020948,6.131985,-25.12208,22.85611,47.50031,-122.2168,5.008005,-2.087028,-0.9813375,-0.7220205
11.43.07.378518, 0.3807269,-1.410459,-3.063235,3.786124,-29.0825,15.76781,47.50031,-122.2168,5.130392,-2.202926,-0.8997982,-0.635511
11.43.07.411520, 0.4162691,-1.405494,-3.104084,1.1516,-32.52362,9.111746,47.50031,-122.2168,5.233237,-2.32434,-0.8010454,-0.5509639
11.43.07.446522, 0.4476204,-1.242255,-3.141953,-1.72298,-35.15614,2.777142,47.50031,-122.2168,5.321623,-2.43473,-0.7201117,-0.476684
11.43.07.510525, 0.491316,-0.8808902,-3.220813,-7.918198,-38.08913,350.6849,47.50031,-122.2168,5.454505,-2.668657,-0.5162671,-0.3346972
11.43.07.545527, 0.504784,-0.5973706,-3.260785,-11.11214,-38.2563,344.779,47.50031,-122.2168,5.502351,-2.778133,-0.4326067,-0.2683735
11.43.07.612531, 0.497344,-0.03165626,-3.349551,-17.43705,-35.84147,332.7216,47.50031,-122.2168,5.564858,-3.00199,-0.2479576,-0.1374662
11.43.07.647533, 0.4870302,0.2268358,-3.393898,-20.50077,-33.22916,326.2261,47.50031,-122.2168,5.580546,-3.116144,-0.154885,-0.07687106
11.43.07.707537, 0.4301705,0.661854,-3.483722,-25.78209,-25.53045,312.4599,47.50031,-122.2168,5.584117,-3.346323,0.004282217,0.06322766
11.43.07.744539, 0.4067408,0.83464,-3.522177,-27.76924,-20.70249,305.2935,47.50031,-122.2169,5.57573,-3.457355,0.05956115,0.1358106
11.43.07.806542, 0.3431901,1.114649,-3.588546,-30.2056,-9.144428,289.8767,47.50031,-122.2169,5.544358,-3.684649,0.1464321,0.3172399
11.43.07.841544, 0.325249,1.219281,-3.608538,-30.44236,-2.864468,282.0202,47.50031,-122.2169,5.524589,-3.793869,0.1659647,0.421437
11.43.07.906548, 0.2896651,1.383416,-3.617014,-28.76234,10.04727,266.4113,47.50031,-122.2169,5.479502,-4.008969,0.2005238,0.6737018
11.43.07.941550, 0.2891354,1.445978,-3.600094,-26.82878,16.28646,259.0162,47.50031,-122.2169,5.454858,-4.109647,0.2086473,0.8220966
11.43.08.007554, 0.2967921,1.556485,-3.518278,-21.01362,27.68859,245.6703,47.50031,-122.2169,5.396623,-4.296866,0.2661647,1.155914
11.43.08.044556, 0.3009951,1.532066,-3.451591,-17.34786,32.5617,239.8867,47.50031,-122.2169,5.360476,-4.386146,0.3115868,1.325539
11.43.08.079558, 0.3064747,1.48426,-3.369164,-13.19159,36.95257,234.5149,47.50031,-122.2169,5.315141,-4.472746,0.3809569,1.506927
11.43.08.113560, 0.3156927,1.43036,-3.270943,-8.774246,40.7303,229.7216,47.50031,-122.2169,5.259226,-4.554176,0.4747171,1.691392
11.43.08.150562, 0.3331797,1.161481,-3.155,-4.214536,43.53082,225.4812,47.50031,-122.2169,5.19778,-4.636076,0.5241464,1.871719
11.43.08.186564, 0.3612854,0.8571633,-3.027639,0.4910917,45.41158,221.6207,47.50031,-122.2169,5.126529,-4.711339,0.5988692,2.056761
11.43.08.226566, 0.3991171,0.5610763,-2.88948,5.218369,46.41162,218.1081,47.50031,-122.2169,5.042644,-4.780912,0.698984,2.239203
11.43.08.289570, 0.5196795,0.0249062,-2.586478,14.48678,46.08009,211.9429,47.50032,-122.2169,4.831639,-4.900381,0.9326609,2.615237
11.43.08.329572, 0.565136,-0.1988004,-2.425371,18.69237,44.97628,209.304,47.50032,-122.2169,4.709027,-4.954451,1.055798,2.787073
11.43.08.393576, 0.6644804,-0.6170475,-2.096606,26.62681,41.0829,204.3642,47.50032,-122.2169,4.41671,-5.040285,1.290791,3.170776
11.43.08.427578, 0.7011261,-0.7977235,-1.937433,30.13239,38.49459,202.1114,47.50032,-122.2169,4.257423,-5.075244,1.388432,3.368618
11.43.08.487581, 0.7535513,-1.115039,-1.62888,36.33795,32.22175,197.8241,47.50032,-122.2169,3.915854,-5.111574,1.549056,3.799789
11.43.08.523583, 0.7440735,-1.249365,-1.482095,38.95736,28.68519,195.7745,47.50032,-122.2169,3.742123,-5.117614,1.595324,4.024294
11.43.08.578587, 0.697767,-1.48164,-1.198141,43.3914,20.78304,191.6999,47.50032,-122.2169,3.385399,-5.08092,1.655166,4.505302
11.43.08.638590, 0.6204756,-1.649048,-0.9412566,46.62399,12.57356,187.9596,47.50033,-122.2169,3.044643,-4.975608,1.660522,4.995104
11.43.08.690593, 0.4919034,-1.77336,-0.7034092,48.86823,4.061866,184.5427,47.50033,-122.2169,2.712196,-4.791551,1.630703,5.495146
11.43.08.744596, 0.3185177,-1.959348,0.08613764,50.08022,-2.459823,184.1014,47.50033,-122.2169,2.411909,-4.406803,1.563323,5.924266
11.43.08.798599, 0.09905582,-2.091902,0.7669668,50.68579,-6.706338,187.0807,47.50034,-122.2169,2.13174,-3.960924,1.488248,6.334346
11.43.08.853602, -0.1638143,-2.228834,1.684224,50.85952,-7.987112,194.6258,47.50034,-122.2169,1.862402,-3.36847,1.399672,6.686397
11.43.08.908605, -1.105674,-2.282125,2.661261,49.3314,-5.84655,206.7253,47.50034,-122.2169,1.643308,-2.695914,1.012132,6.923794
11.43.08.964609, -2.128472,-2.321063,3.765358,43.4139,-0.9281947,223.2468,47.50035,-122.2169,1.518153,-1.977474,0.5752068,7.005919
11.43.09.025612, -2.379873,-2.182032,4.528412,35.43918,3.347592,240.3138,47.50035,-122.2169,1.435508,-1.376578,0.3922567,7.033977
11.43.09.090616, -2.592032,-1.727264,5.197904,24.75776,7.070407,258.7989,47.50035,-122.2169,1.388493,-0.8747246,0.14952,7.011927
11.43.09.130618, -2.665981,-1.48892,5.422208,18.67345,8.301137,268.0219,47.50035,-122.2169,1.385739,-0.6782707,0.004507703,6.999067
11.43.09.192622, -2.751685,-1.066373,5.83588,4.8816,8.96969,287.7145,47.50036,-122.2169,1.422709,-0.4418496,-0.2417608,6.96312
11.43.09.229624, -2.76377,-0.9644321,5.994478,-1.901981,7.950899,297.6666,47.50036,-122.2169,1.455174,-0.4130994,-0.3216496,6.958138
11.43.09.288627, -2.779637,-0.8400524,6.185943,-14.79056,2.453331,319.6277,47.50037,-122.2169,1.513158,-0.4623645,-0.2328522,7.025499
11.43.09.353631, -2.73657,-0.8556255,6.067247,-24.22709,-7.860556,343.7068,47.50037,-122.2169,1.516529,-0.4873923,0.08139556,7.161181
11.43.09.415634, -2.676767,-0.864076,5.709919,-28.6961,-21.81436,9.687731,47.50037,-122.2169,1.419047,-0.3874803,0.5922375,7.268012
11.43.09.470638, -2.577817,-0.8363026,5.179053,-28.00819,-35.50562,33.64372,47.50038,-122.2169,1.213208,-0.1778938,1.173263,7.270084
11.43.09.531641, -2.217117,-0.776262,4.551418,-23.72877,-46.27243,53.19137,47.50038,-122.2169,0.9056377,0.04751361,1.703799,7.165473
11.43.09.588644, -1.886303,-0.7003571,3.861539,-17.56621,-53.60383,68.04851,47.50039,-122.2169,0.5066566,0.2432827,2.166795,7.018137
11.43.09.625646, -1.767308,-0.4368347,3.568474,-14.41002,-55.88139,74.18115,47.50039,-122.2169,0.2900937,0.3255315,2.253098,7.040104
11.43.09.693650, 1.414758,-0.5363824,9.175432,8.478262,-53.87371,90.90784,47.50039,-122.2169,-0.008505834,0.2970708,0.9863742,6.707656
11.43.09.727652, 2.87939,2.528984,9.674345,26.14349,-47.9598,97.52332,47.50039,-122.2169,-0.04227418,0.2754232,0.3151779,6.624703
11.43.09.794656, -3.327074,7.03644,3.059289,31.65309,-13.79441,117.094,47.5004,-122.2169,0.6437181,-0.3846286,-3.648739,5.853667
11.43.09.834658, -2.801045,6.811551,3.390627,27.68699,3.809292,125.715,47.5004,-122.2169,1.001715,-0.3816842,-3.272042,5.796104
11.43.09.874661, -2.264047,6.593574,3.626053,22.46133,20.51301,133.2862,47.5004,-122.2169,1.33137,-0.3758519,-2.881974,5.750297
11.43.09.924664, -1.718892,6.397632,3.783398,16.24391,36.14003,139.6807,47.5004,-122.2169,1.625413,-0.3690157,-2.487607,5.712963
11.43.09.970666, -1.143443,6.209165,3.876157,8.867678,51.7035,145.3681,47.5004,-122.2169,1.893175,-0.3645251,-2.067981,5.679467
11.43.10.014669, -0.5807843,6.041405,3.899937,0.7502449,66.50005,150.0344,47.50041,-122.2169,2.113506,-0.364474,-1.640092,5.65178
11.43.10.055671, -0.0429394,5.890978,3.862449,-7.767652,80.39137,153.6855,47.50041,-122.2169,2.277953,-0.3672366,-1.213332,5.63409
11.43.10.099674, 0.4578095,5.722347,3.761229,-16.41547,93.38848,156.3961,47.50041,-122.2169,2.38504,-0.3736111,-0.7974735,5.62507
11.43.10.144676, 0.9260988,5.571746,3.606663,-25.26028,106.0394,158.3378,47.50041,-122.2169,2.435967,-0.3788548,-0.3790566,5.617201
11.43.10.181678, 1.36293,5.447296,3.405962,-34.20767,118.6126,159.4826,47.50042,-122.2169,2.428729,-0.3780285,0.04224067,5.605405
11.43.10.213680, 1.75177,5.342662,3.178189,-42.83713,131.0038,159.6066,47.50042,-122.2169,2.366637,-0.3714143,0.4483498,5.588197
11.43.10.248682, 2.083622,5.257193,2.931143,-50.85738,143.4192,158.4648,47.50042,-122.2169,2.259609,-0.3580734,0.8284698,5.566274
11.43.10.300685, 2.619419,5.116495,2.399413,-65.14537,172.0322,150.1803,47.50042,-122.2169,1.933351,-0.3204227,1.525843,5.507209
11.43.10.348688, 2.976174,4.995196,1.869846,-74.73727,-145.2733,125.1706,47.50043,-122.2169,1.519127,-0.2932311,2.12937,5.435126
11.43.10.395690, 3.19817,4.884874,1.372075,-75.65421,-86.47609,80.98418,47.50043,-122.2169,1.056073,-0.282234,2.667035,5.365422
11.43.10.440693, 3.329584,4.782306,0.8908574,-69.27326,-46.10152,52.64151,47.50043,-122.2169,0.5381104,-0.2790842,3.178515,5.305697
11.43.10.486696, 3.389241,4.691865,0.4345138,-60.76011,-22.91501,41.21648,47.50043,-122.2169,-0.03332346,-0.2769219,3.671027,5.257591
11.43.10.533698, 2.078244,2.715985,0.8954949,-54.3055,-14.16321,40.7054,47.50043,-122.2169,-0.2629204,-0.03991994,0.7704788,4.670268
11.43.10.572701, 2.057928,2.038855,1.190398,-48.34652,-10.57395,43.27446,47.50044,-122.2169,-0.1891075,0.1329675,-0.7605605,4.231985
11.43.10.617703, 2.044889,1.771644,1.171935,-42.68553,-8.082227,46.10593,47.50044,-122.2169,-0.03079535,0.1980998,-1.125419,4.027215
11.43.10.662706, 2.049808,1.751542,1.055146,-37.19592,-5.427032,48.67939,47.50044,-122.2169,0.1176721,0.2097319,-0.9537344,3.942934
11.43.10.708708, 2.073873,1.769739,0.9367402,-31.77868,-2.362939,51.02267,47.50044,-122.2169,0.2140344,0.206888,-0.5508666,3.91532
11.43.10.754711, 2.09489,1.717208,0.8336532,-26.20903,1.010245,53.3562,47.50044,-122.2169,0.2472154,0.2044832,-0.1073106,3.894384
11.43.10.807714, 2.113527,1.423012,0.7974074,-20.636,4.009309,55.8133,47.50045,-122.2169,0.2233711,0.2024362,0.2408311,3.847887
11.43.10.869718, 2.176333,0.8484896,0.8236855,-14.5709,5.955966,58.73877,47.50045,-122.2169,0.15531,0.1930188,0.4532473,3.753554
11.43.10.940722, 2.198824,-0.2797507,0.9154862,-7.770144,5.485007,62.31797,47.50045,-122.2169,0.08204214,0.1600379,0.3188492,3.548419
11.43.11.011726, 1.993029,-1.311859,0.9923959,-0.6020516,0.8937751,66.37292,47.50045,-122.2169,0.07002766,0.1034426,-0.05382886,3.258248
11.43.11.047728, 1.804959,-1.270486,0.9786943,2.806627,-1.545128,68.26013,47.50045,-122.2169,0.08013639,0.07994355,-0.09360468,3.148782
11.43.11.115732, 1.470718,-1.111467,0.9418738,8.930308,-5.7445,71.61661,47.50045,-122.2169,0.09736478,0.04162418,-0.0648563,2.959378
11.43.11.149734, 1.316179,-0.9975948,0.9142298,11.65453,-7.450249,73.13523,47.50045,-122.2169,0.09941448,0.02488488,-0.02190706,2.872628
11.43.11.216737, 0.006345971,-0.7718964,0.3879804,12.02234,-10.47227,74.66177,47.50046,-122.2169,0.1408505,0.001017751,-0.1236226,2.65179
11.43.11.251739, -0.09283742,-0.6006123,0.3549321,11.96938,-11.48692,75.3884,47.50046,-122.2169,0.1419177,-0.002470661,-0.01319406,2.585684
11.43.11.286741, -0.1925344,-0.4211793,0.3196735,11.72466,-12.16257,76.09071,47.50046,-122.2169,0.1329798,-0.004930827,0.07554424,2.514436
11.43.11.333744, -0.2399561,-0.2021056,0.3124494,11.3904,-12.41556,76.81087,47.50046,-122.2169,0.1210441,-0.006197763,0.1019675,2.426777
11.43.11.368746, -0.2591562,0.06192378,0.3256032,10.99632,-12.12067,77.63116,47.50046,-122.2169,0.1088986,-0.006917215,0.09480053,2.323021
11.43.11.403748, -0.2694979,0.3417409,0.343499,10.58916,-11.23344,78.48154,47.50046,-122.2169,0.09936091,-0.007641817,0.07439186,2.217275
11.43.11.443750, -0.2867039,0.5037119,0.3473085,10.14342,-10.03003,79.32399,47.50046,-122.2169,0.09572517,-0.008092313,0.02713692,2.106297
11.43.11.477752, -0.3144947,0.6047853,0.3404901,9.607426,-8.588786,80.17383,47.50046,-122.2169,0.09567404,-0.008336163,-0.003667409,1.996383
11.43.11.514754, -0.3526671,0.6433746,0.3227218,8.976316,-7.107763,80.96875,47.50046,-122.2169,0.09641966,-0.00796609,-0.009544431,1.894157
11.43.11.549756, -0.3985553,0.6255139,0.3001789,8.222577,-5.67854,81.71269,47.50046,-122.2169,0.09613325,-0.006577103,-0.0009481909,1.794905
11.43.11.585759, -0.447138,0.5656774,0.2733708,7.352997,-4.407712,82.38377,47.50046,-122.2169,0.09427108,-0.003902561,0.01208056,1.69731
11.43.11.619760, -0.4946461,0.4795779,0.2484223,6.371536,-3.339625,82.98765,47.50047,-122.2169,0.09137525,0.0002571311,0.02190349,1.598864
11.43.11.655763, -0.5372463,0.3858295,0.2248752,5.301884,-2.493275,83.52249,47.50047,-122.2169,0.08790645,0.005910113,0.02621798,1.499802
11.43.11.689764, -0.5730914,0.2975225,0.2064001,4.149848,-1.841851,84.00671,47.50047,-122.2169,0.08470031,0.01304993,0.02556143,1.399101
11.43.11.729767, -0.5606567,0.105366,0.1945674,3.029533,-1.598022,84.44717,47.50047,-122.2169,0.08642504,0.0229149,-0.01749396,1.287608
11.43.11.761769, -0.5376329,-0.02948313,0.1891631,1.917872,-1.637328,84.88394,47.50047,-122.2169,0.08957281,0.03291316,-0.02799095,1.181695
11.43.11.798771, -0.5046401,-0.1057672,0.1899736,0.9057143,-1.838198,85.30771,47.50047,-122.2169,0.09179901,0.04242922,-0.02099147,1.083639
11.43.11.832773, -0.4592236,-0.1444317,0.1961547,-0.021795,-2.12748,85.74811,47.50047,-122.2169,0.09293109,0.05169347,-0.01135665,0.9853482
11.43.11.895776, -0.3305441,-0.2178755,0.2302314,-1.43009,-3.02816,86.70766,47.50047,-122.2169,0.09326209,0.0669415,0.0007039615,0.7486289
11.43.11.933778, -0.2712323,-0.1417549,0.2443965,-1.928553,-3.314606,87.21193,47.50047,-122.2169,0.09276104,0.06959292,0.003622845,0.6543949
11.43.11.967780, -0.2130729,-0.03776912,0.2559184,-2.322202,-3.407634,87.74878,47.50047,-122.2169,0.0924006,0.06894277,0.003164165,0.5670779
11.43.12.001782, -0.1580658,0.06389902,0.2642862,-2.603143,-3.303054,88.2924,47.50047,-122.2169,0.09224422,0.06525376,0.0006194742,0.4883404
11.43.12.036784, -0.1074202,0.1476681,0.2687657,-2.783276,-3.037367,88.83397,47.50047,-122.2169,0.09242816,0.05921029,-0.001635149,0.4175723
11.43.12.070786, -0.06065638,0.2068727,0.2709633,-2.874471,-2.654757,89.37653,47.50047,-122.2169,0.0926675,0.05148504,-0.003000141,0.3534215
11.43.12.103788, -0.01856351,0.2381237,0.2699951,-2.886233,-2.212722,89.90979,47.50047,-122.2169,0.09313384,0.04280324,-0.003922141,0.2963549
11.43.12.139790, 0.01804498,0.2457019,0.2665648,-2.830924,-1.759951,90.42758,47.50047,-122.2169,0.09335713,0.03384291,-0.002898393,0.2468281
11.43.12.174792, 0.04982307,0.2341502,0.2610309,-2.716112,-1.320809,90.94162,47.50047,-122.2169,0.09369127,0.02478501,-0.002060142,0.2029646
11.43.12.211794, 0.07608681,0.2098639,0.2543646,-2.552632,-0.926165,91.44416,47.50047,-122.2169,0.09372817,0.01613368,-0.00104849,0.1654306
11.43.12.248796, 0.09681901,0.1785564,0.2464149,-2.349019,-0.5876224,91.93699,47.50047,-122.2169,0.09371242,0.008091814,0.0001361797,0.1336334
11.43.12.282798, 0.1122918,0.1449121,0.2378566,-2.113807,-0.3105074,92.42019,47.50047,-122.2169,0.09355475,0.0008181718,0.0004903682,0.1070236
11.43.12.319801, 0.1219998,0.1131031,0.2290167,-1.864778,-0.0990397,92.87938,47.50047,-122.2169,0.09348521,-0.005363354,0.001363596,0.08580558
11.43.12.353802, 0.1268187,0.08490517,0.2199893,-1.60411,0.06026199,93.32736,47.50047,-122.2169,0.09330672,-0.01064083,0.001521414,0.0684344
11.43.12.386804, 0.1270168,0.06229623,0.211243,-1.348704,0.1738042,93.75078,47.50047,-122.2169,0.09305169,-0.01485528,0.001343202,0.05475395
11.43.12.419806, 0.1233917,0.04446989,0.2028791,-1.104774,0.2526368,94.15231,47.50047,-122.2169,0.09284709,-0.01810803,0.001695239,0.04388428
11.43.12.454808, 0.1164383,0.03174141,0.1948834,-0.8771266,0.3077252,94.53502,47.50047,-122.2169,0.09266337,-0.02051312,0.001629113,0.03509705
11.43.12.490810, 0.1068228,0.02258783,0.1872336,-0.6690052,0.3464891,94.90244,47.50047,-122.2169,0.09253247,-0.0221585,0.001162376,0.02781313
11.43.12.530813, 0.09493498,0.01623343,0.1798498,-0.4819992,0.3746325,95.26017,47.50047,-122.2169,0.09239334,-0.02312046,0.001017899,0.02158928
11.43.12.562814, 0.08086478,0.01182541,0.1725768,-0.3173477,0.3960379,95.61607,47.50047,-122.2169,0.09225785,-0.02344241,0.001145917,0.01605109
11.43.12.596816, 0.0659522,0.009572892,0.1658366,-0.1867565,0.4134664,95.94991,47.50047,-122.2169,0.09211921,-0.0231373,0.001201552,0.01134078
11.43.12.633818, 0.05064539,0.008146352,0.1594691,-0.08780923,0.4287049,96.26849,47.50047,-122.2169,0.0919782,-0.02230233,0.000994572,0.007156427
11.43.12.697822, 0.02010491,0.006500325,0.1476005,0.01820644,0.4554461,96.87054,47.50047,-122.2169,0.09185971,-0.0193125,0.0002468762,-0.0001352065
11.43.12.734824, 0.005980609,0.005834122,0.1422266,0.02763072,0.4668658,97.1469,47.50047,-122.2169,0.09181116,-0.01736022,0.0002191814,-0.003262151
11.43.12.798828, -0.01946059,0.004653251,0.1320415,-0.02920293,0.4867889,97.67418,47.50047,-122.2169,0.09188993,-0.01274261,-0.0004486685,-0.008901055
11.43.12.837830, -0.0302628,0.004136291,0.1273369,-0.08956768,0.494626,97.91948,47.50047,-122.2169,0.09192103,-0.01027324,-0.0004369114,-0.0113651
11.43.12.901834, -0.04785271,0.003162263,0.1181991,-0.2672804,0.50707,98.39611,47.50047,-122.2169,0.09209726,-0.005079144,-0.0005948837,-0.01585375
11.43.12.937836, -0.05402043,0.002761277,0.113969,-0.3737524,0.5113857,98.61669,47.50047,-122.2169,0.09225895,-0.002591569,-0.0008347663,-0.01776442
11.43.12.999839, -0.06145005,0.00219592,0.1059662,-0.6089486,0.5169623,99.03307,47.50047,-122.2169,0.09245985,0.002009547,-0.0009695865,-0.02102191
11.43.13.035841, -0.06288011,0.001992548,0.102248,-0.7294251,0.5186825,99.2262,47.50047,-122.2169,0.09250378,0.004003792,-0.0006149792,-0.0223547
11.43.13.100845, -0.05884982,-0.005042056,0,-0.9631107,0.5119551,99.22626,47.50047,-122.2169,0.09267788,0,-0.0008168171,0
11.43.13.136847, -0.05370808,-0.008701751,0,-1.065288,0.4954159,99.22628,47.50047,-122.2169,0.09277352,0,-0.0008779422,0
11.43.13.200851, -0.04135212,-0.009442733,0,-1.236068,0.4580052,99.22643,47.50047,-122.2169,0.0929414,0,-0.0003323716,0
11.43.13.237853, -0.03434321,-0.00745099,0,-1.301332,0.4438569,99.2265,47.50047,-122.2169,0.09295658,0,-0.0001394569,0
11.43.13.312857, -0.01995129,-0.003308534,0,-1.393064,0.427049,99.22665,47.50047,-122.2169,0.09295548,0,-5.387068E-05,0
11.43.13.348859, -0.01266461,-0.001631384,0,-1.419107,0.423699,99.22671,47.50047,-122.2169,0.09297846,0,-0.0001951073,0
11.43.13.382861, -0.005777461,3.683017E-06,0,-1.430985,0.4237087,99.22672,47.50047,-122.2169,0.0929926,0,-0.0002955881,0
11.43.13.414863, 0.0003988366,0.0009872777,0,-1.430178,0.4257064,99.22672,47.50047,-122.2169,0.09302519,0,-0.0002812804,0
11.43.13.478867, 0.009994137,0.001135768,0,-1.399646,0.4302592,99.22666,47.50047,-122.2169,0.09301873,0,0.0003101132,0
11.43.13.517869, 0.01381781,0.001349459,0,-1.373089,0.4328481,99.22662,47.50047,-122.2169,0.09299413,0,0.0002235393,0
11.43.13.550871, 0.01685702,0.00110217,0,-1.339536,0.435036,99.22655,47.50047,-122.2169,0.09296919,0,0.0002187606,0
11.43.13.585873, 0.01906913,0.0009868795,0,-1.30195,0.4369746,99.2265,47.50047,-122.2169,0.09291903,0,0.0004441146,0
11.43.13.621875, 0.02043848,0.001162816,0,-1.261453,0.4392717,99.22643,47.50047,-122.2169,0.09299326,0,0.0002281471,0
11.43.13.656877, 0.02111694,0.0004452023,0,-1.219282,0.4401539,99.22636,47.50047,-122.2169,0.09295006,0,0.0003778251,0
11.43.13.693879, 0.02111356,-0.0002035506,0,-1.177044,0.4397398,99.2263,47.50047,-122.2169,0.09288798,0,0.0005385152,0
11.43.13.735882, 0.02038558,-0.0003989259,0,-1.135587,0.4389221,99.22623,47.50047,-122.2169,0.09285559,0,0.0002781972,0
11.43.13.769883, 0.01906495,-0.0007709225,0,-1.095,0.4372748,99.22616,47.50047,-122.2169,0.09281861,0,0.0003033129,0
11.43.13.837887, 0.01529818,-0.0006112294,0,-1.028155,0.434389,99.22605,47.50047,-122.2169,0.09282273,0,-1.827043E-05,0
11.43.13.875890, 0.01308721,-0.0003008323,0,-1.001667,0.4337766,99.22601,47.50047,-122.2169,0.0928142,0,7.366198E-05,0
11.43.13.916892, 0.01071437,-0.0001154421,0,-0.9795107,0.4335349,99.22597,47.50047,-122.2169,0.09280366,0,8.642396E-05,0
11.43.13.951894, 0.0081953,0.000230009,0,-0.9619783,0.4340247,99.22594,47.50047,-122.2169,0.09278134,0,0.0001821325,0
11.43.13.984896, 0.005641419,0.000212904,0,-0.9501404,0.43447,99.22593,47.50047,-122.2169,0.09274581,0,0.000295747,0
11.43.14.021898, 0.003238741,0.0002112984,0,-0.9434662,0.4349047,99.22591,47.50047,-122.2169,0.09270958,0,0.0003065783,0
11.43.14.054900, 0.001186043,0.000218773,0,-0.9410202,0.4353556,99.22591,47.50047,-122.2169,0.09272596,0,-0.0001387142,0
11.43.14.088902, -0.000789999,1.129799E-05,0,-0.9426168,0.4353786,99.22591,47.50047,-122.2169,0.09269848,0,0.0002375003,0
11.43.14.124904, -0.002178887,0.0001031955,0,-0.9469813,0.4355858,99.22591,47.50047,-122.2169,0.09271917,0,-0.0001785849,0
11.43.14.159906, -0.0035268,0.0001643706,0,-0.9541158,0.4359193,99.22593,47.50047,-122.2169,0.09275672,0,-0.000324091,0
11.43.14.196908, -0.004738896,-0.0002322653,0,-0.9637044,0.4354506,99.22594,47.50047,-122.2169,0.0927522,0,3.900296E-05,0
11.43.14.235910, -0.005604778,-0.0004873002,0,-0.9751521,0.4344566,99.22595,47.50047,-122.2169,0.09273598,0,0.0001431656,0
11.43.14.269912, -0.006236901,-0.0004381001,0,-0.9881335,0.4335465,99.22598,47.50047,-122.2169,0.09272885,0,5.987189E-05,0
11.43.14.305914, -0.00651898,-0.0002005141,0,-1.001572,0.4331349,99.22601,47.50047,-122.2169,0.09273789,0,-7.667324E-05,0
11.43.14.338916, -0.006586669,-6.344941E-05,0,-1.01509,0.4330064,99.22604,47.50047,-122.2169,0.09275262,0,-0.0001199296,0
11.43.14.379918, -0.00646812,1.682121E-05,0,-1.028151,0.4330421,99.22605,47.50047,-122.2169,0.09276801,0,-0.0001331127,0
11.43.14.416920, -0.006168347,6.894119E-05,0,-1.041089,0.4331884,99.22607,47.50047,-122.2169,0.09278435,0,-0.0001359489,0
11.43.14.448922, -0.0057118,0.0001031477,0,-1.053066,0.4334064,99.2261,47.50047,-122.2169,0.09280116,0,-0.0001345262,0
11.43.14.481924, -0.005126877,0.0001270045,0,-1.063497,0.4336663,99.22612,47.50047,-122.2169,0.09281638,0,-0.000130504,0
11.43.14.517926, -0.004415297,0.0001457849,0,-1.072325,0.433959,99.22614,47.50047,-122.2169,0.09283062,0,-0.0001244216,0
11.43.14.551928, -0.003717249,0.0001625504,0,-1.079826,0.4342881,99.22614,47.50047,-122.2169,0.09282055,0,9.245731E-05,0
11.43.14.620932, -0.002277228,0.0001944027,0,-1.090275,0.4350264,99.22616,47.50047,-122.2169,0.09281168,0,0.0001232151,0
11.43.14.655934, -0.001522036,-6.293938E-06,0,-1.093321,0.4350142,99.22617,47.50047,-122.2169,0.09282654,0,-0.0001251454,0
11.43.14.723938, 1.900789E-05,-0.000211392,0,-1.094735,0.4343389,99.22617,47.50047,-122.2169,0.09280999,0,-7.483907E-05,0
11.43.14.761940, 0.0003837519,-0.0002697328,0,-1.093973,0.4338033,99.22617,47.50047,-122.2169,0.09283027,0,-0.0001740312,0
11.43.14.799942, 0.000705904,-0.0003169011,0,-1.092535,0.4331577,99.22617,47.50047,-122.2169,0.09280477,0,0.0002185985,0
11.43.14.837945, 0.000975988,-0.0001328224,0,-1.090517,0.4328827,99.22616,47.50047,-122.2169,0.0928022,0,2.177231E-05,0
11.43.14.869946, 0.001186051,0.0002035342,0,-1.088032,0.4333089,99.22616,47.50047,-122.2169,0.09281973,0,-0.0001440274,0
11.43.14.905948, 0.001322706,0.00018684,0,-1.08534,0.4336887,99.22616,47.50047,-122.2169,0.09285404,0,-0.0002944696,0
11.43.14.943951, 0.001437957,0.0001830721,0,-1.082408,0.4340616,99.22614,47.50047,-122.2169,0.09284431,0,8.319187E-05,0
11.43.14.978953, 0.001494578,-3.753958E-05,0,-1.079319,0.4339835,99.22614,47.50047,-122.2169,0.09280809,0,0.0003081283,0
11.43.15.017955, 0.001532831,5.110293E-05,0,-1.076173,0.434088,99.22614,47.50047,-122.2169,0.09280168,0,5.455238E-05,0
11.43.15.052957, 0.001527668,-0.0001206006,0,-1.072954,0.4338334,99.22614,47.50047,-122.2169,0.09281786,0,-0.0001340177,0
11.43.15.084959, 0.001472273,-9.398707E-07,0,-1.069895,0.433831,99.22614,47.50047,-122.2169,0.09285331,0,-0.0002959239,0
11.43.15.121961, 0.001254929,6.877307E-05,0,-1.067359,0.4339697,99.22614,47.50047,-122.2169,0.09282015,0,0.000286424,0
11.43.15.182964, 0.0009951574,0.0001453405,0,-1.063158,0.4344876,99.22614,47.50047,-122.2169,0.09281845,0,-2.826388E-05,0
11.43.15.220966, 0.000841009,-3.983852E-05,0,-1.061546,0.434411,99.22614,47.50047,-122.2169,0.09283517,0,-0.0001524219,0
11.43.15.254968, 0.0006728587,-0.0001640277,0,-1.06021,0.4340852,99.22614,47.50047,-122.2169,0.0928109,0,0.0002136184,0
11.43.15.328973, 0.0003111123,4.687598E-05,0,-1.058633,0.4341121,99.22614,47.50047,-122.2169,0.09282141,0,9.174338E-05,0
11.43.15.364975, 7.767251E-05,-0.0001223038,0,-1.058474,0.4338604,99.22614,47.50047,-122.2169,0.09283692,0,-0.0001316057,0
11.43.15.398977, -0.0001642931,-0.0002307863,0,-1.058811,0.4333861,99.22614,47.50047,-122.2169,0.09281054,0,0.0002261601,0
11.43.15.437979, -4.817552E-06,0.0001364069,0,-1.058821,0.433663,99.22614,47.50047,-122.2169,0.09282057,0,-8.630408E-05,0
11.43.15.502983, -2.606448E-05,-6.286625E-05,0,-1.058397,0.4338406,99.22614,47.50047,-122.2169,0.09283622,0,0.000170105,0
11.43.15.536985, 9.237233E-05,-0.0001930454,0,-1.058214,0.4334574,99.22614,47.50047,-122.2169,0.09280036,0,0.0003155121,0
11.43.15.601988, -2.30475E-05,0.0001527329,0,-1.058465,0.4340526,99.22612,47.50047,-122.2169,0.0928141,0,-6.651965E-05,0
11.43.15.637990, 0.0001163758,-5.035222E-05,0,-1.058242,0.4339557,99.22612,47.50047,-122.2169,0.09283289,0,-0.000170484,0
11.43.15.700994, 2.748561E-05,0.0001422204,0,-1.058423,0.4338678,99.22612,47.50047,-122.2169,0.09282005,0,-7.866364E-05,0
11.43.15.737996, -0.0001657951,-5.999146E-05,0,-1.058739,0.4337536,99.22612,47.50047,-122.2169,0.09283945,0,-0.0001779635,0
11.43.15.771998, 3.02622E-05,1.719529E-05,0,-1.05868,0.4337872,99.22612,47.50047,-122.2169,0.09282895,0,9.369148E-05,0
11.43.15.839002, 9.923647E-05,9.702614E-05,0,-1.058734,0.4341007,99.22612,47.50047,-122.2169,0.0928297,0,-0.000186101,0
11.43.15.903005, 8.183725E-05,-4.612984E-06,0,-1.05884,0.4339131,99.22612,47.50047,-122.2169,0.09282861,0,-0.0001797264,0
11.43.15.940008, -7.204659E-05,5.005313E-05,0,-1.058977,0.4340079,99.22612,47.50047,-122.2169,0.09281975,0,8.16411E-05,0
11.43.16.003011, -9.259635E-05,-9.534266E-05,0,-1.058872,0.4339967,99.22612,47.50047,-122.2169,0.09282687,0,0.0001689666,0
11.43.16.039013, 9.19887E-05,-8.329376E-06,0,-1.058699,0.433981,99.22612,47.50047,-122.2169,0.09280437,0,0.0002083468,0
11.43.16.100017, 0.0001079923,-5.599773E-05,0,-1.058703,0.4335641,99.22612,47.50047,-122.2169,0.09284308,0,-0.0002728627,0
11.43.16.137019, -5.263521E-05,8.44335E-06,0,-1.058801,0.4335797,99.22612,47.50047,-122.2169,0.09283862,0,4.201776E-05,0
11.43.16.202023, -4.754061E-07,8.108552E-05,0,-1.058554,0.4338332,99.22612,47.50047,-122.2169,0.09284089,0,-0.0001889099,0
11.43.16.238025, 0.000109286,-0.0001042055,0,-1.058347,0.4336355,99.22612,47.50047,-122.2169,0.09282168,0,0.0001810246,0
11.43.16.303028, 4.875764E-05,3.570263E-05,0,-1.058594,0.4336693,99.22612,47.50047,-122.2169,0.09284767,0,-0.0002457422,0
11.43.16.340030, -0.0001109886,7.044723E-05,0,-1.058805,0.4338033,99.22612,47.50047,-122.2169,0.09284163,0,5.902442E-05,0
11.43.16.405034, -0.0001275929,-9.484619E-05,0,-1.0589,0.4338082,99.22612,47.50047,-122.2169,0.09283235,0,-9.223253E-05,0
11.43.16.442036, 6.176348E-05,-1.057367E-05,0,-1.058782,0.433788,99.22612,47.50047,-122.2169,0.09281991,0,0.000116769,0
11.43.16.503040, 0.0001039986,7.921093E-05,0,-1.058734,0.4340251,99.22612,47.50047,-122.2169,0.09283673,0,7.064211E-05,0
11.43.16.539042, -0.0001327442,-0.0001008193,0,-1.058984,0.4338355,99.22612,47.50047,-122.2169,0.09280831,0,0.0002674159,0
11.43.16.603046, -7.040436E-05,4.230673E-05,0,-1.058949,0.4338912,99.22612,47.50047,-122.2169,0.09281594,0,9.031674E-05,0
11.43.16.640048, 0.0001327092,7.995559E-05,0,-1.058698,0.4340419,99.22612,47.50047,-122.2169,0.09283838,0,-0.000207844,0
11.43.16.704051, 9.803753E-05,-1.192591E-05,0,-1.058726,0.4338197,99.22612,47.50047,-122.2169,0.09283765,0,-0.0001761906,0
11.43.16.740053, -6.244567E-05,4.550897E-05,0,-1.058845,0.4339061,99.22612,47.50047,-122.2169,0.09282794,0,8.928183E-05,0
11.43.16.803057, -8.341382E-05,-9.326282E-05,0,-1.05877,0.4338942,99.22612,47.50047,-122.2169,0.09281547,0,-7.530792E-05,0
11.43.16.839059, 0.0001265482,-5.388103E-06,0,-1.058532,0.4338841,99.22612,47.50047,-122.2169,0.09284401,0,-0.0002647926,0
11.43.16.904063, 6.287637E-05,-5.097117E-05,0,-1.058645,0.4334799,99.22612,47.50047,-122.2169,0.0928029,0,0.0002124711,0
11.43.16.940065, -0.0001364628,0.0002221723,0,-1.058904,0.4339013,99.22614,47.50047,-122.2169,0.09281043,0,-6.935566E-05,0
11.43.16.973067, 8.26383E-05,0.0001978435,0,-1.058744,0.4342846,99.22612,47.50047,-122.2169,0.09284027,0,-0.0002688662,0
11.43.17.040071, -2.642153E-05,-0.0001586341,0,-1.059107,0.4339406,99.22614,47.50047,-122.2169,0.09283215,0,-8.621049E-05,0
11.43.17.107074, 1.303266E-05,2.993872E-05,0,-1.058785,0.4339159,99.22614,47.50047,-122.2169,0.09284033,0,-0.0001996632,0
11.43.17.141076, -0.0001451444,7.751491E-05,0,-1.059065,0.4340652,99.22612,47.50047,-122.2169,0.09283107,0,8.402076E-05,0
11.43.17.175078, 4.001111E-05,0.000110775,0,-1.058987,0.4342797,99.22612,47.50047,-122.2169,0.09281048,0,0.0001857308,0
11.43.17.208080, -0.0001666098,-7.427999E-05,0,-1.059309,0.4341362,99.22614,47.50047,-122.2169,0.09282006,0,-8.380831E-05,0
11.43.17.253083, 4.980007E-05,1.685129E-05,0,-1.059213,0.4341687,99.22612,47.50047,-122.2169,0.09285029,0,-0.00027318,0
11.43.17.302085, -0.0001360977,8.00284E-05,0,-1.059497,0.4343359,99.22612,47.50047,-122.2169,0.09283981,0,8.757925E-05,0
11.43.17.353088, 7.555164E-05,0.0001253798,0,-1.059326,0.4346206,99.22612,47.50047,-122.2169,0.09281354,0,0.0002044893,0
11.43.17.408092, -0.000188103,-0.0001035138,0,-1.059782,0.4343699,99.22612,47.50047,-122.2169,0.09283406,0,-0.0001478983,0
11.43.17.450094, 5.199865E-05,3.565236E-05,0,-1.059652,0.434459,99.22612,47.50047,-122.2169,0.09280823,0,0.0001805023,0
11.43.17.497097, -0.0001363195,0.0001144078,0,-1.060003,0.434754,99.22614,47.50047,-122.2169,0.09285428,0,-0.0003077582,0
11.43.17.546099, 0.0001014414,0.0001625427,0,-1.059738,0.435178,99.22612,47.50047,-122.2169,0.09282782,0,0.0001770564,0
