DateTime,PitchVelocityRadsPerS,RollVelocityRadsPerS,YawVelocityRadsPerS,PitchDegrees,RollDegrees,MagHeadingDegrees,LatitudeDegrees,LongitudeDegrees,ZAltitudeFtAgl,YVelocityNEDFrameMs,ZVelocityNEDFrameMs,XVelocityNEDFrameMs
09.31.41.763428, 0.0001064391,-0.006184908,0.1697233,-1.49125,0.7526879,21.51476,47.48597,-122.2147,0.09320725,0.04673548,4.456286E-05,-0.01638885
09.31.41.822432, 0.0002880015,0.01317039,0.04393353,-1.492079,0.7873131,21.64133,47.48597,-122.2147,0.09304195,0.07104119,0.001002625,-0.03729254
09.31.41.890436, 0.0002124584,-0.005765618,0.1698924,-1.498135,0.757944,22.13075,47.48597,-122.2147,0.09307323,0.04774928,0.000409985,-0.01769812
09.31.41.949439, 0.0003641177,0.01206267,0.04593467,-1.498832,0.7892137,22.26309,47.48597,-122.2147,0.09285094,0.07143621,0.001348303,-0.03852737
09.31.42.017443, 0.0002308233,-0.006521071,0.1700535,-1.504856,0.7575997,22.75298,47.48597,-122.2147,0.09303949,0.04859822,-0.0005392257,-0.01889164
09.31.42.088447, -8.911255E-06,0.01225827,0.04772657,-1.506694,0.7892815,22.89047,47.48597,-122.2147,0.09305287,0.07166518,0.00113347,-0.03966649
09.31.42.146450, -0.0003321834,-0.006079663,0.1702586,-1.514348,0.7588561,23.38094,47.48597,-122.2147,0.09307545,0.04935729,0.0004711487,-0.02006542
09.31.42.212454, -3.32442E-05,0.0116869,0.04932705,-1.51632,0.7887483,23.52304,47.48597,-122.2147,0.09305882,0.07189845,0.0007081569,-0.04076242
09.31.42.277458, -0.001479105,-0.01294778,-0.02879775,-1.519436,0.7536646,23.44003,47.48597,-122.2147,0.3322708,0.1277767,-1.449119,-0.01145972
09.31.42.337461, 0.06096676,-0.03317758,-0.1059963,-1.339881,0.6661656,23.13645,47.48597,-122.2147,0.5865024,0.1652059,-1.540225,-0.02045029
09.31.42.398465, 0.08256734,-0.04376454,-0.1776932,-1.096169,0.5520387,22.62667,47.48597,-122.2147,0.8611618,0.1992598,-1.662905,-0.02927651
09.31.42.456468, 0.1027826,-0.04453206,-0.2675637,-0.7927322,0.4384637,21.85806,47.48597,-122.2147,1.144906,0.2348447,-1.718624,-0.04443845
09.31.42.517472, 0.1203635,-0.0469013,-0.3390841,-0.4386084,0.3168407,20.88328,47.48597,-122.2147,1.432318,0.2650938,-1.739586,-0.05943961
09.31.42.574475, 0.1365984,-0.03557064,-0.4573312,-0.03792609,0.2244125,19.56757,47.48597,-122.2147,1.719683,0.3023134,-1.739371,-0.08453522
09.31.42.631478, 0.1514668,-0.02880578,-0.5545152,0.4044387,0.1424505,17.97161,47.48597,-122.2147,2.005,0.3341017,-1.726965,-0.1087979
09.31.42.690481, 0.1633052,-0.009348216,-0.6496497,0.8790572,0.1022702,16.10121,47.48597,-122.2147,2.2869,0.366287,-1.706835,-0.1360309
09.31.42.751485, 0.172536,0.01501485,-0.7461237,1.379035,0.1124868,13.95264,47.48597,-122.2147,2.564978,0.3987476,-1.682406,-0.1660319
09.31.42.813488, 0.1805681,0.03310972,-0.8261352,1.902405,0.1504889,11.57354,47.48597,-122.2147,2.838661,0.4274313,-1.655782,-0.1965991
09.31.42.870492, 0.1836914,0.056816,-0.8859687,2.436097,0.2292463,9.021992,47.48597,-122.2147,3.107596,0.4544671,-1.627539,-0.2275479
09.31.42.929495, 0.1857168,0.07590777,-0.9353768,2.978889,0.3330636,6.328115,47.48597,-122.2147,3.371989,0.4796323,-1.598817,-0.2605278
09.31.42.994499, 0.1819778,0.0959876,-0.9752548,3.51557,0.4630654,3.519241,47.48596,-122.2147,3.631487,0.5053776,-1.569734,-0.2946307
09.31.43.053502, 0.1722484,0.1132667,-0.9482569,4.029557,0.6211572,0.7880478,47.48596,-122.2147,3.88608,0.5243244,-1.540595,-0.3267191
09.31.43.116506, 0.1622142,0.1277656,-0.9044414,4.520641,0.8052686,358.1831,47.48596,-122.2147,4.136122,0.5450732,-1.512929,-0.3625244
09.31.43.180509, 0.149696,0.1371396,-0.8295248,4.98124,1.011037,355.7942,47.48596,-122.2147,4.382009,0.5651665,-1.487784,-0.3998095
09.31.43.244513, 0.1374908,0.1452041,-0.7448211,5.411395,1.242071,353.6497,47.48596,-122.2147,4.624338,0.5891221,-1.465677,-0.4408301
09.31.43.309517, 0.1202654,0.1407476,-0.5936714,5.792232,1.485533,351.9417,47.48596,-122.2147,4.863605,0.6042612,-1.447631,-0.4802627
09.31.43.374521, 0.09767754,0.1079348,-0.3850296,6.101032,1.684309,350.8361,47.48596,-122.2146,5.100555,0.6092442,-1.434722,-0.5184399
09.31.43.438524, 0.07530757,0.07990386,-0.1850383,6.333165,1.85804,350.3076,47.48596,-122.2146,5.336018,0.6214121,-1.425168,-0.5604846
09.31.43.508528, 0.05125724,0.05536536,0.03811454,6.477095,2.030157,350.423,47.48596,-122.2146,5.570508,0.6329349,-1.419946,-0.6032374
09.31.43.572532, 0.02443599,0.02034236,0.2915106,6.516973,2.184024,351.269,47.48596,-122.2146,5.80514,0.6390846,-1.420135,-0.6449623
09.31.43.637536, -0.00177277,-0.006875357,0.5323371,6.451132,2.338344,352.8085,47.48596,-122.2146,6.040284,0.6511345,-1.424512,-0.6885548
09.31.43.700539, -0.02791769,-0.03348789,0.7784103,6.27447,2.492831,355.0556,47.48596,-122.2146,6.277021,0.6635449,-1.434118,-0.7319409
09.31.43.764543, -0.05608627,-0.06309495,1.024439,5.976621,2.630801,358.0084,47.48596,-122.2146,6.516277,0.6767181,-1.449447,-0.7740955
09.31.43.822546, -0.08417351,-0.08438653,1.24786,5.558039,2.756793,1.59981,47.48596,-122.2146,6.758793,0.693432,-1.469769,-0.8161245
09.31.43.878549, -0.1122616,-0.1008145,1.434412,5.022402,2.858712,5.721947,47.48596,-122.2146,7.005309,0.7144093,-1.494656,-0.8574621
09.31.43.936553, -0.1394987,-0.1110456,1.601902,4.375368,2.932169,10.3189,47.48596,-122.2146,7.256649,0.7366819,-1.522689,-0.8969781
09.31.43.993556, -0.1647799,-0.1131779,1.68353,3.638429,2.963824,15.1433,47.48596,-122.2146,7.512841,0.7731879,-1.55273,-0.9414272
09.31.44.055560, -0.1867265,-0.1102311,1.713581,2.833437,2.946661,20.04793,47.48596,-122.2146,7.774278,0.8170151,-1.584536,-0.9890633
09.31.44.115563, -0.2067667,-0.1080205,1.747703,1.969795,2.871352,25.04623,47.48596,-122.2146,8.041553,0.8585095,-1.618212,-1.032397
09.31.44.174566, -0.2199909,-0.08782385,1.638,1.094648,2.769756,29.72757,47.48596,-122.2146,8.314005,0.9218836,-1.651348,-1.09543
09.31.44.230570, -0.2303926,-0.07444433,1.550612,0.2132909,2.631828,34.15805,47.48596,-122.2146,8.592481,0.9805899,-1.686051,-1.152031
09.31.44.287573, -0.2312427,-0.03257134,1.312344,-0.6256299,2.546534,37.90625,47.48596,-122.2146,8.876203,1.058828,-1.718492,-1.235938
09.31.44.344576, -0.2285942,-0.003317664,1.109838,-1.424091,2.498734,41.07483,47.48595,-122.2146,9.165596,1.131987,-1.751736,-1.311358
09.31.44.402579, -0.2154475,0.03254193,0.8962098,-2.154863,2.526675,43.63216,47.48595,-122.2146,9.4601,1.205469,-1.782678,-1.390732
09.31.44.459583, -0.2011611,0.05761627,0.7072158,-2.821902,2.615533,45.64785,47.48595,-122.2146,9.759609,1.278029,-1.81243,-1.463729
09.31.44.517586, -0.1831738,0.07856151,0.5375489,-3.418365,2.765856,47.17684,47.48595,-122.2146,10.06347,1.350067,-1.83943,-1.533623
09.31.44.574589, -0.1569452,0.1197217,0.3833312,-3.922359,3.045572,48.26366,47.48595,-122.2146,10.37125,1.422221,-1.861371,-1.605031
09.31.44.630592, -0.1308361,0.1515355,0.2417638,-4.335237,3.435415,48.9437,47.48595,-122.2146,10.682,1.496237,-1.880586,-1.673619
09.31.44.684595, -0.09881555,0.2586913,0.1101547,-4.638181,4.157513,49.24638,47.48595,-122.2146,10.99397,1.573821,-1.886745,-1.754761
09.31.44.741599, -0.06551118,0.343124,-0.01178451,-4.823843,5.149304,49.19992,47.48595,-122.2146,11.3068,1.653558,-1.892013,-1.835661
09.31.44.796602, -0.02919612,0.3980149,-0.1257475,-4.87497,6.326232,48.83058,47.48595,-122.2146,11.61919,1.733344,-1.889294,-1.920902
09.31.44.853605, 0.002862385,0.4392372,-0.233872,-4.792246,7.647438,48.15898,47.48595,-122.2146,11.92989,1.816466,-1.879121,-2.012921
09.31.44.912609, 0.03475428,0.4409697,-0.3365427,-4.563475,8.995399,47.20695,47.48595,-122.2146,12.23852,1.900021,-1.86588,-2.109142
09.31.44.976612, 0.06389405,0.4088022,-0.434346,-4.185246,10.26668,45.99431,47.48595,-122.2146,12.54419,1.98463,-1.848599,-2.209731
09.31.45.039616, 0.08923545,0.379749,-0.5270774,-3.660652,11.46269,44.53999,47.48595,-122.2146,12.84562,2.071384,-1.823554,-2.317606
09.31.45.103619, 0.10999,0.2592587,-0.6140352,-2.997441,12.31113,42.86337,47.48595,-122.2146,13.14486,2.155982,-1.810782,-2.419662
09.31.45.166623, 0.1236636,0.0447963,-0.6960414,-2.220731,12.53207,40.9749,47.48594,-122.2146,13.44357,2.236522,-1.808763,-2.513378
09.31.45.233627, 0.1358032,-0.1327818,-0.7682558,-1.357729,12.22211,38.89477,47.48594,-122.2146,13.74168,2.315198,-1.805786,-2.609156
09.31.45.297631, 0.1470008,-0.3336094,-0.8325477,-0.4356946,11.3057,36.6366,47.48594,-122.2146,14.04199,2.386004,-1.820891,-2.693649
09.31.45.363634, 0.1606966,-0.5019642,-0.8896868,0.5204275,9.869011,34.21079,47.48594,-122.2146,14.34685,2.448437,-1.848509,-2.77151
09.31.45.427638, 0.1668738,-0.730072,-0.9395419,1.456741,7.73376,31.62341,47.48594,-122.2146,14.66147,2.49487,-1.911356,-2.827502
09.31.45.494642, 0.1690242,-0.9309623,-0.983119,2.318074,4.975059,28.87905,47.48594,-122.2146,14.98968,2.524765,-1.993804,-2.867848
09.31.45.558645, 0.1757068,-1.098278,-1.020595,3.073847,1.690041,25.98968,47.48594,-122.2146,15.33454,2.530471,-2.097718,-2.889917
09.31.45.623649, 0.1737551,-1.183894,-1.052493,3.658972,-1.882775,22.96882,47.48594,-122.2146,15.69886,2.515234,-2.215852,-2.893209
09.31.45.687653, 0.162892,-1.101146,-1.079859,4.020174,-5.25013,19.839,47.48594,-122.2146,16.08142,2.486981,-2.32945,-2.886606
09.31.45.750656, 0.1527551,-1.02033,-1.106849,4.160353,-8.405504,16.61841,47.48593,-122.2146,16.48561,2.425431,-2.462617,-2.859066
09.31.45.814660, 0.1364937,-0.839949,-1.135027,4.064816,-11.0493,13.32201,47.48593,-122.2146,16.90894,2.352025,-2.579233,-2.824874
09.31.45.878664, 0.112277,-0.404712,-1.164727,3.732791,-12.43363,9.964041,47.48593,-122.2146,17.34406,2.297618,-2.652594,-2.801988
09.31.45.942667, 0.08344851,-0.0252382,-1.202117,3.215965,-12.70739,6.529205,47.48593,-122.2146,17.78917,2.230441,-2.715076,-2.771523
09.31.46.007671, 0.04566319,0.3505863,-1.244309,2.550561,-11.87136,3.003706,47.48593,-122.2146,18.24026,2.178552,-2.751883,-2.746329
09.31.46.077675, 0.001260118,0.6536129,-1.300292,1.779269,-10.12791,359.3385,47.48593,-122.2146,18.69334,2.140859,-2.76522,-2.723549
09.31.46.148679, -0.04929794,0.8968972,-1.371248,0.9417722,-7.642207,355.4765,47.48592,-122.2146,19.14473,2.127069,-2.755516,-2.70401
09.31.46.220683, -0.1030922,1.094447,-1.456834,0.08781762,-4.538973,351.3579,47.48592,-122.2146,19.59103,2.142252,-2.725146,-2.68632
09.31.46.290687, -0.1546223,1.259074,-1.556425,-0.7105165,-0.9071892,346.9238,47.48592,-122.2146,20.02878,2.189742,-2.670998,-2.668937
09.31.46.360691, -0.2119203,1.396993,-1.669205,-1.394113,3.177556,342.1241,47.48592,-122.2146,20.45569,2.270855,-2.604672,-2.64398
09.31.46.429695, -0.2700388,1.513817,-1.793495,-1.878839,7.649701,336.9196,47.48592,-122.2146,20.86968,2.386028,-2.525034,-2.60901
09.31.46.498699, -0.3245996,1.613478,-1.927669,-2.058456,12.4434,331.2887,47.48592,-122.2146,21.26905,2.535017,-2.432121,-2.559929
09.31.46.568703, -0.3860143,1.699049,-2.070436,-1.850253,17.48438,325.2246,47.48592,-122.2146,21.65205,2.717282,-2.330396,-2.486581
09.31.46.633707, -0.4492393,1.664619,-2.220114,-1.155964,22.37523,318.7412,47.48592,-122.2146,22.01971,2.917745,-2.233027,-2.388534
09.31.46.703711, -0.5076034,1.312702,-2.378764,0.1013033,26.13077,311.8602,47.48592,-122.2146,22.37695,3.111278,-2.164365,-2.271535
09.31.46.771715, -0.5504688,0.8530697,-2.552421,1.904555,28.35718,304.5755,47.48592,-122.2146,22.72386,3.308439,-2.097049,-2.13049
09.31.46.835719, -0.5688438,0.4848915,-2.739423,4.17964,29.229,296.8578,47.48591,-122.2146,23.05853,3.510448,-2.015952,-1.96132
09.31.47.171738, -0.5642138,0.1269886,-2.93455,6.829626,28.68425,288.6603,47.48591,-122.2146,23.38267,3.700404,-1.945447,-1.776048
09.31.47.234741, -0.5663232,-0.2836487,-2.472009,8.754025,26.80105,281.5712,47.48591,-122.2146,23.71036,3.796091,-1.962698,-1.681725
09.31.47.296745, -0.5410977,-0.6330849,-2.002593,9.912061,23.93606,275.6458,47.48591,-122.2146,24.04085,3.881237,-1.976514,-1.609374
09.31.47.359749, -0.5040773,-0.9103686,-1.622422,10.44217,20.38235,270.7111,47.48591,-122.2146,24.37189,3.960321,-1.976374,-1.544497
09.31.47.420752, -0.4648888,-1.164623,-1.116694,10.28702,16.35513,267.1728,47.48591,-122.2146,24.70447,4.017026,-1.983918,-1.537374
09.31.47.483756, -0.4469151,-1.401182,-0.4810483,9.437762,12.01166,265.4503,47.48591,-122.2146,25.03993,4.048005,-1.998284,-1.59467
09.31.47.545759, -0.4463933,-1.570504,0.06521144,8.141575,7.479055,265.3535,47.48591,-122.2146,25.37483,4.066168,-1.996704,-1.670071
09.31.47.607763, -0.4818898,-1.709879,0.6307738,6.526298,2.786101,266.9689,47.48591,-122.2146,25.70971,4.056385,-1.997232,-1.787348
09.31.47.668766, -0.5439036,-1.808986,1.12676,4.794579,-2.06478,270.127,47.4859,-122.2146,26.04363,4.02228,-1.992602,-1.924365
09.31.47.728770, -0.6283294,-1.875849,1.566512,3.133747,-7.077806,274.6889,47.4859,-122.2146,26.37682,3.956702,-1.990014,-2.08205
09.31.47.789773, -0.7289211,-1.86169,1.959882,1.728717,-12.08576,280.5342,47.4859,-122.2146,26.71058,3.855843,-1.997716,-2.252847
09.31.47.850777, -0.8403718,-1.82924,2.312657,0.7402419,-17.06038,287.5399,47.4859,-122.2146,27.04666,3.70747,-2.017815,-2.441541
09.31.47.916780, -0.9458506,-1.496323,2.623758,0.3378968,-21.11319,295.5537,47.4859,-122.2145,27.38764,3.536751,-2.050713,-2.605089
09.31.47.983784, -1.01274,-0.9736108,2.877778,0.5853299,-23.63429,304.3324,47.4859,-122.2145,27.73381,3.351846,-2.088156,-2.739834
09.31.48.051788, -1.034731,-0.509671,3.111646,1.421622,-24.70325,313.7394,47.4859,-122.2145,28.08704,3.134398,-2.134679,-2.860493
09.31.48.120792, -1.012555,-0.1274598,3.342288,2.750507,-24.46094,323.715,47.4859,-122.2145,28.4461,2.897685,-2.175456,-2.958404
09.31.48.189796, -0.948283,0.1816396,3.559275,4.436629,-23.03384,334.2064,47.4859,-122.2145,28.80938,2.656039,-2.205894,-3.027474
09.31.48.263800, -0.8584465,0.4250746,3.782866,6.313379,-20.53536,345.2603,47.4859,-122.2145,29.17346,2.426963,-2.215006,-3.064914
09.31.48.335804, -0.7527643,0.6200356,4.009919,8.1749,-17.05171,356.9409,47.48589,-122.2145,29.53528,2.22384,-2.203239,-3.075281
09.31.48.400808, -0.6437778,0.778174,4.237497,9.765182,-12.67401,9.311464,47.48589,-122.2145,29.89079,2.056658,-2.168484,-3.065542
09.31.48.467812, -0.5315849,0.9112729,4.461655,10.8175,-7.526819,22.39294,47.48589,-122.2145,30.23533,1.931304,-2.103112,-3.049031
09.31.48.532816, -0.4079311,1.025483,4.676606,11.09737,-1.80711,36.13466,47.48589,-122.2145,30.56394,1.843093,-2.008366,-3.04064
09.31.48.596819, -0.2810903,1.125205,4.875523,10.39084,4.210508,50.41491,47.48589,-122.2145,30.87227,1.78792,-1.886683,-3.048025
09.31.48.659823, -0.1434682,1.207419,5.051795,8.590344,10.16687,65.05677,47.48589,-122.2145,31.15657,1.752941,-1.743249,-3.081853
09.31.48.720826, -0.01231586,1.291028,5.094573,5.722018,15.70502,79.5755,47.48589,-122.2145,31.4128,1.735323,-1.57593,-3.172891
09.31.48.787830, 0.118739,1.368288,4.922851,2.087809,20.54263,93.34547,47.48589,-122.2145,31.63753,1.700873,-1.387377,-3.33821
09.31.48.854834, 0.2423345,1.413252,4.784604,-2.104412,24.52545,106.5261,47.48588,-122.2145,31.82991,1.636029,-1.195557,-3.519611
09.31.48.922838, 0.3563888,1.26414,4.291667,-6.21946,27.19929,118.2877,47.48588,-122.2145,31.99105,1.500133,-1.012606,-3.766838
09.31.48.989842, 0.4366871,0.8193797,3.656652,-9.793245,28.0341,128.3913,47.48588,-122.2145,32.12601,1.312782,-0.8617629,-4.014689
09.31.49.053845, 0.4379607,0.3610138,3.0194,-12.647,27.32612,136.8723,47.48588,-122.2145,32.23319,1.087212,-0.7011224,-4.249108
09.31.49.112849, 0.3925869,-0.03491686,2.417005,-14.74082,25.5143,143.8039,47.48587,-122.2145,32.31544,0.8417333,-0.5577933,-4.4611
09.31.49.172852, 0.3504681,-0.3476371,1.875753,-16.0877,22.99605,149.3257,47.48587,-122.2145,32.37861,0.5886144,-0.4499198,-4.649431
09.31.49.231856, 0.3022185,-0.578532,1.389867,-16.80775,20.1093,153.5232,47.48587,-122.2145,32.4253,0.3472231,-0.3566796,-4.8214
09.31.49.291859, 0.2682935,-0.7531074,0.9517327,-17.0028,17.05908,156.4854,47.48587,-122.2145,32.45991,0.1212526,-0.2907042,-4.980903
09.31.49.351862, 0.2435303,-0.8831962,0.5657384,-16.80196,13.97079,158.3215,47.48587,-122.2145,32.48442,-0.0774978,-0.2343407,-5.129505
09.31.49.410866, 0.2449862,-0.9889044,0.2309194,-16.27622,10.87763,159.1668,47.48586,-122.2145,32.50391,-0.248596,-0.2099242,-5.271359
09.31.49.469869, 0.2610438,-1.072181,-0.05399903,-15.50879,7.794716,159.1526,47.48586,-122.2145,32.52189,-0.3851401,-0.203234,-5.40775
09.31.49.529873, 0.2862486,-1.145025,-0.2900772,-14.57774,4.695906,158.4111,47.48586,-122.2145,32.54126,-0.4849626,-0.2158125,-5.540895
09.31.49.598877, 0.3199008,-1.212178,-0.4824291,-13.5422,1.54405,157.0635,47.48586,-122.2145,32.5664,-0.5456706,-0.2508863,-5.670268
09.31.49.666880, 0.3605357,-1.274881,-0.6340513,-12.44858,-1.696238,155.2223,47.48586,-122.2145,32.60108,-0.5644019,-0.3081194,-5.793952
09.31.49.740885, 0.4020784,-1.254757,-0.7496421,-11.34609,-4.826272,152.9861,47.48585,-122.2145,32.64737,-0.5517735,-0.3779467,-5.910243
09.31.49.812889, 0.4441392,-1.138145,-0.8377104,-10.26373,-7.597909,150.4333,47.48585,-122.2145,32.70784,-0.5126541,-0.4626959,-6.017262
09.31.49.881893, 0.4800844,-0.8444868,-0.9046198,-9.225809,-9.523861,147.6314,47.48585,-122.2145,32.78341,-0.466995,-0.5506539,-6.115075
09.31.49.951897, 0.5137342,-0.5464321,-0.9534641,-8.208749,-10.60963,144.647,47.48584,-122.2145,32.87711,-0.3976595,-0.6588666,-6.199769
09.31.50.025901, 0.5367119,-0.207955,-0.9856243,-7.200227,-10.75471,141.5464,47.48584,-122.2145,32.98835,-0.3243946,-0.7638295,-6.270842
09.31.50.099905, 0.5398552,0.1388371,-0.9982879,-6.198586,-9.950557,138.4112,47.48584,-122.2145,33.11552,-0.2541781,-0.8581981,-6.331096
09.31.50.176910, 0.5328215,0.4303867,-1.000711,-5.176076,-8.364035,135.2915,47.48584,-122.2145,33.25855,-0.1874395,-0.9549503,-6.380193
09.31.50.252914, 0.5141637,0.6573684,-0.9949405,-4.120598,-6.18655,132.229,47.48583,-122.2145,33.41525,-0.1323143,-1.039104,-6.420595
09.31.50.326918, 0.4809855,0.8274072,-0.9818369,-3.042818,-3.584956,129.2591,47.48583,-122.2145,33.58181,-0.09479332,-1.101435,-6.457423
09.31.50.400922, 0.4383166,0.9536813,-0.9612744,-1.952534,-0.6847545,126.4094,47.48582,-122.2145,33.75452,-0.07876321,-1.142341,-6.494128
09.31.50.476927, 0.3926106,1.049218,-0.9332893,-0.8521484,2.428747,123.7011,47.48582,-122.2145,33.92929,-0.08692753,-1.16022,-6.533314
09.31.50.548931, 0.3418492,1.123056,-0.8972376,0.241491,5.697958,121.1537,47.48582,-122.2145,34.09152,-0.1181188,-1.145549,-6.5787
09.31.50.621935, 0.281995,1.178201,-0.8532808,1.293039,9.075959,118.7808,47.48582,-122.2145,34.26118,-0.1683621,-1.091599,-6.633025
09.31.50.696939, 0.2186706,1.14143,-0.8024136,2.278165,12.30699,116.5889,47.48581,-122.2145,34.42162,-0.228518,-1.029571,-6.691322
09.31.50.769944, 0.1611527,1.098941,-0.7453751,3.187454,15.38432,114.5801,47.48581,-122.2145,34.56263,-0.3033958,-0.9257296,-6.758296
09.31.50.840948, 0.105939,0.9725478,-0.6823256,4.001041,18.07574,112.7553,47.48581,-122.2145,34.68096,-0.3834455,-0.823383,-6.829413
09.31.50.912952, 0.04613534,0.7041256,-0.6157976,4.675706,19.9803,111.0994,47.48581,-122.2145,34.78291,-0.4627034,-0.7624182,-6.899686
09.31.50.986956, -0.01183988,0.334372,-0.5449274,5.178137,20.81438,109.6024,47.4858,-122.2145,34.87084,-0.5421083,-0.7039674,-6.969914
09.31.51.056960, -0.06382158,-0.009100817,-0.4714581,5.487271,20.66143,108.2592,47.4858,-122.2145,34.94715,-0.6231989,-0.6342085,-7.042418
09.31.51.127964, -0.1133505,-0.3455259,-0.3933693,5.580344,19.54952,107.0776,47.48579,-122.2145,35.0201,-0.7027199,-0.5924429,-7.113424
09.31.51.200968, -0.1642526,-0.6345636,-0.311419,5.433853,17.62208,106.0711,47.48579,-122.2145,35.09551,-0.776606,-0.570327,-7.181304
09.31.51.272972, -0.214459,-0.8802078,-0.2256165,5.041472,15.01043,105.2653,47.48579,-122.2145,35.17912,-0.8446918,-0.5903122,-7.243382
09.31.51.343976, -0.2654254,-1.084778,-0.1373185,4.405479,11.83664,104.6895,47.48579,-122.2145,35.27489,-0.9014099,-0.6566831,-7.295141
09.31.51.414980, -0.3182601,-1.252725,-0.04849632,3.537205,8.206166,104.372,47.48578,-122.2145,35.3863,-0.9406943,-0.772949,-7.331118
09.31.51.482984, -0.3696185,-1.380865,0.03870327,2.467999,4.229251,104.34,47.48578,-122.2145,35.51837,-0.9558108,-0.9376422,-7.345148
09.31.51.552988, -0.4214371,-1.478989,0.1216718,1.232051,-0.01693641,104.6109,47.48577,-122.2145,35.67899,-0.9394078,-1.147906,-7.332004
09.31.51.622992, -0.4715579,-1.548505,0.1988483,-0.1255455,-4.463059,105.1957,47.48577,-122.2145,35.87702,-0.8843026,-1.39139,-7.286505
09.31.51.695997, -0.5119007,-1.44207,0.2699742,-1.534431,-8.61794,106.0979,47.48577,-122.2145,36.11109,-0.8048564,-1.595889,-7.227833
09.31.51.766001, -0.5444329,-1.29146,0.3332888,-2.940143,-12.36943,107.2951,47.48576,-122.2145,36.38978,-0.6876798,-1.828816,-7.147179
09.31.51.837005, -0.5657467,-1.046873,0.3904099,-4.289513,-15.45906,108.7573,47.48576,-122.2145,36.70599,-0.5491483,-2.013317,-7.06069
09.31.51.909009, -0.5662541,-0.6873285,0.4398336,-5.521581,-17.56216,110.4301,47.48576,-122.2145,37.04259,-0.4214936,-2.110267,-6.998022
09.31.51.978013, -0.5502183,-0.2705526,0.4829825,-6.609647,-18.51377,112.2545,47.48576,-122.2145,37.39505,-0.2763468,-2.202213,-6.932755
09.31.52.049017, -0.518765,0.1015755,0.5162305,-7.55051,-18.43613,114.1616,47.48575,-122.2145,37.75377,-0.1269712,-2.26208,-6.878816
09.31.52.120021, -0.4778672,0.3993131,0.5414937,-8.358573,-17.53545,116.102,47.48575,-122.2145,38.11009,0.01602798,-2.279059,-6.840133
09.31.52.185024, -0.4241599,0.6365227,0.5552775,-9.036861,-15.97551,118.0226,47.48575,-122.2145,38.45793,0.142799,-2.254436,-6.819821
09.31.52.251028, -0.3695804,0.8286407,0.5544672,-9.615921,-13.87528,119.8796,47.48574,-122.2145,38.7921,0.2479485,-2.184217,-6.822787
09.31.52.313032, -0.3121761,0.9869846,0.5382356,-10.11255,-11.32073,121.6295,47.48574,-122.2145,39.11135,0.328928,-2.08021,-6.846837
09.31.52.375035, -0.2507671,1.119403,0.5063667,-10.53051,-8.374943,123.2297,47.48574,-122.2145,39.41464,0.3851319,-1.953156,-6.889453
09.31.52.440039, -0.1926258,1.232836,0.4594151,-10.88342,-5.081849,124.646,47.48573,-122.2145,39.69846,0.4153886,-1.798007,-6.950257
09.31.52.510043, -0.135967,1.330275,0.3994332,-11.16916,-1.477902,125.8501,47.48573,-122.2145,39.95776,0.4204831,-1.624372,-7.025842
09.31.52.576047, -0.079388,1.414154,0.3285597,-11.37169,2.405892,126.8213,47.48573,-122.2145,40.1865,0.4009629,-1.437314,-7.113978
09.31.52.642051, -0.02833818,1.486324,0.2495288,-11.48247,6.541379,127.5504,47.48573,-122.2145,40.37715,0.3581386,-1.234727,-7.214041
09.31.52.704054, 0.01926548,1.542662,0.165458,-11.48122,10.88534,128.0392,47.48572,-122.2145,40.52438,0.2920583,-1.012797,-7.322231
09.31.52.764058, 0.06315731,1.521777,0.08131997,-11.34674,15.2131,128.3075,47.48572,-122.2145,40.63026,0.2135842,-0.8013325,-7.43777
09.31.52.829061, 0.0981295,1.500439,-0.001986043,-11.0726,19.51956,128.3752,47.48571,-122.2145,40.69573,0.1125633,-0.571964,-7.561908
09.31.52.899065, 0.1278255,1.357984,-0.07968991,-10.64904,23.44806,128.2771,47.48571,-122.2145,40.73003,0.005405475,-0.3653519,-7.69218
09.31.52.965069, 0.1482301,1.229689,-0.1512104,-10.08417,27.03214,128.0398,47.48571,-122.2145,40.73397,-0.1217161,-0.1416551,-7.829251
09.31.53.032073, 0.165095,0.8387341,-0.2109692,-9.38453,29.50523,127.7054,47.4857,-122.2145,40.7208,-0.2449424,0.0009668162,-7.978017
09.31.53.096077, 0.1697136,0.3895934,-0.2605608,-8.589544,30.69526,127.2827,47.4857,-122.2145,40.68738,-0.3758694,0.1321963,-8.131737
09.31.53.164080, 0.1709982,-0.002897726,-0.2913074,-7.737753,30.75786,126.8024,47.48569,-122.2145,40.6282,-0.5129247,0.2574939,-8.286899
09.31.53.237085, 0.1727819,-0.3417398,-0.2982249,-6.870862,29.83956,126.3091,47.48569,-122.2145,40.54438,-0.6517466,0.351815,-8.445317
09.31.53.304088, 0.1748275,-0.6331939,-0.2816193,-6.030573,28.0712,125.8476,47.48569,-122.2145,40.44379,-0.7898368,0.4036143,-8.606188
09.31.53.374093, 0.1717984,-0.8802434,-0.242859,-5.264946,25.5778,125.456,47.48568,-122.2145,40.34057,-0.9211031,0.4116562,-8.765995
09.31.53.447097, 0.1688971,-1.092545,-0.1835148,-4.59814,22.45739,125.1835,47.48568,-122.2145,40.25305,-1.046076,0.3547408,-8.924288
09.31.53.518101, 0.1638996,-1.271946,-0.1065782,-4.044801,18.80429,125.0757,47.48568,-122.2145,40.1941,-1.155312,0.2379392,-9.073857
09.31.53.591105, 0.1541486,-1.420779,-0.01539159,-3.610374,14.70701,125.1736,47.48567,-122.2145,40.16813,-1.239251,0.06517436,-9.208976
09.31.53.661109, 0.143647,-1.533814,0.08446891,-3.272014,10.26954,125.5117,47.48567,-122.2145,40.17727,-1.293501,-0.1749803,-9.324997
09.31.53.734113, 0.1299447,-1.61979,0.1868531,-2.999603,5.57146,126.1063,47.48566,-122.2145,40.22502,-1.30888,-0.4724106,-9.414464
09.31.53.805117, 0.1080091,-1.683171,0.286811,-2.769932,0.6801205,126.9574,47.48566,-122.2145,40.32137,-1.276277,-0.8159177,-9.472239
09.31.53.880121, 0.07920326,-1.727914,0.3779416,-2.554316,-4.347748,128.0474,47.48566,-122.2145,40.48224,-1.188739,-1.196863,-9.494226
09.31.53.951126, 0.04736743,-1.756225,0.4547791,-2.318417,-9.460915,129.3416,47.48565,-122.2145,40.71995,-1.041279,-1.600274,-9.477013
09.31.54.025130, 0.01537564,-1.663361,0.5141913,-2.030678,-14.30578,130.7932,47.48565,-122.2145,41.02885,-0.85207,-1.965979,-9.429542
09.31.54.100134, -0.009084985,-1.246997,0.5549824,-1.660484,-17.94586,132.3457,47.48564,-122.2145,41.38373,-0.6757522,-2.229093,-9.381703
09.31.54.177138, -0.01374679,-0.6728593,0.5743803,-1.188014,-19.92199,133.928,47.48564,-122.2145,41.76916,-0.5097254,-2.455639,-9.336218
09.31.54.254143, 0.001633386,-0.1614347,0.5720885,-0.6219743,-20.41129,135.4711,47.48563,-122.2145,42.17928,-0.3371584,-2.664899,-9.283552
09.31.54.333147, 0.02833401,0.2400482,0.5459425,0.002826066,-19.72908,136.9116,47.48563,-122.2145,42.61174,-0.1732394,-2.826571,-9.230219
09.31.54.410152, 0.06059713,0.5444228,0.5011984,0.6541497,-18.15633,138.2069,47.48563,-122.2145,43.06785,-0.03119208,-2.940167,-9.182528
09.31.54.485156, 0.09413122,0.777527,0.4395824,1.30592,-15.90156,139.3213,47.48562,-122.2145,43.54581,0.07951979,-3.008405,-9.144284
09.31.54.560160, 0.1276826,0.9604642,0.3678182,1.949453,-13.11352,140.2357,47.48562,-122.2145,44.03827,0.1573867,-3.045958,-9.114835
09.31.54.637165, 0.1535839,1.107566,0.2855716,2.566516,-9.900182,140.9333,47.48561,-122.2145,44.53159,0.1990239,-3.051764,-9.09635
09.31.54.712169, 0.17198,1.227298,0.1941254,3.150319,-6.345735,141.396,47.48561,-122.2145,45.01414,0.2051271,-3.036227,-9.086905
09.31.54.789173, 0.1823732,1.325299,0.09577052,3.702645,-2.518282,141.6093,47.4856,-122.2145,45.48172,0.1768768,-3.00498,-9.085791
09.31.54.863178, 0.187444,1.405798,-0.005534507,4.241117,1.526589,141.5663,47.4856,-122.2145,45.93885,0.1152507,-2.962715,-9.091679
09.31.54.939182, 0.1840546,1.47244,-0.1055636,4.778901,5.744558,141.2721,47.4856,-122.2145,46.3913,0.02203431,-2.90284,-9.106238
09.31.55.016186, 0.1689865,1.527406,-0.2002012,5.320497,10.0983,140.7414,47.48559,-122.2145,46.8399,-0.09968317,-2.81879,-9.130835
09.31.55.094191, 0.1449082,1.530875,-0.2866432,5.875514,14.43647,139.9943,47.48559,-122.2145,47.27918,-0.2428684,-2.720903,-9.162432
09.31.55.169195, 0.1140914,1.531091,-0.3627599,6.453238,18.7473,139.0545,47.48558,-122.2145,47.69537,-0.4094517,-2.594842,-9.203312
09.31.55.244199, 0.07380468,1.386677,-0.4292234,7.050424,22.61154,137.9394,47.48558,-122.2145,48.08195,-0.58193,-2.473539,-9.246756
09.31.55.320204, 0.0152869,0.945744,-0.4910516,7.63281,25.16896,136.6348,47.48558,-122.2145,48.44619,-0.7501482,-2.396334,-9.286164
09.31.55.401208, -0.05852547,0.4258166,-0.5441716,8.143958,26.18612,135.1252,47.48557,-122.2145,48.79434,-0.9194769,-2.313957,-9.327322
09.31.55.477213, -0.1351413,-0.003431551,-0.5774516,8.52491,25.92673,133.4388,47.48557,-122.2145,49.13268,-1.085324,-2.211271,-9.371536
09.31.55.554217, -0.2010674,-0.3637052,-0.583787,8.734951,24.60312,131.6503,47.48557,-122.2146,49.46754,-1.243293,-2.125245,-9.413407
09.31.55.628221, -0.2620561,-0.6131606,-0.5613117,8.717392,22.55332,129.8445,47.48556,-122.2146,49.7972,-1.38608,-2.062028,-9.451705
09.31.55.701226, -0.3156104,-0.8731546,-0.5150945,8.442959,19.76842,128.1083,47.48555,-122.2146,50.11725,-1.511209,-2.031791,-9.482455
09.31.55.774230, -0.3678935,-1.099094,-0.448027,7.879179,16.36669,126.5244,47.48555,-122.2146,50.42867,-1.619454,-2.045661,-9.505302
09.31.55.854234, -0.4167559,-1.292022,-0.364925,7.02174,12.45985,125.174,47.48555,-122.2146,50.74375,-1.705102,-2.112128,-9.516243
09.31.55.926238, -0.4648216,-1.454013,-0.2700355,5.881517,8.146035,124.1291,47.48554,-122.2146,51.08102,-1.760177,-2.233878,-9.512423
09.31.55.999243, -0.5113791,-1.586712,-0.1676924,4.492016,3.50914,123.4512,47.48554,-122.2146,51.45817,-1.776315,-2.412773,-9.490334
09.31.56.069247, -0.5577827,-1.691382,-0.06333763,2.900178,-1.381308,123.1831,47.48553,-122.2146,51.88266,-1.742803,-2.639642,-9.447312
09.31.56.139251, -0.5985351,-1.761787,0.03770381,1.179993,-6.44685,123.3467,47.48553,-122.2146,52.35282,-1.650414,-2.906454,-9.380644
09.31.56.214255, -0.6253154,-1.610497,0.1325915,-0.5662126,-11.07466,123.9417,47.48552,-122.2146,52.85097,-1.525657,-3.122196,-9.310973
09.31.56.286259, -0.6343607,-1.275423,0.2201615,-2.236788,-14.76054,124.9278,47.48552,-122.2146,53.36778,-1.377361,-3.296927,-9.245648
09.31.56.356263, -0.6348328,-0.9685559,0.2991007,-3.784289,-17.60379,126.2402,47.48552,-122.2146,53.90804,-1.187083,-3.464579,-9.175734
09.31.56.427267, -0.6235102,-0.5506839,0.367428,-5.174119,-19.29436,127.8073,47.48551,-122.2146,54.46693,-1.005857,-3.547267,-9.126121
09.31.56.490271, -0.5872262,-0.1110072,0.4203514,-6.367757,-19.76819,129.5263,47.48551,-122.2146,55.04185,-0.8335169,-3.580706,-9.090786
09.31.56.557275, -0.5451416,0.2500677,0.4517847,-7.401947,-19.24251,131.302,47.4855,-122.2146,55.62123,-0.6705803,-3.56163,-9.072278
09.31.56.624278, -0.4949764,0.5378967,0.4613158,-8.306415,-17.91532,133.0488,47.4855,-122.2146,56.18882,-0.5308331,-3.493704,-9.071429
09.31.56.690282, -0.4300644,0.7732382,0.445583,-9.086753,-15.92039,134.6745,47.4855,-122.2146,56.72981,-0.4221656,-3.384044,-9.086268
09.31.56.757286, -0.3674106,0.969402,0.4025694,-9.783358,-13.35228,136.1032,47.48549,-122.2146,57.2344,-0.349831,-3.220952,-9.120348
09.31.56.822290, -0.3020619,1.137794,0.334177,-10.40541,-10.27167,137.262,47.48549,-122.2146,57.70246,-0.3130193,-3.020573,-9.167301
09.31.56.891294, -0.2309386,1.283244,0.2428327,-10.93395,-6.725003,138.086,47.48549,-122.2146,58.14032,-0.306451,-2.802205,-9.223681
09.31.56.958298, -0.16695,1.408866,0.1344843,-11.36565,-2.753951,138.5379,47.48548,-122.2146,58.54821,-0.3281871,-2.557252,-9.290282
09.31.57.027301, -0.1061225,1.516284,0.01432502,-11.66885,1.600427,138.5969,47.48547,-122.2146,58.92025,-0.3749519,-2.300364,-9.363529
09.31.57.096305, -0.04601705,1.59934,-0.1090165,-11.79234,6.270791,138.2738,47.48547,-122.2146,59.24582,-0.4438986,-2.03671,-9.442424
09.31.57.160309, 0.003908434,1.669892,-0.2325864,-11.7072,11.21696,137.5956,47.48547,-122.2146,59.51479,-0.5327671,-1.757683,-9.527679
09.31.57.228313, 0.04760762,1.728956,-0.354137,-11.3727,16.39482,136.6017,47.48546,-122.2146,59.72632,-0.6406378,-1.468278,-9.617493
09.31.57.295317, 0.08665632,1.572905,-0.470861,-10.74807,21.16667,135.3468,47.48546,-122.2146,59.89672,-0.7433976,-1.222359,-9.712729
09.31.57.363321, 0.1137922,1.457378,-0.58367,-9.832339,25.6302,133.8717,47.48545,-122.2146,60.02973,-0.8717697,-0.9403558,-9.813442
09.31.57.436325, 0.1360898,1.171774,-0.681475,-8.62658,29.27015,132.247,47.48545,-122.2146,60.13432,-0.9967479,-0.704166,-9.920419
09.31.57.508329, 0.1517666,0.6396194,-0.7599694,-7.17193,31.35487,130.5297,47.48544,-122.2146,60.21346,-1.118683,-0.540175,-10.03791
09.31.57.576333, 0.163777,0.1970787,-0.8106194,-5.551641,32.12646,128.7632,47.48544,-122.2146,60.25372,-1.248856,-0.3624413,-10.1566
09.31.57.646337, 0.1812624,-0.1844268,-0.8174851,-3.855665,31.7472,127.032,47.48544,-122.2146,60.25705,-1.378663,-0.216989,-10.2748
09.31.57.717341, 0.1996981,-0.5179563,-0.7852907,-2.175645,30.35254,125.3987,47.48543,-122.2146,60.24042,-1.508492,-0.123243,-10.39419
09.31.57.790345, 0.2071103,-0.8083012,-0.7165133,-0.617984,28.07208,123.9082,47.48542,-122.2146,60.22531,-1.633719,-0.08209386,-10.51163
09.31.57.863349, 0.2140631,-1.065605,-0.6151128,0.7593434,25.01195,122.6249,47.48542,-122.2146,60.22937,-1.76388,-0.1261276,-10.62573
09.31.57.937354, 0.2105303,-1.288618,-0.4854051,1.899416,21.28572,121.6051,47.48542,-122.2146,60.25677,-1.889929,-0.2542486,-10.73031
09.31.58.015358, 0.1852281,-1.479477,-0.3344682,2.745778,17.00197,120.8938,47.48541,-122.2146,60.30716,-1.999712,-0.4617508,-10.81758
09.31.58.087362, 0.1483873,-1.637525,-0.1702532,3.297625,12.2709,120.5448,47.4854,-122.2146,60.39277,-2.087466,-0.761557,-10.88021
09.31.58.156366, 0.1073026,-1.760792,-0.0009892922,3.600121,7.205045,120.6054,47.4854,-122.2146,60.54052,-2.143546,-1.154209,-10.90672
09.31.58.235371, 0.05575628,-1.848861,0.1646905,3.699786,1.912461,121.0963,47.4854,-122.2146,60.77613,-2.152536,-1.617378,-10.88702
09.31.58.307375, -0.01225398,-1.89721,0.3168118,3.633616,-3.491336,122.0094,47.48539,-122.2146,61.10875,-2.099555,-2.129258,-10.81711
09.31.58.380379, -0.08971481,-1.923991,0.4476795,3.453342,-8.947319,123.3158,47.48539,-122.2146,61.53132,-1.974633,-2.672453,-10.69536
09.31.58.453383, -0.1662174,-1.933112,0.5520867,3.22636,-14.4105,124.9653,47.48538,-122.2146,62.03286,-1.772543,-3.21929,-10.52266
09.31.58.529387, -0.2357224,-1.775778,0.6291257,3.017907,-19.40766,126.8932,47.48538,-122.2146,62.59874,-1.525188,-3.668008,-10.32988
09.31.58.603392, -0.2872957,-1.233827,0.6794071,2.8855,-22.83665,129.0172,47.48537,-122.2146,63.21214,-1.306214,-3.944667,-10.17306
09.31.58.683396, -0.3147418,-0.6826748,0.7006328,2.830866,-24.67586,131.2317,47.48537,-122.2146,63.88077,-1.07244,-4.209241,-10.01977
09.31.58.759401, -0.3145117,-0.1844831,0.6987509,2.845591,-25.08174,133.441,47.48536,-122.2146,64.58892,-0.8493187,-4.379149,-9.885283
09.31.58.841405, -0.2895488,0.2115303,0.6668065,2.902279,-24.3537,135.5361,47.48536,-122.2146,65.31516,-0.6443564,-4.479061,-9.770973
09.31.58.921410, -0.2508909,0.5134579,0.6087447,2.965211,-22.7672,137.4334,47.48536,-122.2146,66.03692,-0.4728564,-4.504218,-9.682771
09.31.59.002414, -0.2082214,0.7491349,0.5234759,2.994403,-20.518,139.0577,47.48535,-122.2146,66.74183,-0.3418809,-4.46629,-9.620325
09.31.59.080419, -0.1688634,0.9383031,0.4148443,2.956905,-17.74438,140.3492,47.48535,-122.2146,67.42991,-0.250929,-4.381255,-9.579533
09.31.59.160423, -0.1363111,1.094885,0.2899255,2.837135,-14.54286,141.266,47.48534,-122.2146,68.10439,-0.198145,-4.256868,-9.556823
09.31.59.237428, -0.1120257,1.226037,0.1601905,2.640625,-10.98634,141.7953,47.48534,-122.2146,68.76482,-0.1771757,-4.104376,-9.548109
09.31.59.316432, -0.09639817,1.336441,0.02710486,2.383034,-7.132617,141.9265,47.48533,-122.2146,69.40238,-0.184918,-3.930897,-9.550896
09.31.59.392437, -0.08910597,1.422656,-0.1061331,2.090501,-3.047811,141.6567,47.48533,-122.2146,70.00382,-0.2186313,-3.739677,-9.563941
09.31.59.469441, -0.0907058,1.495667,-0.2356335,1.793503,1.234443,140.9944,47.48532,-122.2146,70.55953,-0.2753733,-3.532191,-9.58661
09.31.59.544445, -0.09988649,1.557907,-0.3590241,1.527954,5.687207,139.9558,47.48532,-122.2146,71.06986,-0.3524558,-3.308565,-9.618244
09.31.59.623450, -0.1172795,1.61104,-0.4736309,1.326625,10.28703,138.5661,47.48532,-122.2146,71.54103,-0.4467669,-3.064337,-9.659056
09.31.59.698454, -0.1429338,1.63381,-0.5778004,1.218157,14.9471,136.8558,47.48531,-122.2146,71.97877,-0.552112,-2.801381,-9.707506
09.31.59.776459, -0.1743033,1.65566,-0.6713074,1.230971,19.6629,134.8582,47.48531,-122.2146,72.37691,-0.6668701,-2.50296,-9.764935
09.31.59.861464, -0.2059233,1.357068,-0.7514684,1.39954,23.50758,132.6191,47.4853,-122.2146,72.73695,-0.7631267,-2.27018,-9.817618
09.31.59.937468, -0.2375551,0.9459593,-0.8175657,1.709679,26.15111,130.1841,47.4853,-122.2146,73.04922,-0.8626267,-2.04047,-9.877944
09.32.00.012472, -0.2639517,0.4904815,-0.8601277,2.116871,27.4614,127.6211,47.48529,-122.2146,73.31331,-0.9573532,-1.818738,-9.941246
09.32.00.086476, -0.2815499,0.1072841,-0.8735334,2.554753,27.64618,125.0093,47.48529,-122.2146,73.53692,-1.0462,-1.590748,-10.00659
09.32.00.161481, -0.2885564,-0.2276654,-0.8497128,2.951022,26.85016,122.4496,47.48528,-122.2146,73.73535,-1.127002,-1.389945,-10.07035
09.32.00.236485, -0.2908416,-0.5232629,-0.7961768,3.236271,25.19582,120.0196,47.48528,-122.2146,73.92,-1.201688,-1.232326,-10.13275
09.32.00.310489, -0.2905588,-0.7836989,-0.7164465,3.354753,22.79634,117.7917,47.48528,-122.2146,74.09074,-1.270818,-1.125607,-10.19188
09.32.00.385494, -0.2890814,-1.014776,-0.6134155,3.269653,19.74889,115.8383,47.48527,-122.2146,74.24708,-1.335946,-1.08795,-10.24703
09.32.00.459498, -0.2914313,-1.217344,-0.4912323,2.956457,16.14576,114.2239,47.48527,-122.2146,74.39638,-1.391643,-1.1242,-10.29484
09.32.00.531502, -0.3017238,-1.392347,-0.3549533,2.405501,12.07192,113.0042,47.48526,-122.2146,74.55998,-1.430317,-1.237738,-10.32999
09.32.00.602506, -0.3195354,-1.538257,-0.2109217,1.632626,7.610401,112.2243,47.48526,-122.2146,74.76325,-1.444298,-1.432774,-10.34612
09.32.00.675510, -0.3437963,-1.654837,-0.06410746,0.6759149,2.837895,111.9185,47.48525,-122.2146,75.02394,-1.422153,-1.702678,-10.33513
09.32.00.744514, -0.3721602,-1.734133,0.07895464,-0.405543,-2.152464,112.1018,47.48525,-122.2146,75.34471,-1.352749,-2.036175,-10.28921
09.32.00.815518, -0.3990938,-1.788079,0.2128447,-1.530756,-7.305612,112.767,47.48524,-122.2146,75.72134,-1.226313,-2.417976,-10.20183
09.32.00.887522, -0.4206998,-1.725639,0.33485,-2.609314,-12.304,113.8873,47.48524,-122.2146,76.14472,-1.052221,-2.775263,-10.0828
09.32.00.960526, -0.4396958,-1.630428,0.4402593,-3.575205,-17.06581,115.4061,47.48523,-122.2146,76.56863,-0.820707,-3.146391,-9.930386
09.32.01.032531, -0.4421167,-1.240287,0.5292933,-4.343119,-20.74664,117.2475,47.48523,-122.2146,76.97693,-0.603757,-3.355304,-9.797518
09.32.01.105535, -0.4253802,-0.7015019,0.5995062,-4.874374,-22.91311,119.3064,47.48523,-122.2146,77.64758,-0.3921065,-3.512129,-9.682315
09.32.01.177539, -0.3930262,-0.2254382,0.6522493,-5.18223,-23.73466,121.4872,47.48522,-122.2146,78.29572,-0.169651,-3.639286,-9.571648
09.32.01.249543, -0.3423919,0.1537156,0.6820487,-5.290663,-23.47634,123.6908,47.48522,-122.2146,78.77942,0.04335302,-3.706972,-9.475177
09.32.01.321547, -0.2786931,0.4462719,0.6861557,-5.236179,-22.374,125.8299,47.48521,-122.2146,79.43826,0.2332971,-3.718008,-9.398076
09.32.01.396551, -0.2124392,0.6749242,0.6614393,-5.073851,-20.60048,127.8294,47.48521,-122.2146,80.14978,0.3894913,-3.66957,-9.345377
09.32.01.467555, -0.1503894,0.8593104,0.6073405,-4.86153,-18.27526,129.6226,47.4852,-122.2146,80.6203,0.5100248,-3.574149,-9.316263
09.32.01.542560, -0.09256734,1.01298,0.5256962,-4.638312,-15.48154,131.1461,47.4852,-122.2146,81.11513,0.5952017,-3.444107,-9.306786
09.32.01.618564, -0.04058549,1.144204,0.4195524,-4.427495,-12.28069,132.3429,47.4852,-122.2146,81.74577,0.6466808,-3.28708,-9.313894
09.32.01.694568, 0.004236558,1.255573,0.2973019,-4.233041,-8.728889,133.1773,47.48519,-122.2146,82.16763,0.6689767,-3.11209,-9.334435
09.32.01.770573, 0.04243824,1.349581,0.1649455,-4.040063,-4.876307,133.6277,47.48519,-122.2146,82.47608,0.6648729,-2.925819,-9.365902
09.32.01.848577, 0.07184841,1.428289,0.03200945,-3.826107,-0.7692723,133.7006,47.48518,-122.2146,82.9661,0.6375489,-2.728693,-9.407528
09.32.01.927582, 0.09298562,1.486043,-0.09807155,-3.562146,3.528436,133.4124,47.48518,-122.2146,83.37339,0.5883927,-2.523903,-9.458136
09.32.02.005586, 0.1072486,1.533663,-0.2220711,-3.21438,7.982506,132.7901,47.48517,-122.2146,83.57816,0.5186689,-2.312059,-9.517192
09.32.02.080590, 0.1138198,1.572964,-0.3382181,-2.754201,12.56204,131.8673,47.48517,-122.2146,83.93936,0.4302398,-2.088938,-9.584559
09.32.02.158595, 0.1109026,1.510654,-0.4452805,-2.163122,16.9658,130.6806,47.48516,-122.2146,84.3427,0.3352508,-1.878075,-9.656287
09.32.02.239600, 0.09723637,1.313163,-0.5430166,-1.438514,20.7949,129.2616,47.48516,-122.2146,84.50389,0.234558,-1.687612,-9.732093
09.32.02.316604, 0.07362622,0.9922222,-0.6243742,-0.6016307,23.68359,127.6502,47.48516,-122.2146,84.74655,0.1302645,-1.519252,-9.81124
09.32.02.390608, 0.04840371,0.7171881,-0.6828329,0.3158723,25.75525,125.8989,47.48515,-122.2146,85.103,0.01800763,-1.327688,-9.894352
09.32.02.464612, 0.02147101,0.2861873,-0.7122144,1.262286,26.55527,124.0712,47.48515,-122.2146,85.20661,-0.08711424,-1.205403,-9.976182
09.32.02.542617, -0.003472642,-0.09199587,-0.7106698,2.167299,26.23526,122.2279,47.48514,-122.2146,85.31315,-0.1906152,-1.080977,-10.05715
09.32.02.617621, -0.02539288,-0.4143606,-0.6753395,2.960088,24.96143,120.4424,47.48514,-122.2146,85.58347,-0.2905705,-0.9849644,-10.1355
09.32.02.690625, -0.04169588,-0.6903608,-0.6130697,3.59482,22.87732,118.7828,47.48513,-122.2146,85.62282,-0.3877014,-0.933318,-10.20866
09.32.02.763630, -0.05820801,-0.9277475,-0.527414,4.029509,20.10634,117.311,47.48513,-122.2146,85.65382,-0.4788875,-0.9332734,-10.2746
09.32.02.840634, -0.08174101,-1.131587,-0.4223641,4.225592,16.75753,116.0829,47.48512,-122.2146,85.91177,-0.5594297,-0.9907254,-10.3304
09.32.02.916638, -0.1099362,-1.306629,-0.301905,4.172571,12.92529,115.1571,47.48512,-122.2146,85.99989,-0.6250219,-1.11448,-10.37075
09.32.02.988642, -0.1377172,-1.452111,-0.1719496,3.896635,8.702395,114.5867,47.48512,-122.2146,86.11728,-0.6695879,-1.307295,-10.38928
09.32.03.059646, -0.1684225,-1.567369,-0.03852211,3.434064,4.177456,114.4073,47.48511,-122.2146,86.51725,-0.6838424,-1.562427,-10.37947
09.32.03.135651, -0.2030708,-1.646008,0.09249732,2.831515,-0.5481452,114.6357,47.48511,-122.2146,86.78107,-0.6579609,-1.870925,-10.33551
09.32.03.206655, -0.2400935,-1.700891,0.2148511,2.146025,-5.414429,115.2672,47.4851,-122.2146,87.08229,-0.5837386,-2.221827,-10.25261
09.32.03.281659, -0.2794552,-1.735873,0.3239711,1.432699,-10.37441,116.278,47.4851,-122.2146,87.66393,-0.4544175,-2.596851,-10.12836
09.32.03.362664, -0.3126757,-1.546667,0.4184892,0.7637294,-14.79226,117.631,47.48509,-122.2146,88.10297,-0.3032167,-2.876143,-9.996902
09.32.03.440668, -0.3347901,-1.173676,0.494578,0.1949597,-18.14594,119.2584,47.48509,-122.2146,88.4968,-0.1415897,-3.108531,-9.869728
09.32.03.519673, -0.3395326,-0.6733748,0.5536834,-0.2377082,-20.07178,121.0811,47.48508,-122.2146,89.12713,0.01609231,-3.270002,-9.757453
09.32.03.596677, -0.3280062,-0.2229276,0.5940678,-0.5377147,-20.7126,123.014,47.48508,-122.2146,89.65181,0.1833488,-3.405997,-9.649016
09.32.03.676682, -0.297828,0.147118,0.6126731,-0.7157208,-20.2972,124.9686,47.48507,-122.2146,90.04066,0.3437387,-3.485104,-9.554201
09.32.03.753686, -0.2525965,0.4356632,0.6086004,-0.7897194,-19.05663,126.8649,47.48507,-122.2146,90.63692,0.4864523,-3.510994,-9.477088
09.32.03.832691, -0.2007754,0.6622978,0.5793498,-0.7912017,-17.1657,128.6303,47.48507,-122.2146,91.23155,0.6025374,-3.483455,-9.422034
09.32.03.908695, -0.1487371,0.8422736,0.5257686,-0.753352,-14.75618,130.2027,47.48506,-122.2146,91.61615,0.6829958,-3.388314,-9.391404
09.32.03.986700, -0.1009048,0.9914421,0.4487801,-0.7050093,-11.91521,131.5259,47.48506,-122.2146,92.1217,0.7347719,-3.265006,-9.378997
09.32.04.068704, -0.05690059,1.117403,0.3562272,-0.6534417,-8.708832,132.5629,47.48505,-122.2146,92.74454,0.7623598,-3.137742,-9.380401
09.32.04.147709, -0.01708833,1.220873,0.2545201,-0.5910649,-5.201349,133.2943,47.48505,-122.2146,93.12681,0.745598,-2.862143,-9.401051
09.32.04.222713, 0.01670798,1.299916,0.1478531,-0.504545,-1.462845,133.7132,47.48504,-122.2146,93.46131,0.7054618,-2.500125,-9.429775
09.32.04.298717, 0.04482381,1.364502,0.03899525,-0.3726582,2.464846,133.8213,47.48504,-122.2146,93.94646,0.6566067,-2.176905,-9.462605
09.32.04.378722, 0.06855845,1.409865,-0.06858167,-0.1669516,6.525334,133.6311,47.48503,-122.2146,94.2358,0.5964411,-1.853387,-9.500206
09.32.04.458727, 0.08454075,1.444415,-0.1711423,0.1308873,10.68527,133.1671,47.48503,-122.2146,94.35933,0.5188344,-1.617706,-9.549029
09.32.04.537731, 0.09774732,1.408617,-0.2670183,0.5499773,14.73864,132.4609,47.48503,-122.2146,94.63319,0.4461096,-1.296167,-9.592153
09.32.04.620736, 0.1010422,1.26101,-0.3580486,1.093513,18.3587,131.5339,47.48502,-122.2146,94.82086,0.3831075,-0.9354292,-9.628354
09.32.04.702740, 0.09386092,1.125153,-0.4365225,1.745634,21.57373,130.4209,47.48502,-122.2146,94.78008,0.304984,-0.601477,-9.673347
09.32.04.779745, 0.0798924,0.9062708,-0.4940389,2.482126,24.14019,129.1759,47.48502,-122.2146,94.86694,0.2358538,-0.3277489,-9.713814
09.32.04.856749, 0.06098861,0.4741771,-0.5341097,3.270563,25.44086,127.8361,47.48501,-122.2146,94.99647,0.1438128,-0.1490806,-9.767619
09.32.04.934754, 0.03520945,0.04646938,-0.5514786,4.043175,25.48716,126.4362,47.485,-122.2146,94.89696,0.0269768,-0.06203927,-9.835206
09.32.05.009758, 0.01394094,-0.3071122,-0.5406613,4.748003,24.49673,125.0376,47.485,-122.2146,94.90667,-0.08120285,0.03952378,-9.89651
09.32.05.085762, -0.005854044,-0.6015235,-0.506973,5.336557,22.64674,123.6914,47.485,-122.2146,95.06435,-0.1926411,0.09789477,-9.95626
09.32.05.163767, -0.03153432,-0.8474355,-0.45319,5.753895,20.08542,122.4421,47.48499,-122.2146,95.00874,-0.3062099,0.09546074,-10.01409
09.32.05.244771, -0.06340852,-1.05363,-0.3841943,5.961223,16.93702,121.3324,47.48499,-122.2146,95.02357,-0.4193388,0.01758824,-10.0669
09.32.05.318776, -0.1016924,-1.224136,-0.3046037,5.935837,13.31396,120.403,47.48498,-122.2146,95.24788,-0.5235574,-0.1363697,-10.1083
09.32.05.392780, -0.1430048,-1.360138,-0.2187238,5.679735,9.323647,119.6937,47.48498,-122.2146,95.28224,-0.6050198,-0.340202,-10.12914
09.32.05.465784, -0.1931527,-1.473946,-0.131872,5.192284,5.033825,119.2308,47.48497,-122.2146,95.38141,-0.667353,-0.6841284,-10.12851
09.32.05.548789, -0.2445134,-1.561402,-0.04689366,4.502818,0.5207933,119.0396,47.48497,-122.2146,95.54404,-0.6836046,-1.069613,-10.09435
09.32.05.622793, -0.2935839,-1.615354,0.03216624,3.656726,-4.123375,119.1316,47.48497,-122.2146,95.76858,-0.6452435,-1.458492,-10.02461
09.32.05.701798, -0.3410406,-1.649909,0.1016461,2.698322,-8.851147,119.5024,47.48496,-122.2146,96.05582,-0.5492851,-1.844937,-9.919702
09.32.05.775802, -0.3807553,-1.562487,0.1594634,1.685604,-13.32164,120.1332,47.48495,-122.2146,96.38515,-0.4192849,-2.098957,-9.804185
09.32.05.852806, -0.408452,-1.23703,0.2039262,0.6763443,-16.85989,120.9837,47.48495,-122.2146,96.72952,-0.29753,-2.182919,-9.709977
09.32.05.930811, -0.424089,-0.7777128,0.2338606,-0.2970227,-19.08859,121.9899,47.48495,-122.2146,97.07035,-0.1904046,-2.151162,-9.637542
09.32.06.005815, -0.4290378,-0.3144894,0.2497465,-1.229176,-20.00075,123.0807,47.48494,-122.2146,97.40441,-0.08026509,-2.096668,-9.571938
09.32.06.081819, -0.4234318,0.07771508,0.2508397,-2.127551,-19.80142,124.1839,47.48494,-122.2146,97.73037,0.03596371,-2.037831,-9.5119
09.32.06.159824, -0.4024759,0.3867872,0.2401463,-2.983264,-18.72737,125.2346,47.48493,-122.2146,98.04417,0.1478229,-1.956783,-9.461866
09.32.06.238828, -0.3697452,0.5980267,0.2158352,-3.791556,-17.05486,126.1728,47.48493,-122.2146,98.31253,0.2043006,-1.681862,-9.443252
09.32.06.316833, -0.3389804,0.7802193,0.1756931,-4.575918,-14.86049,126.9507,47.48492,-122.2146,98.53757,0.2567247,-1.42511,-9.432754
09.32.06.389837, -0.3075959,0.930546,0.1235458,-5.340465,-12.22809,127.5296,47.48492,-122.2146,98.7161,0.2967015,-1.155263,-9.433894
09.32.06.463841, -0.2706036,1.054803,0.06271688,-6.06356,-9.224014,127.8783,47.48492,-122.2146,98.85098,0.3307166,-0.9072793,-9.443748
09.32.06.538845, -0.2309132,1.153926,-0.003635616,-6.721471,-5.912499,127.9801,47.48491,-122.2146,98.92825,0.3374807,-0.5731819,-9.462847
09.32.06.614850, -0.1950491,1.231549,-0.07326277,-7.301765,-2.348979,127.8314,47.48491,-122.2146,98.92208,0.3132011,-0.08229391,-9.480105
09.32.06.690854, -0.170689,1.29417,-0.1433322,-7.809538,1.427452,127.4397,47.48491,-122.2146,98.83916,0.2926625,0.3712881,-9.500223
09.32.06.765858, -0.1486386,1.344097,-0.2082405,-8.221979,5.381064,126.827,47.4849,-122.2146,98.70208,0.2783983,0.6978117,-9.537938
09.32.06.843863, -0.1204412,1.383194,-0.2638788,-8.495188,9.477194,126.032,47.48489,-122.2146,98.52141,0.2575923,0.9634556,-9.592026
09.32.06.919867, -0.08953056,1.376838,-0.307979,-8.602343,13.57724,125.1061,47.48489,-122.2146,98.28752,0.2326273,1.292922,-9.638961
09.32.06.987871, -0.06371108,1.365741,-0.3404612,-8.549234,17.65807,124.0993,47.48489,-122.2146,97.99757,0.2032367,1.643995,-9.68657
09.32.07.060875, -0.03835321,1.240956,-0.358717,-8.339826,21.38106,123.0698,47.48488,-122.2146,97.6656,0.1648234,1.906136,-9.758504
09.32.07.131879, -0.009164925,0.8970959,-0.3647477,-7.980304,24.10526,122.0704,47.48488,-122.2146,97.32856,0.09857605,1.941791,-9.895337
09.32.07.200883, 0.0268011,0.3948508,-0.3603603,-7.485111,25.36706,121.1436,47.48487,-122.2146,96.98946,0.03275256,1.952901,-10.03567
09.32.07.270887, 0.06068278,-0.05381832,-0.3430372,-6.903354,25.31675,120.3158,47.48487,-122.2146,96.64064,-0.02512647,2.002842,-10.16097
09.32.07.341891, 0.09166568,-0.4315256,-0.3110159,-6.281347,24.15682,119.6102,47.48486,-122.2146,96.28997,-0.09046312,2.000081,-10.299
09.32.07.411895, 0.1183137,-0.771865,-0.2632854,-5.660018,21.99446,119.0504,47.48486,-122.2146,95.96766,-0.1802655,1.806759,-10.48591
09.32.07.486900, 0.1459563,-1.037076,-0.2009223,-5.053589,19.04616,118.6651,47.48486,-122.2146,95.67639,-0.2561603,1.597827,-10.65674
09.32.07.559904, 0.1638068,-1.275666,-0.1255437,-4.489792,15.39044,118.4722,47.48485,-122.2146,95.45612,-0.3387813,1.150806,-10.86051
09.32.07.634908, 0.1767055,-1.45685,-0.03886551,-3.969566,11.19438,118.4951,47.48484,-122.2146,95.31097,-0.3832548,0.6878834,-11.02314
09.32.07.707912, 0.1763639,-1.582163,0.05413907,-3.501662,6.621931,118.7431,47.48484,-122.2146,95.24783,-0.3840997,0.1946852,-11.14226
09.32.07.782917, 0.1674658,-1.670187,0.1486158,-3.071929,1.783752,119.2208,47.48483,-122.2146,95.2724,-0.3352545,-0.3232817,-11.21056
09.32.07.859921, 0.1464414,-1.72999,0.2383065,-2.671624,-3.234791,119.917,47.48483,-122.2146,95.39088,-0.2306917,-0.8705299,-11.22446
09.32.07.933925, 0.1173284,-1.742304,0.3185564,-2.282268,-8.292695,120.8111,47.48483,-122.2146,95.60165,-0.06906117,-1.410801,-11.18275
09.32.08.010930, 0.08617125,-1.589301,0.3854423,-1.876313,-12.90956,121.8705,47.48482,-122.2146,95.89232,0.1253874,-1.879183,-11.10183
09.32.08.085934, 0.05841808,-1.392404,0.4327817,-1.4336,-16.95438,123.0442,47.48481,-122.2146,96.26142,0.3589203,-2.348676,-10.98533
09.32.08.164938, 0.04084886,-1.081208,0.4610202,-0.9337213,-20.09427,124.2757,47.48481,-122.2146,96.67336,0.5559993,-2.610446,-10.8788
09.32.08.242943, 0.02609601,-0.6493724,0.4686426,-0.3993948,-21.97926,125.5128,47.48481,-122.2146,97.11191,0.7459384,-2.780252,-10.77042
09.32.08.318947, 0.02391118,-0.2076515,0.452327,0.1519255,-22.58046,126.6905,47.4848,-122.2146,97.55399,0.9012727,-2.812743,-10.67894
09.32.08.395952, 0.02848359,0.1734725,0.4094098,0.680226,-22.07417,127.7435,47.48479,-122.2146,98.00126,1.054661,-2.850143,-10.58653
09.32.08.473956, 0.04095577,0.4687432,0.3460603,1.163855,-20.71146,128.6192,47.48479,-122.2146,98.44497,1.183404,-2.828635,-10.50679
09.32.08.553961, 0.05309396,0.6949355,0.2660742,1.577698,-18.69577,129.279,47.48479,-122.2146,98.87647,1.28262,-2.747881,-10.44427
09.32.08.632965, 0.06614186,0.8557217,0.1731931,1.917885,-16.22027,129.6881,47.48478,-122.2146,99.2603,1.308194,-2.442995,-10.42504
09.32.08.709970, 0.06495043,0.9875616,0.06895424,2.152901,-13.37231,129.8249,47.48478,-122.2146,99.59716,1.321871,-2.139172,-10.41148
09.32.08.788974, 0.05674321,1.090737,-0.0397497,2.285375,-10.23749,129.6747,47.48477,-122.2146,99.89365,1.331801,-1.873029,-10.39872
09.32.08.865979, 0.04065368,1.174735,-0.1468884,2.325333,-6.872375,129.2369,47.48477,-122.2146,100.1546,1.335551,-1.640897,-10.38991
09.32.08.945983, 0.02606401,1.238078,-0.2484464,2.314065,-3.336387,128.5171,47.48476,-122.2146,100.3425,1.306584,-1.186984,-10.40196
09.32.09.020987, -0.004006465,1.288287,-0.3415876,2.244982,0.3336689,127.5355,47.48476,-122.2146,100.4613,1.279947,-0.7656476,-10.41261
09.32.09.093992, -0.03950157,1.32789,-0.4214015,2.137816,4.109251,126.3213,47.48475,-122.2146,100.516,1.253405,-0.3816567,