DateTime,PitchVelocityRadsPerS,RollVelocityRadsPerS,YawVelocityRadsPerS,PitchDegrees,RollDegrees,MagHeadingDegrees,LatitudeDegrees,LongitudeDegrees,ZAltitudeFtAgl,YVelocityNEDFrameMs,ZVelocityNEDFrameMs,XVelocityNEDFrameMs
11.48.13.711039, 0.0001824283,-0.000243842,0,-1.220706,0.2343775,122.2263,47.50046,-122.2169,0.09297888,0,-0.0003671892,0
11.48.13.784043, -0.0001592735,1.984748E-05,0,-1.221164,0.2344346,122.2263,47.50046,-122.2169,0.09296848,0,6.976429E-05,0
11.48.13.851047, 3.383703E-05,0.0001411315,0,-1.221067,0.2348409,122.2263,47.50046,-122.2169,0.09295544,0,7.909791E-05,0
11.48.13.917051, -0.0002852179,0.0002065711,0,-1.221888,0.2354358,122.2263,47.50046,-122.2169,0.09294415,0,7.510884E-05,0
11.48.13.985055, 1.418352E-05,-6.221665E-05,0,-1.221847,0.2352566,122.2263,47.50046,-122.2169,0.09290668,0,0.0002273019,0
11.48.14.061059, -0.000175766,-0.0001875023,0,-1.222354,0.2347168,122.2263,47.50046,-122.2169,0.09296892,0,-0.0003708885,0
11.48.14.130063, 9.498339E-05,-0.0002592606,0,-1.22208,0.2339704,122.2263,47.50046,-122.2169,0.0929323,0,0.0002221034,0
11.48.14.194067, -0.000245634,3.644175E-06,0,-1.222787,0.2339809,122.2263,47.50046,-122.2169,0.09292042,0,7.870532E-05,0
11.48.14.262071, 0.0001744318,0.0001242692,0,-1.222285,0.2343386,122.2263,47.50046,-122.2169,0.09295667,0,-0.0002198205,0
11.48.14.336075, -8.95124E-05,-0.0001256352,0,-1.222543,0.2339769,122.2263,47.50046,-122.2169,0.09292108,0,0.0002225483,0
11.48.14.426080, 0.0003140923,6.58635E-05,0,-1.221638,0.2341665,122.2263,47.50046,-122.2169,0.09295661,0,-0.0002154823,0
11.48.14.522086, -4.42393E-05,0.0001571351,0,-1.221766,0.2346189,122.2263,47.50046,-122.2169,0.0929453,0,7.520915E-05,0
11.48.14.601090, 0.0002275855,-0.0001032932,0,-1.221111,0.2343214,122.2263,47.50046,-122.2169,0.09290714,0,0.0002314757,0
11.48.14.682095, -6.577536E-05,8.573531E-05,0,-1.2213,0.2345683,122.2263,47.50046,-122.2169,0.09299336,0,-0.0005164272,0
11.48.14.762099, 0.0001090122,0.0001766174,0,-1.220986,0.2350768,122.2263,47.50046,-122.2169,0.09298133,0,7.301832E-05,0
11.48.14.836103, -0.0001376548,-8.27234E-05,0,-1.221382,0.2348386,122.2263,47.50046,-122.2169,0.09294495,0,0.00022732,0
11.48.14.914108, 0.0001595296,-0.0002064,0,-1.220923,0.2342444,122.2263,47.50046,-122.2169,0.09290648,0,0.000233299,0
11.48.14.992112, -0.0001218445,3.73618E-05,0,-1.221274,0.234352,122.2263,47.50046,-122.2169,0.09299272,0,-0.0005164729,0
11.48.15.070117, 5.850673E-05,0.0001497851,0,-1.221105,0.2347832,122.2263,47.50046,-122.2169,0.09298071,0,7.29247E-05,0
11.48.15.149121, -0.0002768591,0.0002117601,0,-1.221902,0.2353929,122.2263,47.50046,-122.2169,0.09296898,0,7.780144E-05,0
11.48.15.226126, 2.183514E-05,-5.819241E-05,0,-1.22184,0.2352254,122.2263,47.50046,-122.2169,0.09293108,0,0.0002298507,0
11.48.15.304130, -0.0002063467,-0.0001849867,0,-1.222434,0.2346928,122.2263,47.50046,-122.2169,0.09289435,0,0.000229408,0
11.48.15.383135, 0.0001281407,-0.0002545544,0,-1.222065,0.2339599,122.2263,47.50046,-122.2169,0.0929544,0,-0.0003642776,0
11.48.15.463139, -0.0002228479,7.897619E-06,0,-1.222706,0.2339826,122.2263,47.50046,-122.2169,0.09294354,0,7.25321E-05,0
11.48.15.540144, 0.0001438077,0.0001272297,0,-1.222293,0.2343489,122.2263,47.50046,-122.2169,0.09298092,0,0.0003805718,0
11.48.15.615148, -0.0001681049,-0.0004339005,0,-1.222777,0.2330997,122.2263,47.50046,-122.2169,0.09301738,0,-0.0002145036,0
11.48.15.707153, 3.45414E-05,-9.370751E-05,0,-1.222677,0.2328299,122.2263,47.50046,-122.2169,0.09305375,0,-0.0002206013,0
11.48.15.790158, -0.0003384557,5.295883E-05,0,-1.223652,0.2329824,122.2263,47.50046,-122.2169,0.09299335,0,0.0003730615,0
11.48.15.869163, -0.0001213089,0.0001248316,0,-1.224001,0.2333419,122.2263,47.50046,-122.2169,0.09302853,0,-0.0002133877,0
11.48.15.949167, 0.0001148649,-0.0001477665,0,-1.22367,0.2329164,122.2263,47.50046,-122.2169,0.09294266,0,0.0005274956,0
11.48.16.024171, -0.000210515,3.230827E-05,0,-1.224276,0.2330095,122.2263,47.50046,-122.2169,0.09297758,0,-0.0002117811,0
11.48.16.104176, 7.529298E-05,-0.0001967173,0,-1.224059,0.2324431,122.2263,47.50046,-122.2169,0.09299037,0,-7.099381E-05,0
11.48.16.182180, -0.0001616123,0.0003119862,0,-1.224525,0.2333414,122.2263,47.50046,-122.2169,0.09305146,0,-0.0003705261,0
11.48.16.260185, 5.847705E-05,-6.233762E-05,0,-1.224356,0.2331619,122.2263,47.50046,-122.2169,0.09296596,0,0.0005252454,0
11.48.16.342190, -0.0001807106,-0.0002356455,0,-1.224877,0.2324835,122.2263,47.50046,-122.2169,0.09297626,0,-6.244982E-05,0
11.48.16.423194, 0.0002128184,-1.788618E-05,0,-1.224264,0.232432,122.2263,47.50046,-122.2169,0.09301313,0,-0.0002170619,0
11.48.16.508199, -4.081637E-05,0.0003933203,0,-1.224381,0.2335644,122.2263,47.50046,-122.2169,0.09307422,0,-0.0003705718,0
11.48.16.577203, 0.0001664151,-1.931986E-05,0,-1.223902,0.2335087,122.2263,47.50046,-122.2169,0.0929884,0,0.0005272604,0
11.48.16.646207, -7.755237E-05,-0.00020705,0,-1.224126,0.2329126,122.2263,47.50046,-122.2169,0.09299839,0,-6.057862E-05,0
11.48.16.720211, 0.000203627,-0.0003072584,0,-1.223539,0.2320279,122.2263,47.50046,-122.2169,0.09301033,0,-6.586161E-05,0
11.48.16.787215, -3.548434E-05,0.0002520407,0,-1.223641,0.2327536,122.2263,47.50046,-122.2169,0.09307095,0,-0.0003676942,0
11.48.16.863219, 9.106653E-05,0.0002098905,0,-1.223379,0.2333579,122.2263,47.50046,-122.2169,0.09300964,0,0.0003786044,0
11.48.16.934223, -0.0002377496,0.0002071002,0,-1.224064,0.2339542,122.2263,47.50046,-122.2169,0.09304467,0,-0.0002124934,0
11.48.17.010228, 1.112903E-05,-9.389454E-05,0,-1.224032,0.233684,122.2263,47.50046,-122.2169,0.09295866,0,0.0005282461,0
11.48.17.089232, -0.000216086,-0.0002363418,0,-1.224654,0.2330035,122.2263,47.50046,-122.2169,0.09296878,0,-6.141396E-05,0
11.48.17.166237, 7.224002E-05,-0.0003179834,0,-1.224446,0.232088,122.2263,47.50046,-122.2169,0.09298085,0,-6.660111E-05,0
11.48.17.245241, -7.243112E-05,0.0005617306,0,-1.224654,0.2337053,122.2263,47.50046,-122.2169,0.09301695,0,-0.0002189608,0
11.48.17.320246, 0.0002748405,0.0003752506,0,-1.223863,0.2347856,122.2263,47.50046,-122.2169,0.09300448,0,8.241757E-05,0
11.48.17.400250, 0.0001007511,0.0003176532,0,-1.223573,0.2357002,122.2263,47.50046,-122.2169,0.09299047,0,8.494608E-05,0
11.48.17.477255, -0.0001370226,1.137656E-06,0,-1.223967,0.2357035,122.2263,47.50046,-122.2169,0.09300249,0,-6.640723E-05,0
11.48.17.556259, 0.0002524153,-0.0004554382,0,-1.223241,0.2343921,122.2263,47.50046,-122.2169,0.09303782,0,-0.0002143101,0
11.48.17.631263, 4.183651E-05,-7.165212E-05,0,-1.22312,0.2341859,122.2263,47.50046,-122.2169,0.09292706,0,0.0006783943,0
11.48.17.706268, -7.82606E-05,9.884969E-05,0,-1.223346,0.2344705,122.2263,47.50046,-122.2169,0.0929119,0,9.194508E-05,0
11.48.17.782272, 0.0003517719,0.0001851939,0,-1.222333,0.2350036,122.2263,47.50046,-122.2169,0.0929969,0,-0.0005096479,0
11.48.17.869277, 8.061971E-05,-7.602091E-05,0,-1.222101,0.2347848,122.2263,47.50046,-122.2169,0.09300871,0,-7.168799E-05,0
11.48.17.947281, -0.0001586461,-0.0002002566,0,-1.222557,0.2342082,122.2263,47.50046,-122.2169,0.09302101,0,-6.800933E-05,0
11.48.18.026286, 0.0001333399,-0.0002711804,0,-1.222174,0.2334273,122.2263,47.50046,-122.2169,0.0930316,0,-6.41869E-05,0
11.48.18.104290, -0.000141111,0.0003020404,0,-1.22258,0.234297,122.2263,47.50046,-122.2169,0.0929452,0,0.0005307219,0
11.48.18.186295, 0.0001720248,-4.063126E-05,0,-1.222085,0.23418,122.2263,47.50046,-122.2169,0.0929542,0,-5.457713E-05,0
11.48.18.265300, -0.0001447974,0.0001146011,0,-1.222501,0.23451,122.2263,47.50046,-122.2169,0.09299083,0,-0.000215563,0
11.48.18.352305, 0.0001413748,-0.0001201606,0,-1.222094,0.234164,122.2263,47.50046,-122.2169,0.09300166,0,-6.57182E-05,0
11.48.18.432309, -0.0001904461,7.798193E-05,0,-1.222643,0.2343886,122.2263,47.50046,-122.2169,0.09303833,0,-0.0002157297,0
11.48.18.510314, 5.958915E-05,-0.0001411203,0,-1.222471,0.2339822,122.2263,47.50046,-122.2169,0.09295066,0,0.0005317191,0
11.48.18.592318, -0.0002466518,6.389925E-05,0,-1.223181,0.2341663,122.2263,47.50046,-122.2169,0.09298592,0,-0.0002072701,0
11.48.18.669323, 0.0001475381,0.0001610872,0,-1.222757,0.2346301,122.2263,47.50046,-122.2169,0.09297223,0,8.308592E-05,0
11.48.18.747327, -9.418322E-05,-9.580663E-05,0,-1.223028,0.2343542,122.2263,47.50046,-122.2169,0.09298377,0,-6.337921E-05,0
11.48.18.823332, 0.0001907413,-0.0002194117,0,-1.222478,0.2337224,122.2263,47.50046,-122.2169,0.09299398,0,-6.190502E-05,0
11.48.18.902336, -7.289367E-05,0.0003340764,0,-1.222688,0.2346843,122.2263,47.50046,-122.2169,0.09295648,0,0.0002341059,0
11.48.18.983341, 0.0002024416,-1.657719E-05,0,-1.222106,0.2346366,122.2263,47.50046,-122.2169,0.09291656,0,0.0002420977,0
11.48.19.068346, -1.92282E-06,-0.0001755077,0,-1.222111,0.2341312,122.2263,47.50046,-122.2169,0.09297677,0,-0.0003585847,0
11.48.19.147350, 0.0001657788,5.163728E-05,0,-1.221634,0.2342798,122.2263,47.50046,-122.2169,0.09296279,0,8.479051E-05,0
11.48.19.225355, -0.0001798265,0.0001585174,0,-1.222152,0.2347362,122.2263,47.50046,-122.2169,0.09294951,0,8.722317E-05,0
11.48.19.305359, 0.000109128,-9.477934E-05,0,-1.221837,0.2344633,122.2263,47.50046,-122.2169,0.09291008,0,0.0002391766,0
11.48.19.389364, -8.716467E-05,-0.0002153135,0,-1.222088,0.2338434,122.2263,47.50046,-122.2169,0.09297037,0,-0.0003591096,0
11.48.19.476369, 8.860879E-05,2.650939E-05,0,-1.221833,0.2339197,122.2263,47.50046,-122.2169,0.09295647,0,8.431351E-05,0
11.48.19.547373, -0.0002520285,0.0001383518,0,-1.222559,0.2343181,122.2263,47.50046,-122.2169,0.09294324,0,8.693786E-05,0
11.48.19.614377, 3.918445E-05,-0.0001141547,0,-1.222446,0.2339894,122.2263,47.50046,-122.2169,0.09290386,0,0.0002388434,0
11.48.19.684381, -0.0002494078,7.762895E-05,0,-1.223164,0.234213,122.2263,47.50046,-122.2169,0.09298883,0,-0.000508772,0
11.48.19.751385, 0.0001078999,0.0001684173,0,-1.222853,0.2346978,122.2263,47.50046,-122.2169,0.09292626,0,0.0003795234,0
11.48.19.819388, -0.000145993,-9.095963E-05,0,-1.223274,0.234436,122.2263,47.50046,-122.2169,0.09288751,0,0.0002416845,0
11.48.19.886392, 0.0002710637,9.868359E-05,0,-1.222493,0.2347201,122.2263,47.50046,-122.2169,0.09292134,0,-0.000205212,0
11.48.19.957396, 3.995353E-05,-0.0001208051,0,-1.222378,0.2343723,122.2263,47.50046,-122.2169,0.09298225,0,-0.0003627953,0
11.48.20.026400, -0.0002207654,-0.0002304095,0,-1.223014,0.2337089,122.2263,47.50046,-122.2169,0.09294434,0,0.000229957,0
11.48.20.097404, 0.0001497695,1.586013E-05,0,-1.222583,0.2337545,122.2263,47.50046,-122.2169,0.09288066,0,0.0003920222,0
11.48.20.169409, -4.923674E-05,0.0004436192,0,-1.222725,0.2350318,122.2263,47.50046,-122.2169,0.09293912,0,-0.0003546347,0
11.48.20.241413, 0.0002119758,4.275942E-05,0,-1.222114,0.2351549,122.2263,47.50046,-122.2169,0.09290134,0,0.0002358652,0
11.48.20.313417, -6.993301E-06,-0.0001351128,0,-1.222134,0.2347659,122.2263,47.50046,-122.2169,0.09296004,0,-0.0003559994,0
11.48.20.388421, 0.0002531472,-0.0002271204,0,-1.221406,0.2341119,122.2263,47.50046,-122.2169,0.09292209,0,0.000236705,0
11.48.20.459425, -5.395919E-05,2.943308E-05,0,-1.221561,0.2341967,122.2263,47.50046,-122.2169,0.09300526,0,-0.0005044886,0
11.48.20.528429, 0.000119147,0.0001469906,0,-1.221218,0.2346199,122.2263,47.50046,-122.2169,0.09299238,0,8.481311E-05,0
11.48.20.595433, -0.0002207196,0.0002110567,0,-1.221853,0.2352276,122.2263,47.50046,-122.2169,0.09297761,0,8.959401E-05,0
11.48.20.663437, 7.564722E-05,-5.810599E-05,0,-1.221635,0.2350603,122.2263,47.50046,-122.2169,0.09293888,0,0.0002415475,0
11.48.20.737441, -0.0001529884,-0.000184621,0,-1.222076,0.2345287,122.2263,47.50046,-122.2169,0.09289911,0,0.0002411526,0
11.48.20.803445, 0.0001827739,-0.000254147,0,-1.22155,0.233797,122.2263,47.50046,-122.2169,0.09295835,0,-0.0003526768,0
11.48.20.871449, -0.000165386,8.233083E-06,0,-1.222026,0.2338208,122.2263,47.50046,-122.2169,0.09294447,0,8.422882E-05,0
11.48.20.940453, 2.169008E-05,0.0001281199,0,-1.221963,0.2341896,122.2263,47.50046,-122.2169,0.09293017,0,9.341867E-05,0
11.48.21.009457, -0.0003032525,0.000191962,0,-1.222837,0.2347424,122.2263,47.50046,-122.2169,0.09291542,0,8.947752E-05,0
11.48.21.077460, 2.883216E-05,-7.736516E-05,0,-1.222754,0.2345197,122.2263,47.50046,-122.2169,0.09297524,0,-0.0003562209,0
11.48.21.145464, -0.0002297714,-0.0002064874,0,-1.223415,0.2339252,122.2263,47.50046,-122.2169,0.09293694,0,0.0002322662,0
11.48.21.214468, 0.0001376513,3.249754E-05,0,-1.223019,0.2340187,122.2263,47.50046,-122.2169,0.09287301,0,0.0003944273,0
11.48.21.283472, 2.747351E-05,0.000144788,0,-1.22294,0.2344355,122.2263,47.50046,-122.2169,0.09290645,0,-0.0002028526,0
11.48.21.354476, -0.0001800626,-0.0001062289,0,-1.223458,0.2341297,122.2263,47.50046,-122.2169,0.09296735,0,-0.0003627362,0
11.48.21.421480, 0.0001632548,8.351866E-05,0,-1.222988,0.2343701,122.2263,47.50046,-122.2169,0.09290367,0,0.0003862461,0
11.48.21.489484, -5.521468E-05,-0.0001359095,0,-1.223147,0.2339789,122.2263,47.50046,-122.2169,0.09296273,0,-0.0003516888,0
11.48.21.559488, 0.00029418,6.630833E-05,0,-1.2223,0.2341697,122.2263,47.50046,-122.2169,0.09289874,0,0.0003881402,0
11.48.21.628492, 7.154216E-05,-0.0001486167,0,-1.222094,0.2337418,122.2263,47.50046,-122.2169,0.0929575,0,-0.0003497468,0
11.48.21.694496, -0.0002665388,5.542094E-05,0,-1.222862,0.2339015,122.2263,47.50046,-122.2169,0.09294353,0,8.46668E-05,0
11.48.21.764500, 0.000104913,0.0001512705,0,-1.222559,0.234337,122.2263,47.50046,-122.2169,0.09287973,0,0.0003928503,0
11.48.21.832504, -0.0002039566,-0.0004190012,0,-1.223147,0.2331306,122.2263,47.50046,-122.2169,0.09291305,0,-0.0002021293,0
11.48.21.899507, 3.28426E-07,-8.195276E-05,0,-1.223146,0.2328947,122.2263,47.50046,-122.2169,0.09294848,0,-0.0002082749,0
11.48.21.967511, 0.0001310111,6.393666E-05,0,-1.222768,0.2330787,122.2263,47.50046,-122.2169,0.09288385,0,0.0003920492,0
11.48.22.032515, -0.0001893589,0.0001362839,0,-1.223314,0.2334712,122.2263,47.50046,-122.2169,0.09291828,0,-0.0002013489,0
11.48.22.098519, 0.0001037563,-0.0001341785,0,-1.223015,0.2330847,122.2263,47.50046,-122.2169,0.0929279,0,-5.830915E-05,0
11.48.22.170523, -0.000271346,4.528176E-05,0,-1.223796,0.2332152,122.2263,47.50046,-122.2169,0.09286477,0,0.0003895229,0
11.48.22.243527, 3.607886E-05,-0.0001821935,0,-1.223692,0.2326905,122.2263,47.50046,-122.2169,0.09287297,0,-4.980165E-05,0
11.48.22.308531, -0.0002880619,1.50216E-05,0,-1.224522,0.2327339,122.2263,47.50046,-122.2169,0.09290849,0,-0.0002087748,0
11.48.22.378535, 0.00010171,0.0001057354,0,-1.224229,0.2330383,122.2263,47.50046,-122.2169,0.09294284,0,-0.0002083549,0
11.48.22.455539, -0.0002000189,-0.0001598872,0,-1.224805,0.232578,122.2264,47.50046,-122.2169,0.09285539,0,0.000537129,0
11.48.22.521543, 0.0002032663,2.236698E-05,0,-1.224219,0.2326424,122.2263,47.50046,-122.2169,0.09288763,0,-0.0001956301,0
11.48.22.589547, -0.0001439765,0.0001068945,0,-1.224634,0.2329502,122.2264,47.50046,-122.2169,0.09292307,0,-0.0002083412,0
11.48.22.659551, 0.0001166588,-0.0001602314,0,-1.224298,0.2324888,122.2263,47.50046,-122.2169,0.09293241,0,-5.657949E-05,0
11.48.22.727555, -0.0001625267,0.0003323142,0,-1.224766,0.2334456,122.2264,47.50046,-122.2169,0.0928937,0,0.0002413963,0
11.48.22.795559, 0.0001187132,-4.570472E-05,0,-1.224424,0.233314,122.2264,47.50046,-122.2169,0.09290189,0,-4.970141E-05,0
11.48.22.864563, -0.000132306,-0.0002204446,0,-1.224805,0.2326793,122.2264,47.50046,-122.2169,0.09291238,0,-5.704511E-05,0
11.48.22.934567, 0.0002458773,-2.511342E-06,0,-1.224097,0.232672,122.2263,47.50046,-122.2169,0.09294584,0,-0.0002029352,0
11.48.22.998570, -0.0001560429,9.517826E-05,0,-1.224547,0.2329461,122.2264,47.50046,-122.2169,0.09288252,0,0.0003907276,0
11.48.23.067574, 0.0001293076,-0.0001657105,0,-1.224174,0.232469,122.2263,47.50046,-122.2169,0.09289023,0,-4.672794E-05,0
11.48.23.134578, -9.7333E-05,0.0003307705,0,-1.224454,0.2334213,122.2263,47.50046,-122.2169,0.09294987,0,-0.0003551739,0
11.48.23.201582, 0.0001203154,-4.787006E-05,0,-1.224108,0.2332835,122.2263,47.50046,-122.2169,0.09296086,0,0.0005406454,0
11.48.23.269586, -2.724004E-05,9.055174E-05,0,-1.224186,0.2335442,122.2263,47.50046,-122.2169,0.09294506,0,0.0001024231,0
11.48.23.347590, 0.0003485392,0.0001597947,0,-1.223183,0.2340043,122.2263,47.50046,-122.2169,0.0929285,0,0.0001004468,0
11.48.23.420594, 0.0001844097,0.0002027764,0,-1.222652,0.234588,122.2263,47.50046,-122.2169,0.09291332,0,9.866221E-05,0
11.48.23.497599, -1.088624E-05,-7.46539E-05,0,-1.222683,0.234373,122.2263,47.50046,-122.2169,0.09302055,0,-0.0006503909,0
11.48.23.576603, 0.0002488753,-0.000207262,0,-1.221967,0.2337762,122.2263,47.50046,-122.2169,0.09303136,0,-5.979518E-05,0
11.48.23.654608, -0.0001385419,2.944637E-05,0,-1.222366,0.2338609,122.2263,47.50046,-122.2169,0.09296633,0,0.0003944586,0
11.48.23.730612, 0.00017253,0.0004530315,0,-1.221869,0.2351652,122.2263,47.50046,-122.2169,0.09297483,0,-4.491385E-05,0
11.48.23.806617, -5.176125E-05,5.220329E-05,0,-1.222018,0.2353156,122.2263,47.50046,-122.2169,0.09298381,0,-5.446203E-05,0
11.48.23.883621, 0.0002383862,-0.0001261464,0,-1.221332,0.2349524,122.2263,47.50046,-122.2169,0.09299322,0,-5.049583E-05,0
11.48.23.960625, 3.257213E-06,-0.0002165063,0,-1.221322,0.234329,122.2263,47.50046,-122.2169,0.09300199,0,-5.323889E-05,0
11.48.24.035630, -0.0003001267,4.026816E-05,0,-1.222186,0.2344449,122.2263,47.50046,-122.2169,0.09303696,0,-0.0002054548,0
11.48.24.113634, -3.351562E-05,-0.0001546764,0,-1.222283,0.2339996,122.2263,47.50046,-122.2169,0.09294755,0,0.0005423294,0
11.48.24.194639, 0.0001769332,6.034505E-05,0,-1.221773,0.2341733,122.2263,47.50046,-122.2169,0.09297996,0,-0.0001899026,0
11.48.24.269643, -0.0001407756,0.0001625172,0,-1.222179,0.2346413,122.2263,47.50046,-122.2169,0.09301376,0,-0.0002050578,0
11.48.24.344647, 0.0001466814,-9.262607E-05,0,-1.221757,0.2343745,122.2263,47.50046,-122.2169,0.09302359,0,-5.296057E-05,0
11.48.24.420652, -0.0001803612,9.811795E-05,0,-1.222276,0.2346571,122.2263,47.50046,-122.2169,0.09305705,0,-0.0002029241,0
11.48.24.500656, 7.436355E-05,-0.0001228985,0,-1.222062,0.2343032,122.2263,47.50046,-122.2169,0.09296835,0,0.0005445726,0
11.48.24.577661, -0.0002271488,8.250491E-05,0,-1.222716,0.2345409,122.2263,47.50046,-122.2169,0.0930004,0,-0.0001944166,0
11.48.24.654665, 7.990851E-05,-0.0001315523,0,-1.222485,0.234162,122.2263,47.50046,-122.2169,0.09301031,0,-5.338963E-05,0
11.48.24.730669, -0.0001565766,-0.0002380887,0,-1.222936,0.2334766,122.2263,47.50046,-122.2169,0.09301917,0,-5.373652E-05,0
11.48.24.805674, 0.0001330472,0.00032246,0,-1.222553,0.2344051,122.2263,47.50046,-122.2169,0.0930285,0,-5.000994E-05,0
11.48.24.883678, -5.160162E-05,-0.0003402872,0,-1.222702,0.2334254,122.2263,47.50046,-122.2169,0.09291403,0,0.0006943238,0
11.48.24.958682, 0.0003900792,-3.699751E-05,0,-1.221579,0.2333187,122.2263,47.50046,-122.2169,0.09299511,0,-0.0004852245,0
11.48.25.034687, 0.0002317474,9.677501E-05,0,-1.220912,0.2335973,122.2263,47.50046,-122.2169,0.09297973,0,9.33424E-05,0
11.48.25.108691, -7.234709E-07,-0.0001480447,0,-1.220913,0.233171,122.2263,47.50046,-122.2169,0.09298889,0,-4.890547E-05,0
11.48.25.185695, 0.0003002462,-0.000269805,0,-1.220049,0.2323941,122.2263,47.50046,-122.2169,0.09299669,0,-4.728751E-05,0
11.48.25.267700, 7.371602E-05,-0.0003444664,0,-1.219837,0.2314023,122.2263,47.50046,-122.2169,0.09300601,0,-4.988681E-05,0
11.48.25.343704, -3.543933E-05,-9.026995E-05,0,-1.219939,0.2311424,122.2263,47.50046,-122.2169,0.09299003,0,9.689092E-05,0
11.48.25.420709, 0.000373586,1.894636E-05,0,-1.218863,0.2311969,122.2263,47.50046,-122.2169,0.09297378,0,0.0001044993,0
11.48.25.496713, 0.0002543997,7.024028E-05,0,-1.218131,0.2313991,122.2263,47.50046,-122.2169,0.09295675,0,0.0001032419,0
11.48.25.572718, 6.432414E-05,-0.0002140875,0,-1.217945,0.2307827,122.2263,47.50046,-122.2169,0.09296568,0,-4.748844E-05,0
11.48.25.649722, -0.0001308974,0.0002669242,0,-1.218322,0.2315513,122.2263,47.50046,-122.2169,0.09292496,0,0.000246989,0
11.48.25.725726, 0.0002183541,-0.0001210246,0,-1.217694,0.2312028,122.2263,47.50046,-122.2169,0.09293303,0,-4.315032E-05,0
11.48.25.803731, 3.214336E-05,-0.000305537,0,-1.217601,0.2303231,122.2263,47.50046,-122.2169,0.09294123,0,-4.972725E-05,0
11.48.25.879735, -0.0001598338,0.0002139542,0,-1.218061,0.2309391,122.2263,47.50046,-122.2169,0.09290161,0,0.0002469546,0
11.48.25.954739, 0.0003255516,0.0001537554,0,-1.217124,0.2313817,122.2263,47.50046,-122.2169,0.09298262,0,-0.0004913636,0
11.48.26.027744, 7.844474E-06,0.0001368529,0,-1.217102,0.2317757,122.2263,47.50046,-122.2169,0.09296813,0,9.453563E-05,0
11.48.26.105748, -0.0001624588,-0.0001741354,0,-1.217569,0.2312744,122.2263,47.50046,-122.2169,0.09297629,0,-4.953333E-05,0
11.48.26.182752, 7.866495E-05,-1.519091E-05,0,-1.217343,0.2312306,122.2263,47.50046,-122.2169,0.09296037,0,0.0001022763,0
11.48.26.258757, -0.0002035046,5.584068E-05,0,-1.217929,0.2313915,122.2263,47.50046,-122.2169,0.0929437,0,0.0001011627,0
11.48.26.344762, 0.0001547042,-0.0002204651,0,-1.217483,0.2307566,122.2263,47.50046,-122.2169,0.09295224,0,-4.511076E-05,0
11.48.26.423766, -0.0001379468,-4.891755E-05,0,-1.217881,0.2306159,122.2263,47.50046,-122.2169,0.09293572,0,0.0001001813,0
11.48.26.501771, 8.066292E-05,0.0006508483,0,-1.217649,0.2324897,122.2263,47.50046,-122.2169,0.09287016,0,0.0004042913,0
11.48.26.581775, -0.0001522331,0.0003911724,0,-1.218087,0.233616,122.2263,47.50046,-122.2169,0.09295117,0,-0.0004913592,0
11.48.26.663780, 7.262507E-05,0.000300501,0,-1.217878,0.2344812,122.2263,47.50046,-122.2169,0.09293635,0,9.640906E-05,0
11.48.26.743785, -0.0002253253,0.000280235,0,-1.218526,0.2352881,122.2263,47.50046,-122.2169,0.09291955,0,0.0001019088,0
11.48.26.820789, 5.560786E-05,0.0002921227,0,-1.218366,0.2361291,122.2263,47.50046,-122.2169,0.09300186,0,-0.0004927353,0
11.48.26.897793, -0.0002541976,0.000317101,0,-1.219098,0.2370422,122.2263,47.50046,-122.2169,0.09298656,0,9.278052E-05,0
11.48.26.975798, 6.243334E-05,3.75242E-05,0,-1.218918,0.2371503,122.2263,47.50046,-122.2169,0.09294572,0,0.0002542228,0
11.48.27.054802, -0.0001343464,-8.692268E-05,0,-1.219305,0.2369,122.2263,47.50046,-122.2169,0.09290383,0,0.0002541155,0
11.48.27.109805, -0.0001343464,-8.692268E-05,0,-1.219305,0.2369,122.2263,47.50046,-122.2169,0.09290383,0,0.0002541155,0
11.48.27.136807, -0.0001343464,-8.692268E-05,0,-1.219305,0.2369,122.2263,47.50046,-122.2169,0.09290383,0,0.0002541155,0
11.48.27.163809, -0.0001343464,-8.692268E-05,0,-1.219305,0.2369,122.2263,47.50046,-122.2169,0.09290383,0,0.0002541155,0
11.48.27.189810, -0.0001343464,-8.692268E-05,0,-1.219305,0.2369,122.2263,47.50046,-122.2169,0.09290383,0,0.0002541155,0
11.48.27.216812, -0.0001343464,-8.692268E-05,0,-1.219305,0.2369,122.2263,47.50046,-122.2169,0.09290383,0,0.0002541155,0
11.48.27.241813, -0.0001343464,-8.692268E-05,0,-1.219305,0.2369,122.2263,47.50046,-122.2169,0.09290383,0,0.0002541155,0
11.48.27.268815, -0.0001343464,-8.692268E-05,0,-1.219305,0.2369,122.2263,47.50046,-122.2169,0.09290383,0,0.0002541155,0
11.48.27.295816, -0.0001343464,-8.692268E-05,0,-1.219305,0.2369,122.2263,47.50046,-122.2169,0.09290383,0,0.0002541155,0
11.48.27.321818, -0.0001343464,-8.692268E-05,0,-1.219305,0.2369,122.2263,47.50046,-122.2169,0.09290383,0,0.0002541155,0
11.48.27.348819, -0.0001343464,-8.692268E-05,0,-1.219305,0.2369,122.2263,47.50046,-122.2169,0.09290383,0,0.0002541155,0
11.48.27.376821, -0.0001343464,-8.692268E-05,0,-1.219305,0.2369,122.2263,47.50046,-122.2169,0.09290383,0,0.0002541155,0
11.48.27.403822, -0.0001343464,-8.692268E-05,0,-1.219305,0.2369,122.2263,47.50046,-122.2169,0.09290383,0,0.0002541155,0
11.48.27.428824, -0.0001343464,-8.692268E-05,0,-1.219305,0.2369,122.2263,47.50046,-122.2169,0.09290383,0,0.0002541155,0
11.48.27.453825, -0.0001343464,-8.692268E-05,0,-1.219305,0.2369,122.2263,47.50046,-122.2169,0.09290383,0,0.0002541155,0
11.48.27.479827, -0.0001343464,-8.692268E-05,0,-1.219305,0.2369,122.2263,47.50046,-122.2169,0.09290383,0,0.0002541155,0
11.48.27.506828, -0.0001343464,-8.692268E-05,0,-1.219305,0.2369,122.2263,47.50046,-122.2169,0.09290383,0,0.0002541155,0
11.48.27.536830, -0.0001343464,-8.692268E-05,0,-1.219305,0.2369,122.2263,47.50046,-122.2169,0.09290383,0,0.0002541155,0
11.48.27.562831, -0.0001343464,-8.692268E-05,0,-1.219305,0.2369,122.2263,47.50046,-122.2169,0.09290383,0,0.0002541155,0
11.48.27.588833, -0.0001343464,-8.692268E-05,0,-1.219305,0.2369,122.2263,47.50046,-122.2169,0.09290383,0,0.0002541155,0
11.48.27.615834, -0.0001343464,-8.692268E-05,0,-1.219305,0.2369,122.2263,47.50046,-122.2169,0.09290383,0,0.0002541155,0
11.48.27.644836, -0.0001343464,-8.692268E-05,0,-1.219305,0.2369,122.2263,47.50046,-122.2169,0.09290383,0,0.0002541155,0
11.48.27.670838, -0.0001343464,-8.692268E-05,0,-1.219305,0.2369,122.2263,47.50046,-122.2169,0.09290383,0,0.0002541155,0
11.48.27.696839, -0.0001343464,-8.692268E-05,0,-1.219305,0.2369,122.2263,47.50046,-122.2169,0.09290383,0,0.0002541155,0
11.48.27.722841, -0.0001343464,-8.692268E-05,0,-1.219305,0.2369,122.2263,47.50046,-122.2169,0.09290383,0,0.0002541155,0
11.48.27.750842, -0.0001343464,-8.692268E-05,0,-1.219305,0.2369,122.2263,47.50046,-122.2169,0.09290383,0,0.0002541155,0
11.48.27.777844, -0.0001343464,-8.692268E-05,0,-1.219305,0.2369,122.2263,47.50046,-122.2169,0.09290383,0,0.0002541155,0
11.48.27.804845, -0.0001343464,-8.692268E-05,0,-1.219305,0.2369,122.2263,47.50046,-122.2169,0.09290383,0,0.0002541155,0
11.48.27.829847, -0.0001343464,-8.692268E-05,0,-1.219305,0.2369,122.2263,47.50046,-122.2169,0.09290383,0,0.0002541155,0
11.48.27.856848, -0.0001343464,-8.692268E-05,0,-1.219305,0.2369,122.2263,47.50046,-122.2169,0.09290383,0,0.0002541155,0
11.48.27.884850, -0.0001343464,-8.692268E-05,0,-1.219305,0.2369,122.2263,47.50046,-122.2169,0.09290383,0,0.0002541155,0
11.48.27.911851, -0.0001343464,-8.692268E-05,0,-1.219305,0.2369,122.2263,47.50046,-122.2169,0.09290383,0,0.0002541155,0
11.48.27.938853, -0.0001343464,-8.692268E-05,0,-1.219305,0.2369,122.2263,47.50046,-122.2169,0.09290383,0,0.0002541155,0
11.48.27.964854, -0.0001343464,-8.692268E-05,0,-1.219305,0.2369,122.2263,47.50046,-122.2169,0.09290383,0,0.0002541155,0
11.48.27.990856, -0.0001343464,-8.692268E-05,0,-1.219305,0.2369,122.2263,47.50046,-122.2169,0.09290383,0,0.0002541155,0
11.48.28.017857, -0.0001343464,-8.692268E-05,0,-1.219305,0.2369,122.2263,47.50046,-122.2169,0.09290383,0,0.0002541155,0
11.48.28.044859, -0.0001343464,-8.692268E-05,0,-1.219305,0.2369,122.2263,47.50046,-122.2169,0.09290383,0,0.0002541155,0
11.48.28.072861, -0.0001343464,-8.692268E-05,0,-1.219305,0.2369,122.2263,47.50046,-122.2169,0.09290383,0,0.0002541155,0
11.48.28.098862, -0.0001343464,-8.692268E-05,0,-1.219305,0.2369,122.2263,47.50046,-122.2169,0.09290383,0,0.0002541155,0
11.48.28.126864, -0.0001343464,-8.692268E-05,0,-1.219305,0.2369,122.2263,47.50046,-122.2169,0.09290383,0,0.0002541155,0
11.48.28.153865, -0.0001343464,-8.692268E-05,0,-1.219305,0.2369,122.2263,47.50046,-122.2169,0.09290383,0,0.0002541155,0
11.48.28.178867, -0.0001343464,-8.692268E-05,0,-1.219305,0.2369,122.2263,47.50046,-122.2169,0.09290383,0,0.0002541155,0
11.48.28.205868, -0.0001343464,-8.692268E-05,0,-1.219305,0.2369,122.2263,47.50046,-122.2169,0.09290383,0,0.0002541155,0
11.48.28.231870, -0.0001343464,-8.692268E-05,0,-1.219305,0.2369,122.2263,47.50046,-122.2169,0.09290383,0,0.0002541155,0
11.48.28.257871, -0.0001343464,-8.692268E-05,0,-1.219305,0.2369,122.2263,47.50046,-122.2169,0.09290383,0,0.0002541155,0
11.48.28.285873, -0.0001343464,-8.692268E-05,0,-1.219305,0.2369,122.2263,47.50046,-122.2169,0.09290383,0,0.0002541155,0
11.48.28.313874, -0.0001343464,-8.692268E-05,0,-1.219305,0.2369,122.2263,47.50046,-122.2169,0.09290383,0,0.0002541155,0
11.48.28.341876, -0.0001343464,-8.692268E-05,0,-1.219305,0.2369,122.2263,47.50046,-122.2169,0.09290383,0,0.0002541155,0
11.48.28.371878, -0.0001343464,-8.692268E-05,0,-1.219305,0.2369,122.2263,47.50046,-122.2169,0.09290383,0,0.0002541155,0
11.48.28.397879, -0.0001343464,-8.692268E-05,0,-1.219305,0.2369,122.2263,47.50046,-122.2169,0.09290383,0,0.0002541155,0
11.48.28.422881, -0.0001343464,-8.692268E-05,0,-1.219305,0.2369,122.2263,47.50046,-122.2169,0.09290383,0,0.0002541155,0
11.48.28.449882, -0.0001343464,-8.692268E-05,0,-1.219305,0.2369,122.2263,47.50046,-122.2169,0.09290383,0,0.0002541155,0
11.48.28.477884, -0.0001343464,-8.692268E-05,0,-1.219305,0.2369,122.2263,47.50046,-122.2169,0.09290383,0,0.0002541155,0
11.48.28.504885, -0.0001343464,-8.692268E-05,0,-1.219305,0.2369,122.2263,47.50046,-122.2169,0.09290383,0,0.0002541155,0
11.48.28.530887, -0.0001343464,-8.692268E-05,0,-1.219305,0.2369,122.2263,47.50046,-122.2169,0.09290383,0,0.0002541155,0
11.48.28.557888, -0.0001343464,-8.692268E-05,0,-1.219305,0.2369,122.2263,47.50046,-122.2169,0.09290383,0,0.0002541155,0
11.48.28.584890, -0.0001343464,-8.692268E-05,0,-1.219305,0.2369,122.2263,47.50046,-122.2169,0.09290383,0,0.0002541155,0
11.48.28.612891, -0.0001343464,-8.692268E-05,0,-1.219305,0.2369,122.2263,47.50046,-122.2169,0.09290383,0,0.0002541155,0
11.48.28.638893, -0.0001343464,-8.692268E-05,0,-1.219305,0.2369,122.2263,47.50046,-122.2169,0.09290383,0,0.0002541155,0
11.48.28.666895, -0.0001343464,-8.692268E-05,0,-1.219305,0.2369,122.2263,47.50046,-122.2169,0.09290383,0,0.0002541155,0
11.48.28.692896, -0.0001343464,-8.692268E-05,0,-1.219305,0.2369,122.2263,47.50046,-122.2169,0.09290383,0,0.0002541155,0
11.48.28.719898, -0.0001343464,-8.692268E-05,0,-1.219305,0.2369,122.2263,47.50046,-122.2169,0.09290383,0,0.0002541155,0
11.48.28.744899, -0.0001343464,-8.692268E-05,0,-1.219305,0.2369,122.2263,47.50046,-122.2169,0.09290383,0,0.0002541155,0
11.48.28.771901, -0.0001343464,-8.692268E-05,0,-1.219305,0.2369,122.2263,47.50046,-122.2169,0.09290383,0,0.0002541155,0
11.48.28.797902, -0.0001343464,-8.692268E-05,0,-1.219305,0.2369,122.2263,47.50046,-122.2169,0.09290383,0,0.0002541155,0
11.48.28.822903, -0.0001343464,-8.692268E-05,0,-1.219305,0.2369,122.2263,47.50046,-122.2169,0.09290383,0,0.0002541155,0
11.48.31.723069, 0.01561034,-0.111937,-0.5584974,1.444706,-0.1202044,153.5569,47.50031,-122.2168,0.3254362,-0.1043274,-1.975155,0.02691082
11.48.31.809074, 0.1161757,-0.253923,-0.8721744,1.772541,-0.9145212,151.0417,47.50031,-122.2168,0.6640794,-0.1454856,-2.054651,0.04303334
11.48.31.901080, 0.1702532,-0.3689632,-1.155632,2.206591,-2.078485,147.7015,47.50031,-122.2168,0.9935808,-0.1808738,-1.999812,0.05624568
11.48.31.993085, 0.2212374,-0.4700043,-1.410026,2.690443,-3.583708,143.613,47.50031,-122.2168,1.314244,-0.2017184,-1.946877,0.07468598
11.48.32.092090, 0.2382254,-0.4344305,-1.639805,3.070957,-5.045677,138.8474,47.50031,-122.2168,1.626713,-0.2232828,-1.896501,0.08220272
11.48.32.183096, 0.2500159,-0.3747552,-1.847921,3.3073,-6.390296,133.4718,47.50031,-122.2168,1.930762,-0.2324134,-1.846035,0.09788122
11.48.32.270101, 0.2579137,-0.2882872,-2.039642,3.375182,-7.528093,127.5406,47.50031,-122.2168,2.226444,-0.2353704,-1.79529,0.1183507
11.48.32.343105, 0.2603821,-0.1652113,-2.218625,3.262047,-8.335203,121.0984,47.50031,-122.2168,2.513539,-0.2368106,-1.743199,0.1406285
11.48.32.404108, 0.256965,-0.05584837,-2.388304,2.975987,-8.828538,114.1793,47.50031,-122.2168,2.791862,-0.2334581,-1.689388,0.167681
11.48.32.466112, 0.2452504,0.01490167,-2.530287,2.534521,-9.092756,106.8681,47.50031,-122.2168,3.060883,-0.2259258,-1.634052,0.1986448
11.48.32.528115, 0.2293045,0.1392441,-2.658057,1.958021,-8.94859,99.20761,47.50031,-122.2168,3.320802,-0.225642,-1.577761,0.2195246
11.48.32.592119, 0.206496,0.2572126,-2.773994,1.288076,-8.393028,91.2301,47.50031,-122.2168,3.571258,-0.2242754,-1.520904,0.2383704
11.48.32.654123, 0.1770302,0.3780135,-2.881218,0.5722964,-7.402372,82.95586,47.50031,-122.2168,3.812624,-0.2238406,-1.465831,0.2475242
11.48.32.713126, 0.1443074,0.5032681,-2.980895,-0.1236678,-5.955786,74.39819,47.50031,-122.2168,4.045329,-0.2233522,-1.413223,0.2444524
11.48.32.772129, 0.1041815,0.6100326,-3.073386,-0.7383823,-4.109601,65.57074,47.50031,-122.2168,4.269812,-0.2176978,-1.362822,0.2299229
11.48.32.832133, 0.05987401,0.6912594,-3.158452,-1.206148,-1.951151,56.48924,47.50031,-122.2168,4.486325,-0.204864,-1.314985,0.2031669
11.48.32.896136, 0.01082724,0.7533227,-3.235551,-1.474878,0.4387312,47.17543,47.50032,-122.2168,4.695424,-0.1801691,-1.269505,0.1632476
11.48.32.958140, -0.03532772,0.752912,-3.28712,-1.484364,2.843121,37.70576,47.50032,-122.2168,4.897328,-0.1449663,-1.225376,0.1173974
11.48.33.019143, -0.07604494,0.7044539,-3.331806,-1.208689,5.078984,28.10837,47.50032,-122.2168,5.091682,-0.09679785,-1.180073,0.06709296
11.48.33.081147, -0.1109818,0.6610708,-3.36934,-0.6550081,7.113208,18.41313,47.50032,-122.2168,5.278749,-0.03061845,-1.134692,0.01135178
11.48.33.143151, -0.1358046,0.5143872,-3.398428,0.1722351,8.601964,8.653202,47.50032,-122.2168,5.458654,0.03791283,-1.090607,-0.03515865
11.48.33.202154, -0.1475261,0.2599206,-3.42111,1.215776,9.194671,358.849,47.50032,-122.2168,5.630878,0.1016142,-1.044158,-0.07062676
11.48.33.263157, -0.1390783,0.03561707,-3.439434,2.377128,8.953042,349.0055,47.50032,-122.2168,5.795506,0.1723059,-0.9973344,-0.1034435
11.48.33.320161, -0.1115175,-0.2134193,-3.434698,3.556514,7.800365,339.1759,47.50031,-122.2168,5.953039,0.2342035,-0.9536082,-0.1300576
11.48.33.377164, -0.0653095,-0.4295236,-3.428784,4.651412,5.841588,329.3478,47.50031,-122.2168,6.103869,0.2907496,-0.913045,-0.1549812
11.48.33.430167, -0.009238505,-0.6255907,-3.4213,5.554483,3.159966,319.511,47.50031,-122.2168,6.248875,0.3349746,-0.8771099,-0.1793587
11.48.33.483170, 0.05912418,-0.7967818,-3.412803,6.182036,-0.1300004,309.6625,47.50031,-122.2168,6.388505,0.3653881,-0.8444955,-0.2102497
11.48.33.539173, 0.1284109,-0.9460077,-3.403614,6.439006,-3.90881,299.8071,47.50031,-122.2168,6.523152,0.3788444,-0.8137594,-0.2502899
11.48.33.595176, 0.2002685,-1.07572,-3.394789,6.257078,-8.048445,289.96,47.50031,-122.2168,6.65271,0.3776301,-0.783404,-0.3083714
11.48.33.655180, 0.2749792,-1.186337,-3.38711,5.591327,-12.41197,280.1426,47.50031,-122.2168,6.776926,0.3628735,-0.7504287,-0.3879896
11.48.33.718183, 0.3450306,-1.180758,-3.380381,4.399441,-16.57784,270.3851,47.50031,-122.2168,6.895458,0.3458091,-0.7165343,-0.4793387
11.48.33.782187, 0.4120764,-1.157787,-3.376387,2.71416,-20.41154,260.7036,47.50031,-122.2168,7.006363,0.3247668,-0.6703286,-0.5975276
11.48.33.849191, 0.4682359,-0.9259465,-3.373256,0.5691469,-23.23787,251.1125,47.50031,-122.2168,7.111281,0.3103154,-0.6333449,-0.7119296
11.48.33.915195, 0.5102171,-0.4868347,-3.371749,-1.900423,-24.40412,241.5894,47.50031,-122.2168,7.211026,0.299735,-0.6026174,-0.8187829
11.48.33.979198, 0.5207,-0.05230664,-3.378398,-4.508502,-23.89449,232.0679,47.50031,-122.2168,7.304848,0.2900096,-0.5660435,-0.9367979
11.48.34.042202, 0.4959046,0.3205851,-3.377077,-7.060589,-21.88618,222.5183,47.50031,-122.2168,7.392194,0.2815093,-0.5273029,-1.055022
11.48.34.101205, 0.4387458,0.6229401,-3.385424,-9.406002,-18.60029,212.8713,47.50031,-122.2168,7.474085,0.2668867,-0.4942814,-1.167727
11.48.34.161209, 0.3706039,0.8621485,-3.398861,-11.36665,-14.25403,203.0701,47.50031,-122.2168,7.552457,0.2439019,-0.4722706,-1.270002
11.48.34.220212, 0.2950935,1.047904,-3.412363,-12.78368,-9.070811,193.1046,47.50031,-122.2168,7.628957,0.2033672,-0.4609769,-1.362422
11.48.34.290216, 0.2077377,1.189933,-3.419952,-13.54668,-3.286864,183.0239,47.50031,-122.2168,7.705208,0.1366099,-0.4600875,-1.450409
11.48.34.365220, 0.1338184,1.296037,-3.415766,-13.51995,2.852749,172.9223,47.50031,-122.2168,7.782373,0.04203615,-0.4656186,-1.530632
11.48.34.450225, 0.0752863,1.376794,-3.395919,-12.62066,9.101918,162.9426,47.50031,-122.2168,7.859966,-0.08509236,-0.4683275,-1.608002
11.48.34.537230, 0.02345077,1.439951,-3.35781,-10.85549,15.23356,153.2431,47.50031,-122.2168,7.935355,-0.2443625,-0.4560592,-1.690543
11.48.34.616235, -0.02676667,1.489794,-3.283476,-8.317809,21.05855,144.0046,47.50031,-122.2168,8.004059,-0.4330941,-0.4166777,-1.784467
11.48.34.697239, -0.07083061,1.160512,-3.189002,-5.127006,25.40104,135.3186,47.50031,-122.2168,8.068331,-0.5976638,-0.3904501,-1.884764
11.48.34.771244, -0.1010603,0.7130169,-3.086532,-1.539154,27.90624,127.145,47.50031,-122.2168,8.127898,-0.7648132,-0.3618058,-1.991408
11.48.34.843248, -0.1046392,0.3247739,-2.980231,2.21215,28.77327,119.3905,47.50031,-122.2168,8.178229,-0.9372528,-0.3065015,-2.105974
11.48.34.908252, -0.07369222,-0.009925198,-2.854873,5.953721,28.20571,112.0148,47.5003,-122.2168,8.218518,-1.112663,-0.2463367,-2.224093
11.48.34.974255, -0.02913853,-0.2945384,-2.730694,9.541987,26.39822,104.9179,47.5003,-122.2168,8.249131,-1.284125,-0.1875007,-2.343763
11.48.35.037259, -0.001404344,-0.5451649,-2.609053,12.80337,23.48944,97.9859,47.5003,-122.2168,8.272759,-1.446791,-0.1444636,-2.464553
11.48.35.101263, 0.03648976,-0.772382,-2.492116,15.66764,19.60034,91.16786,47.5003,-122.2168,8.293298,-1.613578,-0.127006,-2.574646
11.48.35.162266, 0.06459147,-0.9686653,-2.380824,18.03629,14.87048,84.4205,47.5003,-122.2168,8.315126,-1.777349,-0.1342394,-2.669686
11.48.35.226270, 0.07755412,-1.139519,-2.277571,19.81843,9.434307,77.73015,47.5003,-122.2168,8.343168,-1.940677,-0.1713028,-2.742429
11.48.35.286273, 0.09218692,-1.283323,-2.184861,20.98916,3.450234,71.12429,47.5003,-122.2168,8.381401,-2.11112,-0.2335393,-2.78439
11.48.35.349277, 0.07432698,-1.399221,-2.104908,21.44451,-2.916971,64.64236,47.50029,-122.2168,8.435233,-2.282564,-0.3289492,-2.789946
11.48.35.411280, 0.02601855,-1.491161,-2.041819,21.1027,-9.493855,58.35833,47.50029,-122.2168,8.508428,-2.456393,-0.4463368,-2.751135
11.48.35.474284, -0.03240328,-1.551991,-1.988771,19.96174,-16.07078,52.38747,47.50029,-122.2168,8.60068,-2.638556,-0.562597,-2.665104
11.48.35.536287, -0.0890954,-1.593177,-1.960339,18.06529,-22.50622,46.78439,47.50029,-122.2168,8.711127,-2.828314,-0.6737183,-2.529834
11.48.35.601291, -0.1387655,-1.61824,-1.958276,15.46893,-28.69938,41.56866,47.50029,-122.2169,8.835811,-3.028052,-0.7617362,-2.349321
11.48.35.668295, -0.1838081,-1.413607,-1.977699,12.21976,-33.95681,36.74939,47.50029,-122.2169,8.970281,-3.2198,-0.8217356,-2.160816
11.48.35.736299, -0.2229073,-0.9741762,-2.019123,8.406082,-37.60212,32.26761,47.50029,-122.2169,9.112085,-3.399641,-0.8674057,-1.969801
11.48.35.800303, -0.2672378,-0.553448,-2.08645,4.110571,-39.7048,27.99478,47.50029,-122.2169,9.257553,-3.576023,-0.8908819,-1.755653
11.48.35.863306, -0.3122959,-0.05903468,-2.173236,-0.58647,-40.05426,23.78018,47.50029,-122.2169,9.404672,-3.732352,-0.9020662,-1.54651
11.48.35.923310, -0.3376826,0.3700333,-2.277235,-5.544526,-38.80859,19.38733,47.50029,-122.2169,9.549897,-3.872626,-0.891116,-1.34304
11.48.35.980313, -0.385513,0.7318285,-2.413454,-10.74095,-36.08875,14.59944,47.50029,-122.2169,9.695264,-3.990218,-0.8944767,-1.125357
11.48.36.033316, -0.4352102,0.9925102,-2.577683,-16.07292,-32.04349,9.133579,47.50029,-122.2169,9.842965,-4.078591,-0.9091505,-0.9014888
11.48.36.084319, -0.5061432,1.231931,-2.764,-21.43105,-26.53506,2.712971,47.50029,-122.2169,9.996847,-4.132424,-0.9491711,-0.6506574
11.48.36.129321, -0.5426172,1.433503,-2.962875,-26.46011,-19.37809,354.9429,47.50029,-122.2169,10.15941,-4.147954,-1.00362,-0.3898453
11.48.36.176324, -0.5917512,1.603992,-3.161486,-30.66971,-10.68629,345.8383,47.50029,-122.2169,10.32943,-4.120525,-1.082339,-0.09278974
11.48.36.222327, -0.6318095,1.741909,-3.349461,-33.69654,-0.3302425,335.1621,47.50029,-122.2169,10.5123,-4.048021,-1.171921,0.2392396
11.48.36.271329, -0.6813388,1.862215,-3.517044,-35.06806,11.25338,323.3384,47.50029,-122.2169,10.7046,-3.929762,-1.25324,0.6130341
11.48.36.316332, -0.6845791,1.962139,-3.65549,-34.32684,23.57868,310.8652,47.50029,-122.2169,10.90818,-3.762523,-1.318423,1.022188
11.48.36.360335, -0.6881219,2.066211,-3.75861,-31.40169,35.43686,299.041,47.50029,-122.2169,11.11025,-3.559931,-1.331471,1.462087
11.48.36.408337, -0.64631,2.15358,-3.817191,-26.49719,46.06205,288.6964,47.50029,-122.2169,11.30294,-3.325423,-1.292857,1.920867
11.48.36.465341, -0.606754,2.248403,-3.830926,-19.96879,55.44195,279.9328,47.50029,-122.2169,11.47702,-3.082923,-1.16367,2.390898
11.48.36.526344, -0.5841131,1.738357,-3.77587,-12.24789,62.085,272.6914,47.50029,-122.2169,11.62513,-2.915589,-0.9793096,2.792741
11.48.36.589348, -0.5437853,1.268319,-3.695423,-3.86306,66.32265,266.6528,47.50029,-122.2169,11.73487,-2.756931,-0.7257732,3.193792
11.48.36.652351, -0.4618289,0.8702423,-3.582783,4.793939,68.60059,261.5231,47.50029,-122.2169,11.79561,-2.62628,-0.4149007,3.563348
11.48.36.712355, -0.3578564,0.5261168,-3.439903,13.42212,69.26873,257.0155,47.50029,-122.2169,11.80087,-2.528316,-0.06925313,3.891587
11.48.36.773358, -0.2262959,0.2134186,-3.271702,21.82191,68.55569,252.9274,47.50029,-122.2169,11.74788,-2.444764,0.2897539,4.18781
11.48.36.829361, -0.114187,-0.06755394,-3.069084,29.77691,66.58689,248.9928,47.5003,-122.2169,11.63527,-2.384817,0.6539203,4.443698
11.48.36.878364, 0.01784155,-0.3397726,-2.845466,37.18796,63.4201,245.0931,47.5003,-122.2169,11.46366,-2.30869,1.013671,4.694982
11.48.36.921367, 0.06509296,-0.5835114,-2.627746,43.85758,58.92189,240.785,47.5003,-122.2169,11.23876,-2.251691,1.349422,4.926071
11.48.36.964369, 0.1303982,-0.8281066,-2.429444,49.66267,53.136,236.0143,47.50031,-122.2169,10.97157,-2.15705,1.665742,5.178073
11.48.37.006372, 0.1591787,-1.042503,-2.249096,54.60857,45.90705,230.4242,47.50031,-122.2169,10.66882,-2.049995,1.945465,5.44173
11.48.37.048374, 0.1737622,-1.232521,-2.088412,58.66996,37.13827,223.7783,47.50031,-122.2169,10.33592,-1.911713,2.202414,5.722691
11.48.37.088376, 0.2095511,-1.394555,-1.947101,61.87909,26.90096,216.0349,47.50031,-122.2169,9.976463,-1.745265,2.441467,6.008135
11.48.37.128379, 0.1702869,-1.530062,-1.823717,64.04832,15.22317,207.0958,47.50031,-122.2169,9.601072,-1.54557,2.614037,6.320903
11.48.37.169381, 0.1038045,-1.640833,-1.720617,65.09818,2.623795,197.4203,47.50032,-122.2169,9.209723,-1.316881,2.783571,6.619183
11.48.37.209383, 0.04078846,-1.727447,-1.636286,65.08376,-10.06678,187.8373,47.50032,-122.2169,8.802617,-1.054977,2.936968,6.909488
11.48.37.250385, -0.01692917,-1.784612,-1.565795,64.14429,-21.97175,179.212,47.50032,-122.2169,8.379954,-0.7610433,3.086062,7.183451
11.48.37.290388, -0.07144495,-1.824141,-1.516132,62.45911,-32.64445,171.9945,47.50032,-122.2169,7.940097,-0.4368553,3.236219,7.438017
11.48.37.331390, -0.1241458,-1.849095,-1.488738,60.20493,-41.93197,166.3006,47.50033,-122.2169,7.484552,-0.0793106,3.38576,7.67603
11.48.37.372392, -0.174687,-1.862476,-1.483127,57.49039,-50.02955,161.9426,47.50033,-122.2169,7.007621,0.3119116,3.541131,7.895491
11.48.37.413395, -0.2212803,-1.8357,-1.500539,54.40616,-57.02622,158.7244,47.50033,-122.2169,6.50829,0.7217433,3.70818,8.091299
11.48.37.458397, -0.2635352,-1.800054,-1.540095,51.01242,-63.10394,156.4329,47.50034,-122.2169,5.985426,1.151456,3.88979,8.258781
11.48.37.500400, -0.2942757,-1.286771,-1.582447,47.28194,-67.4425,154.8461,47.50034,-122.2169,5.423172,1.494845,4.077142,8.425158
11.48.37.544402, -0.3258814,-0.74978,-1.638189,43.32349,-70.05077,153.7872,47.50034,-122.2169,4.83231,1.870083,4.271193,8.56816
11.48.37.597405, -0.3660778,-0.2619025,-1.724793,39.05775,-71.22815,153.049,47.50035,-122.2169,4.205963,2.237685,4.476848,8.69031
11.48.37.678410, -0.4200037,0.1792323,-1.856183,34.22853,-71.18182,152.466,47.50035,-122.2169,3.521635,2.610788,4.681017,8.8119
11.48.37.764415, -0.4909658,0.5684673,-2.05604,28.68634,-70.05571,151.9063,47.50035,-122.2169,2.788415,2.984315,4.863298,8.935902
11.48.37.851420, -0.5820522,0.9171898,-2.337852,22.22839,-67.98206,151.2178,47.50036,-122.2169,2.018028,3.368494,4.998304,9.061741
11.48.37.939425, -0.6964728,1.231324,-2.708276,14.62914,-65.06005,150.2183,47.50036,-122.2169,1.225811,3.773188,5.063405,9.178672
11.48.38.027430, -0.839638,1.5165,-3.167086,5.672722,-61.31053,148.6783,47.50037,-122.2169,0.4297734,4.221828,5.034299,9.268911
11.48.38.118435, -0.1299176,-1.382699,1.410499,8.958818,-64.88557,150.9064,47.50037,-122.2169,-0.3501938,4.739275,4.899957,9.327662
11.48.41.305617, 0,0,0,0,0,0,47.50032,-122.2168,0,0,0,0
11.48.41.400623, 0.006172666,0.273696,-0.5481724,1.417155,0.9822668,153.6047,47.50032,-122.2168,0.3182428,-0.137264,-1.953268,0.02114034
11.48.41.490628, 0.08586053,0.6004041,-0.8489433,1.702478,2.635443,151.183,47.50032,-122.2168,0.6594827,-0.2673273,-2.089512,0.02332411
11.48.41.580633, 0.1140852,0.8430077,-1.118653,2.17294,4.948459,147.9957,47.50032,-122.2168,0.9883526,-0.3873346,-2.010105,0.01794029
11.48.41.674639, 0.1079121,0.6685233,-1.362752,2.812612,6.706231,144.1229,47.50032,-122.2168,1.306874,-0.4605545,-1.944287,0.01487701
11.48.41.770644, 0.09507243,0.4314788,-1.588835,3.606561,7.702612,139.6125,47.50032,-122.2168,1.614578,-0.54669,-1.87681,0.005907841
11.48.41.862649, 0.08550714,0.1734084,-1.795981,4.525976,7.850187,134.5109,47.50032,-122.2168,1.911272,-0.6294675,-1.808072,-0.003125162
11.48.41.950654, 0.08207451,-0.1241825,-1.975792,5.512154,7.013205,128.8835,47.50032,-122.2168,2.197458,-0.6999087,-1.74366,-0.007270229
11.48.42.026659, 0.09184086,-0.3766058,-2.140211,6.492931,5.304817,122.7592,47.50032,-122.2168,2.473382,-0.7655143,-1.680508,-0.007451704
11.48.42.090662, 0.1076457,-0.5894718,-2.291517,7.366725,2.831684,116.161,47.50032,-122.2168,2.739508,-0.8202153,-1.620901,-0.000333841
11.48.42.152666, 0.1299871,-0.7695245,-2.422063,8.029209,-0.2993299,109.1429,47.50032,-122.2168,2.996453,-0.8632159,-1.565437,0.02003362
11.48.42.214669, 0.1625305,-0.9223513,-2.534133,8.393401,-3.977929,101.7644,47.50032,-122.2168,3.244606,-0.8955934,-1.511008,0.05915897
11.48.42.276673, 0.1997754,-1.052052,-2.631883,8.368871,-8.088198,94.08611,47.50032,-122.2168,3.48385,-0.9180568,-1.457344,0.1199712
11.48.42.338677, 0.2402063,-1.16053,-2.718681,7.877118,-12.50182,86.17221,47.50032,-122.2168,3.713996,-0.9335913,-1.40132,0.205729
11.48.42.399680, 0.2867715,-1.249522,-2.798018,6.867639,-17.08142,78.08391,47.50032,-122.2168,3.933517,-0.9475684,-1.337278,0.3182819
11.48.42.463684, 0.3328891,-1.207173,-2.870778,5.294784,-21.35904,69.8855,47.50032,-122.2168,4.141604,-0.9652492,-1.267884,0.4391153
11.48.42.524687, 0.3754807,-0.9290205,-2.937457,3.177755,-24.56639,61.62549,47.50032,-122.2168,4.338819,-0.9886225,-1.201731,0.5522469
11.48.42.593691, 0.4011395,-0.6398816,-3.00433,0.6120475,-26.59767,53.30213,47.50032,-122.2168,4.522679,-1.016316,-1.120189,0.6843849
11.48.42.654695, 0.4081743,-0.2600739,-3.074015,-2.290881,-27.1315,44.87765,47.50032,-122.2168,4.693402,-1.044783,-1.041118,0.8087811
11.48.42.714698, 0.3872413,0.08438963,-3.134914,-5.372872,-26.22619,36.31595,47.50032,-122.2168,4.849788,-1.074115,-0.9540908,0.9364181
11.48.42.774701, 0.3532971,0.4078349,-3.203992,-8.457443,-23.90586,27.5041,47.50032,-122.2169,4.993347,-1.100315,-0.8756692,1.057016
11.48.42.831705, 0.3070887,0.681018,-3.280055,-11.35395,-20.29096,18.33041,47.50032,-122.2169,5.12526,-1.118312,-0.805617,1.172844
11.48.42.887708, 0.2411316,0.9016144,-3.358443,-13.88766,-15.53579,8.725208,47.50032,-122.2169,5.247518,-1.118991,-0.7464997,1.287398
11.48.42.944711, 0.1829619,1.075213,-3.432507,-15.81144,-9.813794,358.6559,47.50032,-122.2169,5.362984,-1.101707,-0.7046316,1.397195
11.48.42.994714, 0.1151877,1.208935,-3.496599,-16.9449,-3.354299,348.192,47.50032,-122.2169,5.473531,-1.057031,-0.6753265,1.513631
11.48.43.042717, 0.06646223,1.30884,-3.543949,-17.07158,3.561254,337.4897,47.50032,-122.2169,5.580865,-0.9835312,-0.6546871,1.630773
11.48.43.091720, 0.01642226,1.389743,-3.568162,-16.12803,10.52077,326.9504,47.50032,-122.2169,5.683255,-0.880216,-0.633372,1.760333
11.48.43.139722, -0.02352825,1.449468,-3.550236,-14.12352,17.28699,316.741,47.50032,-122.2169,5.779829,-0.7483299,-0.5982967,1.901223
11.48.43.195726, -0.0615967,1.504275,-3.509107,-11.16702,23.63842,307.0693,47.50032,-122.2169,5.866269,-0.5940278,-0.5372149,2.059039
11.48.43.254729, -0.07843088,1.447728,-3.442955,-7.335115,29.18971,297.9953,47.50032,-122.2169,5.940853,-0.4307932,-0.4601762,2.225631
11.48.43.313732, -0.080779,1.394829,-3.357507,-2.813484,33.88963,289.5769,47.50032,-122.2169,5.996427,-0.257392,-0.3416553,2.408562
11.48.43.376736, -0.06980057,0.9848081,-3.245213,2.195545,36.72639,281.8265,47.50033,-122.2169,6.038104,-0.09856866,-0.2544039,2.582834
11.48.43.445740, -0.04552938,0.597614,-3.12648,7.406824,37.8134,274.5792,47.50033,-122.2169,6.059951,0.06047187,-0.1327568,2.766358
11.48.43.513744, 0.009381959,0.2594329,-3.001544,12.63516,37.34903,267.6934,47.50033,-122.2169,6.057946,0.218901,0.01282845,2.952405
11.48.43.580748, 0.06379875,-0.03554088,-2.858239,17.66234,35.50159,261.0255,47.50033,-122.2169,6.031024,0.3700271,0.1651218,3.142409
11.48.43.643751, 0.09755383,-0.2981402,-2.718079,22.30418,32.37582,254.3826,47.50033,-122.2169,5.979425,0.5130986,0.3143071,3.332551
11.48.43.705755, 0.1424496,-0.5410431,-2.582651,26.48081,28.05452,247.6639,47.50034,-122.2169,5.905747,0.6696215,0.4484296,3.522868
11.48.43.768758, 0.1773257,-0.7546822,-2.453142,30.08049,22.63622,240.7729,47.50034,-122.2169,5.81294,0.8332362,0.5632228,3.709339
11.48.43.826762, 0.1768258,-0.9440997,-2.332541,32.93962,16.21175,233.6346,47.50034,-122.2169,5.706898,1.006713,0.6427315,3.891398
11.48.43.883765, 0.1772338,-1.109031,-2.2247,35.00387,8.94804,226.2919,47.50034,-122.2169,5.590771,1.202609,0.7031345,4.061265
11.48.43.934768, 0.163644,-1.244089,-2.131529,36.19888,1.068164,218.842,47.50034,-122.2169,5.468712,1.421151,0.739013,4.214419
11.48.43.986771, 0.1510718,-1.351038,-2.05676,36.5196,-7.164918,211.4412,47.50034,-122.2169,5.342154,1.666243,0.765527,4.346082
11.48.44.040774, 0.1095584,-1.431535,-2.003968,35.90134,-15.47867,204.2735,47.50034,-122.2168,5.214913,1.940501,0.7696341,4.45222
11.48.44.097777, 0.0671844,-1.490363,-1.977291,34.381,-23.62613,197.5113,47.50035,-122.2168,5.085301,2.237833,0.7850602,4.528967
11.48.44.154780, 0.01250226,-1.528413,-1.979602,31.97412,-31.40532,191.2936,47.50035,-122.2168,4.9522,2.559947,0.8074921,4.574739
11.48.44.209784, -0.0366775,-1.543683,-2.002285,28.75918,-38.66208,185.71,47.50035,-122.2168,4.810774,2.895332,0.8610035,4.591186
11.48.44.271787, -0.07620738,-1.337178,-2.04506,24.82139,-44.73886,180.7743,47.50035,-122.2168,4.657358,3.214641,0.9367345,4.601118
11.48.44.358792, -0.1090795,-0.8042598,-2.109335,20.26196,-48.74358,176.402,47.50035,-122.2168,4.49375,3.515902,1.002168,4.614665
11.48.44.446797, -0.1277353,-0.2820677,-2.213185,15.18462,-50.81424,172.3351,47.50036,-122.2168,4.314657,3.80138,1.100938,4.615101
11.48.44.533802, -0.1567432,0.1734956,-2.350818,9.62153,-51.19666,168.3622,47.50036,-122.2168,4.120268,4.078138,1.198593,4.601052
11.48.44.618807, -0.1859538,0.5502992,-2.535049,3.577513,-50.12492,164.2176,47.50036,-122.2168,3.909955,4.327265,1.300609,4.583109
11.48.44.705812, -0.2181335,0.8706871,-2.765589,-2.941463,-47.68752,159.6208,47.50036,-122.2168,3.687905,4.563284,1.376717,4.550998
11.48.44.792817, -0.2525424,1.144472,-3.033526,-9.86797,-43.84332,154.2471,47.50037,-122.2168,3.460483,4.794055,1.414077,4.496166
11.48.44.880822, -0.2876368,1.377296,-3.321659,-17.01479,-38.40985,147.7021,47.50037,-122.2168,3.236432,5.031834,1.398401,4.411184
11.48.44.923824, -0.3177128,1.574808,-3.627876,-24.04076,-31.03243,139.4529,47.50037,-122.2168,3.026186,5.279853,1.317777,4.283671
11.48.44.956826, -0.3660459,1.741747,-3.925798,-30.21002,-21.59913,129.3155,47.50037,-122.2168,2.846617,5.538096,1.170745,4.096818
11.48.44.989828, -0.4031329,1.867516,-4.185084,-34.60409,-10.65587,117.7559,47.50037,-122.2168,2.709262,5.782731,0.9837822,3.861055
11.48.45.021830, -0.4424622,1.972595,-4.40512,-36.94358,1.4502,105.0587,47.50037,-122.2168,2.607992,6.015371,0.7844439,3.571436
11.48.45.054832, -0.4892562,2.055448,-4.576877,-37.08198,13.83363,92.06857,47.50037,-122.2168,2.535866,6.2351,0.6030282,3.235211
11.48.45.086834, -0.5409551,2.118572,-4.700164,-35.15091,25.60111,79.65714,47.50038,-122.2168,2.483982,6.442822,0.4644042,2.864543
11.48.45.118836, -0.5585163,2.164993,-4.77088,-31.4209,36.06581,68.54253,47.50038,-122.2168,2.447003,6.642076,0.3521887,2.463435
11.48.45.152837, -0.564036,2.212929,-4.783412,-26.31291,45.01591,59.00743,47.50038,-122.2168,2.41549,6.824248,0.3098429,2.063833
11.48.45.187839, -0.5704805,2.259601,-4.735541,-20.18912,52.62607,50.92257,47.50038,-122.2168,2.380061,6.996377,0.3432139,1.6785
11.48.45.221841, -0.5839171,2.30145,-4.639689,-13.42194,59.07457,44.13848,47.50038,-122.2168,2.331784,7.15707,0.4547492,1.327617
11.48.45.255843, -0.6056431,2.338492,-4.504976,-6.300118,64.60714,38.4223,47.50038,-122.2168,2.262274,7.302126,0.6399176,1.029423
11.48.45.320847, -0.6525584,2.07607,-4.105568,7.823652,73.02017,29.59342,47.50038,-122.2168,2.049806,7.534046,1.079964,0.6149619
11.48.45.383851, -0.6373988,1.480597,-3.613984,20.82929,77.44463,23.01425,47.50038,-122.2168,1.740034,7.693439,1.583048,0.3640661
11.48.45.450855, -0.539934,0.997512,-3.108299,32.25021,79.14633,17.68059,47.50038,-122.2168,1.315205,7.765412,2.148284,0.2573542
11.48.45.513858, -0.9246573,1.124864,0.3083701,36.48674,80.15951,13.31369,47.50038,-122.2168,0.877