DateTime,PitchVelocityRadsPerS,RollVelocityRadsPerS,YawVelocityRadsPerS,PitchDegrees,RollDegrees,MagHeadingDegrees,LatitudeDegrees,LongitudeDegrees,ZAltitudeFtAgl,YVelocityNEDFrameMs,ZVelocityNEDFrameMs,XVelocityNEDFrameMs
09.39.03.393688, 0.002549004,0.004017004,0.5833904,0.1299432,-0.7031319,269.108,47.5003,-122.2168,0.09264228,0.02362608,0.0007412442,-0.02034614
09.39.03.452692, 0.002404501,0.004379006,0.58325,0.1505945,-0.690628,270.3697,47.5003,-122.2168,0.09268576,0.02373342,0.0004572161,-0.02058894
09.39.03.491694, 0.002345319,0.004291391,0.5829333,0.1725001,-0.6767927,271.735,47.5003,-122.2168,0.09265885,0.02383694,0.0002006789,-0.02083159
09.39.03.533696, 0.002347399,0.004255388,0.5827499,0.1938548,-0.6626697,273.0863,47.5003,-122.2168,0.0926388,0.02393282,0.0008003304,-0.02108699
09.39.03.572698, 0.002333383,0.00471565,0.582509,0.2150834,-0.6467907,274.4533,47.5003,-122.2168,0.09261134,0.02403302,0.0002043707,-0.02134601
09.39.03.611701, 0.002472194,0.004463561,0.5823914,0.2359349,-0.6312408,275.7996,47.5003,-122.2168,0.09269971,0.02412218,8.873216E-05,-0.02158433
09.39.03.653703, 0.002373224,0.004593913,0.582388,0.2559649,-0.6150854,277.1311,47.5003,-122.2168,0.09261555,0.02421893,0.0005502507,-0.02183476
09.39.03.693705, 0.002427574,0.004701929,0.5823158,0.2760998,-0.5979086,278.487,47.5003,-122.2168,0.09268977,0.02430461,0.0001943731,-0.02208526
09.39.03.729707, 0.002328401,0.004038359,0.582351,0.295448,-0.5819261,279.8329,47.5003,-122.2168,0.09263258,0.0243805,0.0004321312,-0.02232199
09.39.03.778710, 0.002281655,0.003524642,0.5824717,0.3138635,-0.5670456,281.1471,47.5003,-122.2168,0.09262487,0.02443023,-3.320225E-05,-0.02257813
09.39.03.813712, 0.00213358,0.00409268,0.5824825,0.3326374,-0.5494803,282.5386,47.5003,-122.2168,0.09263028,0.02449062,0.000692374,-0.02288253
09.39.03.847714, 0.002063857,0.003653089,0.5826731,0.3500883,-0.5332015,283.8744,47.5003,-122.2168,0.09254029,0.02453222,0.0006854539,-0.02313526
09.39.03.880716, 0.002079906,0.003974187,0.5830352,0.3665855,-0.5164124,285.1629,47.5003,-122.2168,0.09255523,0.02456776,0.0005807177,-0.02340349
09.39.03.913718, 0.002126995,0.003942644,0.583534,0.3822216,-0.499952,286.4051,47.5003,-122.2168,0.0925376,0.02460336,0.0001446519,-0.02364167
09.39.03.948720, 0.00211231,0.003740047,0.5841713,0.3970806,-0.4840098,287.6161,47.5003,-122.2168,0.09260038,0.02463792,0.0003145738,-0.0238738
09.39.03.981722, 0.001996346,0.003658571,0.5848315,0.4112042,-0.4681061,288.8142,47.5003,-122.2168,0.09256037,0.02466872,0.0002214007,-0.02410417
09.39.04.014724, 0.002011987,0.003456615,0.5855736,0.424744,-0.4526512,289.9884,47.5003,-122.2168,0.09263701,0.02468602,0.0002045349,-0.0243312
09.39.04.047726, 0.001965816,0.003162588,0.5863662,0.4377056,-0.437708,291.1481,47.5003,-122.2168,0.09259123,0.02469836,0.0004043047,-0.02455823
09.39.04.088728, 0.001948349,0.003459726,0.5871739,0.4502089,-0.4220707,292.2972,47.5003,-122.2168,0.09263811,0.02470814,0.0003344835,-0.02479577
09.39.04.150732, 0.002013208,0.003593113,0.5885525,0.4751945,-0.3892321,294.6695,47.5003,-122.2168,0.09254871,0.02472324,0.0003411867,-0.02526703
09.39.04.186734, 0.001857167,0.003600049,0.5894171,0.486458,-0.3727058,295.8118,47.5003,-122.2168,0.09247414,0.024741,0.0005286781,-0.02548197
09.39.04.253737, 0.00174208,0.003883859,0.5910394,0.5078866,-0.3376286,298.1159,47.5003,-122.2168,0.09250287,0.02476231,0.0004898186,-0.02590644
09.39.04.323741, 0.001669981,0.003827344,0.5926428,0.527478,-0.3025569,300.4201,47.5003,-122.2168,0.0925701,0.02475173,0.0001010452,-0.02632401
09.39.04.358743, -0.005742852,-0.07174704,1.010931,0.5263457,-0.4266351,302.4319,47.50029,-122.2168,0.2093555,-0.05739087,-1.024833,-0.09355317
09.39.04.403746, 0.02231447,-0.09802812,1.28769,0.5894064,-0.5980552,304.999,47.50029,-122.2168,0.3674819,-0.1097533,-1.38527,-0.1351321
09.39.04.441748, 0.03635762,-0.09587616,1.514807,0.6999665,-0.7687722,308.2371,47.50029,-122.2168,0.5633929,-0.1518807,-1.601277,-0.1664271
09.39.04.483751, 0.04723067,-0.08556371,1.716467,0.8496945,-0.9062535,311.931,47.50029,-122.2168,0.7716489,-0.1902424,-1.689762,-0.1921341
09.39.04.531753, 0.05527621,-0.0712975,1.897963,1.035236,-0.9989752,316.1106,47.50029,-122.2168,0.9901543,-0.2254335,-1.733959,-0.2138327
09.39.04.574756, 0.06301821,-0.05410435,2.070964,1.26337,-1.034604,320.9553,47.50029,-122.2168,1.224988,-0.2593814,-1.754081,-0.2332191
09.39.04.610758, 0.07071567,-0.03746254,2.232082,1.521278,-1.00252,326.2509,47.50029,-122.2168,1.46331,-0.2911036,-1.754546,-0.2499391
09.39.04.644760, 0.07827974,-0.021551,2.379152,1.78967,-0.9026288,331.7156,47.50029,-122.2168,1.692251,-0.3192768,-1.741822,-0.2638476
09.39.04.685762, 0.08579499,-0.00666611,2.515208,2.058173,-0.7398665,337.2717,47.50029,-122.2168,1.909813,-0.344232,-1.721458,-0.2756312
09.39.04.728765, 0.09242372,0.007052911,2.648404,2.331958,-0.5061777,343.235,47.50029,-122.2168,2.128191,-0.3678579,-1.695505,-0.2859509
09.39.04.765767, 0.09920672,0.01966828,2.779716,2.601459,-0.1986607,349.6179,47.50029,-122.2168,2.346882,-0.3898968,-1.665395,-0.2956679
09.39.04.809769, 0.1036827,0.03103887,2.906867,2.841588,0.1709303,356.1974,47.50029,-122.2168,2.558138,-0.4094551,-1.633511,-0.3037644
09.39.04.844771, 0.108067,0.04090869,3.034212,3.04974,0.6127834,3.238148,47.50029,-122.2168,2.770123,-0.4274736,-1.599418,-0.311995
09.39.04.883773, 0.1124825,0.0490048,3.157307,3.20296,1.093789,10.31851,47.50029,-122.2168,2.970686,-0.442982,-1.565615,-0.3201447
09.39.04.919776, 0.1153954,0.04991763,3.279873,3.29534,1.608039,17.69455,47.50029,-122.2168,3.167267,-0.4574506,-1.531408,-0.3275667
09.39.04.957778, 0.1175812,0.04838293,3.400347,3.316481,2.129886,25.17866,47.50029,-122.2168,3.355417,-0.4699265,-1.497918,-0.335445
09.39.04.997780, 0.1170846,0.02858957,3.520548,3.256933,2.619228,32.90781,47.50029,-122.2168,3.538932,-0.4826406,-1.46471,-0.3409901
09.39.05.041782, 0.1139768,0.004217314,3.641821,3.109188,3.060852,40.99828,47.50029,-122.2168,3.720445,-0.4938183,-1.431477,-0.347139
09.39.05.088785, 0.108353,-0.02105694,3.766307,2.863237,3.444351,49.62513,47.50029,-122.2168,3.903238,-0.5038816,-1.397627,-0.3537479
09.39.05.125787, 0.09826808,-0.07243356,3.895355,2.50325,3.689111,58.93755,47.50029,-122.2168,4.089304,-0.5139757,-1.363088,-0.3557009
09.39.05.165790, 0.08299265,-0.124706,4.023223,2.061771,3.7569,68.32432,47.50029,-122.2168,4.266678,-0.5214065,-1.330021,-0.357136
09.39.05.212792, 0.06222438,-0.2264893,4.099725,1.558232,3.520803,77.81235,47.50029,-122.2168,4.438596,-0.5258101,-1.298972,-0.3591433
09.39.05.253795, 0.0295943,-0.3429017,4.188713,0.9891279,2.913306,87.88977,47.50029,-122.2168,4.613143,-0.5269008,-1.268683,-0.3570563
09.39.05.298797, -0.01346188,-0.4412101,4.086167,0.4485491,1.983877,97.6497,47.50029,-122.2168,4.782495,-0.5349531,-1.239216,-0.3911739
09.39.05.338799, -0.06487533,-0.5413976,4.027843,-0.0538954,0.7125774,107.4531,47.50029,-122.2168,4.95154,-0.5377689,-1.2149,-0.409931
09.39.05.387802, -0.1219136,-0.6329753,4.009342,-0.4668053,-0.8331053,117.1212,47.50029,-122.2168,5.116162,-0.5299394,-1.194968,-0.4148746
09.39.05.429805, -0.1825152,-0.6742139,3.669619,-0.7849399,-2.586325,126.3238,47.50029,-122.2168,5.285087,-0.5680391,-1.179508,-0.4668905
09.39.05.476807, -0.2367652,-0.7280654,3.466391,-0.9760603,-4.478966,134.933,47.50029,-122.2168,5.45082,-0.5745342,-1.170815,-0.4873967
09.39.05.523810, -0.2840997,-0.7073306,2.956511,-1.102181,-6.363664,142.4705,47.50029,-122.2168,5.620622,-0.6370611,-1.170576,-0.532699
09.39.05.571813, -0.3164545,-0.6917029,2.526275,-1.185281,-8.226894,149.0172,47.50029,-122.2168,5.793282,-0.6719962,-1.176072,-0.5593129
09.39.05.620816, -0.3337262,-0.6269411,2.15131,-1.239601,-9.947258,154.7213,47.50029,-122.2168,5.970415,-0.6911694,-1.183346,-0.5771165
09.39.05.667818, -0.3366245,-0.5625552,1.821509,-1.281213,-11.5198,159.6667,47.50029,-122.2168,6.151777,-0.6869086,-1.189041,-0.5905393
09.39.05.719821, -0.3265215,-0.3764391,1.533604,-1.31503,-12.58769,163.8496,47.50029,-122.2168,6.333745,-0.6852744,-1.193911,-0.6032447
09.39.05.767824, -0.2997527,-0.199199,1.275007,-1.352938,-13.1879,167.413,47.50029,-122.2168,6.5188,-0.6696248,-1.191154,-0.6169903
09.39.05.820827, -0.263851,0.04538402,1.039857,-1.405062,-13.11677,170.338,47.50029,-122.2168,6.70317,-0.661819,-1.183298,-0.6309893
09.39.05.867830, -0.2190444,0.2631243,0.8288816,-1.473762,-12.43672,172.7078,47.50029,-122.2168,6.888762,-0.650202,-1.174818,-0.6463058
09.39.05.917833, -0.1718623,0.5323412,0.6398931,-1.555651,-11.01352,174.5285,47.50029,-122.2168,7.071462,-0.657185,-1.16203,-0.6582558
09.39.05.962835, -0.1213913,0.7695356,0.4675098,-1.63807,-8.911367,175.8668,47.50029,-122.2168,7.253747,-0.6721902,-1.149654,-0.6684633
09.39.06.009838, -0.07458252,0.9735808,0.3135052,-1.706218,-6.286744,176.7411,47.50029,-122.2168,7.429932,-0.7034034,-1.133555,-0.6740946
09.39.06.059841, -0.03243198,1.142672,0.171655,-1.742677,-3.195923,177.2144,47.50029,-122.2168,7.602706,-0.7531593,-1.113075,-0.6740848
09.39.06.105843, 0.004328408,1.281991,0.03809929,-1.724924,0.3312853,177.3185,47.50029,-122.2168,7.773872,-0.8255619,-1.089301,-0.6670069
09.39.06.146846, 0.03378818,1.386556,-0.08322082,-1.631423,4.120705,177.0919,47.50029,-122.2168,7.938768,-0.9217778,-1.060068,-0.6520922
09.39.06.199849, 0.05552221,1.466877,-0.1883534,-1.449698,8.001313,176.607,47.50029,-122.2168,8.092455,-1.039513,-1.023431,-0.629777
09.39.06.245851, 0.07260182,1.448783,-0.2860519,-1.148301,11.92659,175.87,47.50029,-122.2168,8.243253,-1.172089,-0.9829538,-0.6026222
09.39.06.291854, 0.08170936,1.417878,-0.3736031,-0.7272383,15.74142,174.9358,47.50029,-122.2168,8.384269,-1.329349,-0.9272882,-0.5681933
09.39.06.337857, 0.08619251,1.224008,-0.4496337,-0.1794374,19.02348,173.8411,47.50029,-122.2168,8.517261,-1.485677,-0.8776041,-0.533712
09.39.06.396860, 0.08377087,1.036394,-0.5172945,0.4793067,21.77791,172.6127,47.50029,-122.2168,8.63853,-1.661003,-0.8066253,-0.4944414
09.39.06.440863, 0.07989611,0.7785076,-0.5755288,1.259836,23.87252,171.2411,47.50029,-122.2168,8.754744,-1.827407,-0.7595447,-0.4563836
09.39.06.490865, 0.07829063,0.481185,-0.6248961,2.125981,25.11804,169.7967,47.50029,-122.2168,8.859782,-2.000541,-0.6986419,-0.4164694
09.39.06.538868, 0.07460219,0.129954,-0.6668933,3.078492,25.40386,168.2361,47.50029,-122.2168,8.956441,-2.180302,-0.6338634,-0.37503
09.39.06.588871, 0.07162737,-0.1847817,-0.6962098,4.06532,24.80297,166.6021,47.50029,-122.2168,9.043007,-2.361228,-0.5706933,-0.3322796
09.39.06.633874, 0.07033956,-0.4551547,-0.7157159,5.067324,23.4146,164.8815,47.50029,-122.2168,9.122093,-2.539917,-0.5161121,-0.2889954
09.39.06.679876, 0.0741659,-0.6818424,-0.7249746,6.030602,21.40161,163.1437,47.50029,-122.2168,9.194083,-2.706945,-0.4797244,-0.2441711
09.39.06.729879, 0.07621075,-0.873859,-0.7256349,6.933231,18.84946,161.379,47.50029,-122.2168,9.263524,-2.861142,-0.4658217,-0.1985653
09.39.06.775882, 0.08081873,-1.039776,-0.7193531,7.774945,15.7767,159.5661,47.50029,-122.2168,9.335793,-3.001565,-0.4778607,-0.1476023
09.39.06.822884, 0.08050427,-1.179909,-0.7068803,8.50153,12.32895,157.7579,47.50029,-122.2168,9.413299,-3.118968,-0.5157538,-0.09398386
09.39.06.867887, 0.08049742,-1.29887,-0.6901085,9.109778,8.536485,155.9499,47.50029,-122.2168,9.501083,-3.211344,-0.5824772,-0.03302709
09.39.06.919890, 0.07364393,-1.396928,-0.670493,9.568019,4.502413,154.1705,47.50029,-122.2169,9.602421,-3.272781,-0.6756912,0.03316693
09.39.06.967893, 0.06565179,-1.479125,-0.6496675,9.881675,0.1621515,152.3843,47.50029,-122.2169,9.724218,-3.300339,-0.7943366,0.1098714
09.39.07.020896, 0.04714897,-1.544886,-0.6293098,10.01123,-4.371582,150.6304,47.50029,-122.2169,9.868382,-3.287208,-0.9340943,0.1939555
09.39.07.084899, 0.02657273,-1.597704,-0.6114693,9.951,-9.10273,148.9049,47.50029,-122.2169,10.03903,-3.228977,-1.089076,0.2896307
09.39.07.130902, 0.00109376,-1.637603,-0.5979905,9.684886,-13.9758,147.2258,47.50029,-122.2169,10.23758,-3.121193,-1.25229,0.3961249
09.39.07.179905, -0.02377211,-1.66636,-0.5908006,9.224698,-18.82725,145.6423,47.50029,-122.2169,10.45776,-2.9656,-1.409793,0.5115435
09.39.07.222907, -0.04815469,-1.580624,-0.5899315,8.567583,-23.44523,144.1229,47.50029,-122.2169,10.70044,-2.78141,-1.543023,0.6301251
09.39.07.270910, -0.06814796,-1.479987,-0.5978361,7.753929,-27.64587,142.7055,47.50029,-122.2169,10.95516,-2.561795,-1.661046,0.7535148
09.39.07.321913, -0.08535271,-1.258864,-0.6131472,6.777872,-31.22727,141.3389,47.50029,-122.2169,11.22346,-2.333877,-1.745459,0.8735822
09.39.07.369916, -0.09891294,-1.035279,-0.6387662,5.633505,-34.22431,139.9783,47.50029,-122.2169,11.50637,-2.077209,-1.810492,0.998396
09.39.07.422919, -0.1070262,-0.6056187,-0.6718026,4.352406,-36.00943,138.6228,47.50029,-122.2169,11.79293,-1.859539,-1.835922,1.10371
09.39.07.473922, -0.1114935,-0.1556391,-0.714564,2.933701,-36.53769,137.2063,47.50029,-122.2169,12.08469,-1.632983,-1.846256,1.206348
09.39.07.524925, -0.1060306,0.2334572,-0.7650725,1.417192,-35.94756,135.6697,47.50029,-122.2169,12.37752,-1.412558,-1.836223,1.304704
09.39.07.569927, -0.1065611,0.5536335,-0.8287023,-0.1996343,-34.40952,133.9641,47.50029,-122.2169,12.6689,-1.204657,-1.813726,1.391241
09.39.07.619930, -0.1024237,0.8065211,-0.9043705,-1.844117,-32.15431,132.0745,47.50029,-122.2169,12.94832,-1.02645,-1.777598,1.462552
09.39.07.665933, -0.1053986,1.016929,-0.9942485,-3.56607,-29.2233,129.8939,47.50029,-122.2169,13.22447,-0.8672732,-1.740859,1.516162
09.39.07.712935, -0.1020227,1.188659,-1.095029,-5.276022,-25.77154,127.4085,47.50029,-122.2169,13.49139,-0.7357386,-1.706045,1.552325
09.39.07.758938, -0.1056378,1.335122,-1.206401,-6.969596,-21.80856,124.5469,47.50029,-122.2169,13.75372,-0.6249011,-1.678678,1.564754
09.39.07.802940, -0.1014121,1.456719,-1.324454,-8.550772,-17.41589,121.2867,47.50029,-122.2169,14.01066,-0.5385554,-1.660095,1.555997
09.39.07.843943, -0.1041155,1.56058,-1.445873,-9.949772,-12.68408,117.6566,47.50029,-122.2169,14.26164,-0.4704821,-1.654783,1.519284
09.39.07.878945, -0.1143844,1.647274,-1.566922,-11.10233,-7.718727,113.7141,47.50029,-122.2169,14.50605,-0.4200371,-1.66072,1.454077
09.39.07.914947, -0.1171148,1.717836,-1.682658,-11.90885,-2.713998,109.6043,47.50029,-122.2169,14.73855,-0.3909407,-1.671468,1.365962
09.39.07.955949, -0.1240203,1.779413,-1.793356,-12.3672,2.36406,105.3125,47.5003,-122.2169,14.96477,-0.3742086,-1.686731,1.250716
09.39.07.996952, -0.1230114,1.833269,-1.900397,-12.43374,7.65205,100.7276,47.5003,-122.2169,15.19308,-0.3723775,-1.70046,1.107766
09.39.08.039954, -0.1253467,1.8825,-2.002072,-12.05844,13.07136,95.92825,47.5003,-122.2169,15.42198,-0.3790894,-1.710363,0.9327637
09.39.08.077956, -0.1327976,1.926078,-2.09798,-11.19358,18.65385,90.89128,47.5003,-122.2169,15.65434,-0.3926792,-1.710688,0.7218913
09.39.08.115958, -0.1349066,1.937686,-2.183469,-9.826836,24.05768,85.89186,47.5003,-122.2169,15.87955,-0.412426,-1.694391,0.4896191
09.39.08.154961, -0.139557,1.944798,-2.259212,-7.981582,29.24277,80.98466,47.5003,-122.2169,16.09592,-0.432993,-1.658157,0.2320835
09.39.08.197963, -0.1411311,1.594934,-2.319894,-5.656887,33.42864,76.1737,47.5003,-122.2169,16.30648,-0.4395061,-1.616476,0.01310853
09.39.08.232965, -0.1389353,1.217293,-2.379664,-2.862417,36.60004,71.34813,47.5003,-122.2169,16.51409,-0.4457942,-1.560981,-0.2377914
09.39.08.274967, -0.1225395,0.8884547,-2.433159,0.1786265,38.68781,66.77482,47.5003,-122.2169,16.70408,-0.4479051,-1.478113,-0.4880861
09.39.08.317970, -0.09889895,0.5599399,-2.480112,3.545288,39.80912,62.1695,47.5003,-122.2169,16.88523,-0.4420586,-1.382314,-0.7425603
09.39.08.363972, -0.06140043,0.2619308,-2.521713,7.174851,39.97802,57.51267,47.5003,-122.2169,17.05492,-0.4319937,-1.271966,-1.000225
09.39.08.407975, -0.02435164,-0.009183202,-2.556828,11.04596,39.18728,52.65804,47.5003,-122.2169,17.21372,-0.4125191,-1.152451,-1.261024
09.39.08.446977, 0.02461507,-0.2519251,-2.576066,15.00416,37.45402,47.65428,47.50029,-122.2169,17.35719,-0.3935021,-1.025809,-1.515808
09.39.08.491980, 0.08348142,-0.4618796,-2.590086,18.85059,34.89733,42.59998,47.50029,-122.2169,17.48049,-0.3781103,-0.9006745,-1.755646
09.39.08.532982, 0.1142829,-0.6535215,-2.598795,22.61833,31.38973,37.14208,47.50029,-122.2169,17.59096,-0.3555991,-0.7856395,-1.989394
09.39.08.574985, 0.1501189,-0.829174,-2.605203,26.09297,27.03508,31.38624,47.50029,-122.2169,17.68583,-0.346293,-0.6794825,-2.215349
09.39.08.614987, 0.1606942,-0.9869651,-2.609716,29.17028,21.78003,25.16847,47.50029,-122.2169,17.76792,-0.3419117,-0.5854518,-2.427094
09.39.08.656989, 0.171068,-1.125655,-2.615762,31.69118,15.78036,18.58766,47.50029,-122.2169,17.83726,-0.3564059,-0.5010925,-2.63078
09.39.08.707992, 0.1557367,-1.247113,-2.623948,33.55786,8.976103,11.49983,47.50029,-122.2169,17.89819,-0.384134,-0.4351214,-2.823393
09.39.08.746994, 0.1271133,-1.354221,-2.63599,34.65703,1.158797,3.649324,47.50029,-122.2169,17.95262,-0.4382113,-0.3686231,-3.019677
09.39.08.787997, 0.1192268,-1.438911,-2.65746,34.82483,-6.858864,355.7846,47.50029,-122.2169,17.99634,-0.5168987,-0.3022132,-3.203968
09.39.08.828999, 0.08722224,-1.505834,-2.689197,34.00437,-14.93316,347.9888,47.50029,-122.2169,18.03244,-0.619792,-0.2500934,-3.373137
09.39.08.867001, 0.05122788,-1.557667,-2.734341,32.19563,-22.80637,340.4682,47.50029,-122.2169,18.05921,-0.7466344,-0.1855775,-3.533595
09.39.08.903003, 0.02958605,-1.594745,-2.79429,29.53153,-30.11463,333.5232,47.50028,-122.2169,18.07435,-0.8909208,-0.1046752,-3.681712
09.39.08.938005, 0.01729972,-1.620598,-2.868381,26.13521,-36.76317,327.2057,47.50028,-122.2169,18.07577,-1.04793,-0.004698091,-3.816829
09.39.08.978008, 0.01289455,-1.638561,-2.955379,22.14467,-42.69561,321.5391,47.50028,-122.2169,18.06019,-1.210696,0.1169039,-3.938697
09.39.09.023010, 0.01508326,-1.590184,-3.055422,17.47515,-48.01966,316.2576,47.50028,-122.2169,18.02664,-1.374565,0.2552931,-4.055014
09.39.09.056012, 0.02294167,-1.532153,-3.17439,11.97819,-52.86052,311.1574,47.50028,-122.2169,17.96796,-1.547033,0.4319557,-4.165902
09.39.09.095014, 0.02802393,-1.115175,-3.297133,6.169926,-56.03059,306.6445,47.50028,-122.2169,17.89823,-1.703405,0.5369368,-4.274755
09.39.09.128016, 0.02256875,-0.6744802,-3.431344,-0.1081367,-57.74563,302.3222,47.50027,-122.2169,17.81099,-1.8714,0.6730215,-4.376431
09.39.09.198020, -0.05134528,0.06850626,-3.726072,-13.08954,-57.27626,294.0728,47.50027,-122.2169,17.58717,-2.171921,0.9967391,-4.529569
09.39.09.257024, -0.2119038,0.6505557,-4.052002,-26.8206,-52.06906,284.7359,47.50027,-122.2169,17.29242,-2.483916,1.316006,-4.639383
09.39.09.293026, -0.3001911,0.8805054,-4.214391,-33.44457,-47.70695,279.2534,47.50027,-122.2169,17.12934,-2.643733,1.457373,-4.679948
09.39.09.334028, -0.4040569,1.087178,-4.376753,-40.1128,-41.60343,272.4183,47.50027,-122.2169,16.94756,-2.827818,1.59828,-4.711142
09.39.09.367030, -0.5266154,1.270933,-4.53566,-46.76544,-32.81023,263.2068,47.50026,-122.2169,16.73798,-3.040006,1.751984,-4.731317
09.39.09.400032, -0.6230978,1.422801,-4.673392,-52.34491,-21.03528,251.2986,47.50026,-122.2169,16.51639,-3.268476,1.891829,-4.747669
09.39.09.459035, -0.8241734,1.636232,-4.859372,-57.57925,11.75204,219.0432,47.50026,-122.2169,16.02775,-3.754193,2.233245,-4.746722
09.39.09.493037, -0.8497248,1.705619,-4.893421,-56.16433,28.68278,202.6909,47.50026,-122.2169,15.77351,-4.023375,2.369973,-4.744396
09.39.09.616044, -0.8787903,1.858639,-4.861003,-46.64249,55.53497,177.3279,47.50026,-122.2169,15.19278,-4.492994,2.790002,-4.720244
09.39.09.616044, -0.8737198,2.001237,-4.701936,-33.01824,71.52608,163.2883,47.50026,-122.2169,14.52989,-4.8144,3.318491,-4.696797
09.39.09.671047, -0.879821,2.068647,-4.575626,-25.71564,77.30922,158.7738,47.50025,-122.2169,14.15597,-4.887991,3.626334,-4.697345
09.39.09.719050, -0.8802287,1.740152,-4.377111,-17.29634,82.17899,154.8389,47.50025,-122.2169,13.69284,-4.985526,3.894974,-4.742765
09.39.09.765053, -0.8575377,1.380902,-4.133366,-8.416807,85.81017,151.6279,47.50025,-122.2169,13.14704,-5.045301,4.237828,-4.774847
09.39.09.809055, -0.8052863,1.107295,-3.862103,0.4554118,88.42765,149.0498,47.50025,-122.2169,12.5227,-5.052785,4.623876,-4.802507
09.39.09.852058, -0.7257903,0.8495398,-3.575676,8.910288,90.15866,147.0207,47.50024,-122.2169,11.83627,-5.018635,5.002303,-4.825969
09.39.09.902060, -0.63708,0.6082619,-3.28742,16.81426,91.1635,145.3946,47.50024,-122.2169,11.09262,-4.947684,5.370315,-4.843604
09.39.09.946063, -0.5257897,0.3678165,-2.995727,24.34812,91.54842,144.0618,47.50024,-122.2169,10.26425,-4.862466,5.741633,-4.844032
09.39.09.994066, -0.4820273,0.1410476,-2.71997,31.22782,91.26875,142.8016,47.50024,-122.2169,9.381893,-4.755708,6.091131,-4.860909
09.39.10.038068, -0.4027934,-0.1057323,-2.448394,37.55209,90.29824,141.6071,47.50024,-122.2169,8.427033,-4.695541,6.453074,-4.845608
09.39.10.080071, -0.442519,-0.3411449,-2.204119,43.19456,88.38586,140.0228,47.50024,-122.2169,7.430971,-4.678961,6.773577,-4.877078
09.39.10.113073, -0.4443246,-0.5798137,-1.988772,48.15965,85.52132,138.0537,47.50023,-122.2169,6.402965,-4.742736,7.104939,-4.885377
09.39.10.146074, -0.4335089,-0.7882835,-1.810419,52.31486,81.92316,135.7561,47.50023,-122.2169,5.401234,-4.859827,7.40502,-4.899286
09.39.10.183077, -0.4456747,-0.9738891,-1.657741,55.83902,77.50864,132.9584,47.50023,-122.2169,4.411586,-5.036299,7.661991,-4.931828
09.39.10.216078, -0.4553267,-1.13941,-1.522256,58.86775,72.1675,129.5388,47.50023,-122.2169,3.408663,-5.26492,7.897327,-4.966923
09.39.10.248080, -0.4651747,-1.281194,-1.405531,61.36329,66.03526,125.5354,47.50023,-122.2169,2.416527,-5.534966,8.101206,-5.001578
09.39.10.283082, -0.4767307,-1.400246,-1.305233,63.3463,59.21891,120.9969,47.50023,-122.2169,1.441266,-5.839728,8.27252,-5.031396
09.39.13.385260, 0,0,0,0,0,0,47.5003,-122.2168,0,0,0,0
09.39.13.430262, -0.09098472,-0.1410994,-0.4652581,1.178782,-0.1260285,154.0443,47.5003,-122.2168,0.2280883,-0.07798351,-1.653955,0.0004665071
09.39.13.483265, -0.1550667,-0.3584473,-0.7708213,0.7939882,-1.043199,152.1575,47.5003,-122.2168,0.4845917,-0.09290843,-1.828668,-0.03709253
09.39.13.531268, -0.2492613,-0.5549536,-1.064205,0.1061285,-2.499048,149.4509,47.5003,-122.2168,0.7629381,-0.09896136,-1.900513,-0.07742365
09.39.13.630274, -0.3314759,-0.7170616,-1.334087,-0.9103999,-4.373231,146.0145,47.5003,-122.2168,1.049356,-0.08959261,-1.916488,-0.1189087
09.39.13.630274, -0.400571,-0.8532944,-1.58463,-2.30084,-6.581558,141.8717,47.5003,-122.2168,1.342337,-0.05711878,-1.910705,-0.1626032
09.39.13.677276, -0.4537113,-0.9674733,-1.812811,-4.054329,-8.96128,137.1955,47.5003,-122.2168,1.631319,0.001264708,-1.885665,-0.2059947
09.39.13.732280, -0.3995461,-0.9566602,-2.021795,-5.945401,-11.12966,131.9799,47.5003,-122.2168,1.917616,0.05784879,-1.857174,-0.2223692
09.39.13.779282, -0.3283418,-0.9455241,-2.215783,-7.965806,-13.05861,126.1667,47.5003,-122.2168,2.202914,0.1435635,-1.818779,-0.2374915
09.39.13.816284, -0.2443732,-0.8822862,-2.393936,-10.04262,-14.5169,119.8764,47.5003,-122.2168,2.479493,0.240337,-1.766274,-0.2493032
09.39.13.849286, -0.1675542,-0.8247256,-2.535176,-12.03431,-15.44837,113.5464,47.5003,-122.2168,2.731515,0.3498648,-1.705811,-0.2520909
09.39.13.886288, -0.08916965,-0.6746722,-2.644346,-13.86093,-15.67976,107.3204,47.5003,-122.2168,2.95926,0.4447099,-1.651183,-0.2633883
09.39.13.917290, -0.02075165,-0.4881192,-2.734583,-15.54962,-15.20374,100.9679,47.5003,-122.2168,3.172659,0.5467928,-1.590288,-0.2679889
09.39.13.951292, 0.03296543,-0.3121578,-2.796006,-16.99902,-14.14303,94.77628,47.5003,-122.2168,3.365492,0.6495585,-1.530489,-0.2670846
09.39.13.988294, 0.08394679,-0.09917793,-2.846763,-18.21321,-12.45228,88.53645,47.5003,-122.2168,3.546566,0.7439908,-1.475123,-0.2769886
09.39.14.032297, 0.1235026,0.1262927,-2.883656,-19.17302,-10.11089,82.1291,47.5003,-122.2168,3.719988,0.8408766,-1.414407,-0.2870192
09.39.14.068299, 0.1509243,0.3492948,-2.922257,-19.85488,-7.014351,75.25459,47.5003,-122.2168,3.893009,0.9450751,-1.349582,-0.2995986
09.39.14.110301, 0.1809078,0.5538204,-2.954401,-20.11822,-3.415532,68.347,47.5003,-122.2168,4.055826,1.043359,-1.287721,-0.3182649
09.39.14.148303, 0.2013229,0.7373015,-2.985205,-19.92312,0.6954497,61.22248,47.5003,-122.2168,4.213408,1.147254,-1.223182,-0.3457596
09.39.14.192306, 0.2244965,0.893587,-3.010692,-19.20074,5.0934,54.10775,47.5003,-122.2168,4.362414,1.249284,-1.158289,-0.3846559
09.39.14.232308, 0.2402229,1.029472,-3.034635,-17.89147,9.796101,46.84179,47.5003,-122.2168,4.506844,1.360539,-1.087352,-0.4373437
09.39.14.272310, 0.2471689,1.142122,-3.051706,-16.01214,14.5246,39.72575,47.5003,-122.2168,4.641011,1.478149,-1.007532,-0.5033876
09.39.14.313313, 0.2525324,1.235216,-3.06081,-13.58162,19.14916,32.84782,47.5003,-122.2168,4.763507,1.601123,-0.9177415,-0.5837889
09.39.14.360315, 0.2524374,1.314102,-3.062331,-10.62138,23.61546,26.20811,47.5003,-122.2168,4.873407,1.734371,-0.8141133,-0.6768107
09.39.14.403318, 0.2501325,1.185873,-3.056146,-7.056145,27.52041,19.63502,47.5003,-122.2168,4.975982,1.870142,-0.7266243,-0.7632638
09.39.14.437320, 0.2518923,1.034981,-3.042383,-3.081949,30.61449,13.37535,47.5003,-122.2168,5.063642,2.014607,-0.6149848,-0.8619492
09.39.14.478322, 0.2561136,0.7336807,-3.014213,0.9609261,32.44064,7.712807,47.5003,-122.2168,5.136337,2.148845,-0.5327623,-0.9511745
09.39.14.515324, 0.2736218,0.4358852,-2.982111,5.171663,33.18988,2.232943,47.5003,-122.2168,5.196126,2.286556,-0.4316547,-1.047371
09.39.14.552326, 0.3070246,0.1684195,-2.943806,9.379073,32.94424,356.9745,47.5003,-122.2168,5.241192,2.423941,-0.3242128,-1.147098
09.39.14.595329, 0.331832,-0.06797821,-2.891673,13.46464,31.81446,351.8455,47.5003,-122.2168,5.272045,2.562283,-0.2173844,-1.24093
09.39.14.636331, 0.3655893,-0.2875203,-2.839579,17.53414,29.78358,346.5552,47.5003,-122.2168,5.289681,2.70215,-0.1088254,-1.343283
09.39.14.684334, 0.3859094,-0.4869463,-2.786596,21.40649,26.88165,341.0936,47.5003,-122.2168,5.294723,2.842867,-0.01018784,-1.44527
09.39.14.718336, 0.4117326,-0.6757543,-2.735966,25.16965,22.93066,335.1263,47.5003,-122.2168,5.286607,2.985572,0.08771014,-1.562351
09.39.14.755338, 0.4431954,-0.8360025,-2.684868,28.39478,18.34883,329.1552,47.5003,-122.2168,5.267689,3.115292,0.1747258,-1.685222
09.39.14.798341, 0.4418084,-0.9756408,-2.636195,31.06656,13.12294,322.9933,47.50029,-122.2168,5.241188,3.23614,0.2366421,-1.807344
09.39.14.837343, 0.4369068,-1.101234,-2.595036,33.24302,7.046171,316.3199,47.50029,-122.2168,5.206257,3.350515,0.2967817,-1.947256
09.39.14.879345, 0.4085917,-1.206489,-2.561186,34.69771,0.4618002,309.4343,47.50029,-122.2168,5.166382,3.45191,0.3384159,-2.096996
09.39.14.916347, 0.3786452,-1.293695,-2.538548,35.41211,-6.640314,302.2527,47.50029,-122.2168,5.119882,3.540807,0.3850579,-2.263586
09.39.14.952349, 0.3529329,-1.361308,-2.527252,35.33802,-13.79872,295.1765,47.50029,-122.2168,5.067486,3.613949,0.4382707,-2.440948
09.39.15.002352, 0.3148578,-1.412836,-2.528812,34.48468,-20.82139,288.3463,47.50029,-122.2168,5.0098,3.670506,0.4883004,-2.628642
09.39.15.043355, 0.2758779,-1.452613,-2.55202,32.74467,-28.11573,281.3256,47.50029,-122.2168,4.938646,3.716845,0.5593134,-2.839104
09.39.15.088357, 0.2432833,-1.338951,-2.588272,30.19608,-34.68272,274.7333,47.50029,-122.2168,4.856251,3.766808,0.6437538,-3.038859
09.39.15.125359, 0.2146844,-1.195508,-2.64379,26.83379,-40.52795,268.4604,47.50029,-122.2168,4.756477,3.802747,0.7540607,-3.248147
09.39.15.172362, 0.186634,-1.056456,-2.715271,22.91708,-45.32933,262.8455,47.50029,-122.2168,4.642712,3.827262,0.8797674,-3.453385
09.39.15.212364, 0.1530142,-0.7626796,-2.814462,18.20733,-49.05418,257.4326,47.50029,-122.2168,4.510054,3.865131,0.9819362,-3.65052
09.39.15.255367, 0.1127303,-0.3965444,-2.933124,13.02226,-51.31512,252.4524,47.50028,-122.2168,4.364131,3.890583,1.096638,-3.838583
09.39.15.298369, 0.05950559,-0.02805774,-3.081417,7.27266,-52.21861,247.6098,47.50028,-122.2168,4.200034,3.90472,1.219331,-4.025003
09.39.15.351372, -0.0136014,0.3141796,-3.248239,0.9831851,-51.8029,242.7454,47.50028,-122.2168,4.016912,3.906347,1.34216,-4.208158
09.39.15.395375, -0.112644,0.6305568,-3.437916,-6.067772,-49.98816,237.4883,47.50028,-122.2168,3.808457,3.891139,1.457371,-4.399847
09.39.15.432377, -0.2357297,0.9066658,-3.645625,-13.48778,-46.78219,231.818,47.50028,-122.2168,3.587156,3.853079,1.55091,-4.598702
09.39.15.465379, -0.3776385,1.120385,-3.855085,-20.87921,-42.30728,225.6294,47.50027,-122.2168,3.364605,3.788265,1.619045,-4.803164
09.39.15.527382, -0.6499861,1.4541,-4.229421,-34.19364,-29.51911,210.9205,47.50027,-122.2168,2.941537,3.586945,1.694458,-5.219074
09.39.15.562384, -0.7896466,1.576383,-4.384322,-39.75617,-20.82705,201.7275,47.50027,-122.2168,2.737917,3.444988,1.723726,-5.437864
09.39.15.595386, -0.9041393,1.674534,-4.515333,-44.29591,-9.973079,190.5491,47.50027,-122.2168,2.532081,3.278762,1.745749,-5.671869
09.39.15.628388, -1.009991,1.748358,-4.617619,-47.20626,2.729463,177.6554,47.50027,-122.2168,2.32579,3.089688,1.790444,-5.908754
09.39.15.661390, -1.113116,1.805436,-4.682507,-48.12261,16.66463,163.6044,47.50026,-122.2168,2.111877,2.886901,1.875292,-6.142075
09.39.15.710393, -1.229635,1.902615,-4.670771,-43.7804,42.33197,137.8175,47.50026,-122.2168,1.66419,2.485586,2.126479,-6.579378
09.39.15.768396, -1.270553,1.998822,-4.498946,-34.84071,59.71077,120.6138,47.50026,-122.2168,1.198466,2.174967,2.498421,-6.907733
09.39.15.829399, -1.240576,2.125257,-4.230997,-23.46133,72.31276,108.8455,47.50025,-122.2168,0.6433734,1.944363,2.981832,-7.165739
09.39.15.867402, -1.35584,4.887228,-1.290167,-22.03051,81.85368,105.7188,47.50025,-122.2168,0.3207122,1.949193,3.296037,-7.167964
09.39.15.937406, -1.369416,4.67758,4.712978,-33.63643,93.07418,107.9431,47.50025,-122.2168,-0.3833038,1.558609,3.157493,-7.598807
09.39.15.986408, -7.257885,4.283188,9.688044,-56.06047,140.831,62.60692,47.50024,-122.2168,-0.7546762,0.6503725,1.124035,-7.254671
09.39.16.028411, -3.328911,3.9229,9.728814,-50.71318,-161.3265,4.235529,47.50024,-122.2168,-0.7291537,0.06865349,-0.3466792,-6.518367
09.39.16.086414, -7.366415,3.785097,9.742744,-21.00133,-138.1161,343.3408,47.50024,-122.2168,-0.6351725,-0.1965421,-0.5250918,-6.118104
09.39.16.124416, -7.491848,1.090059,9.725882,-2.061416,-134.171,340.1938,47.50023,-122.2168,-0.596162,-0.2879474,-0.4204085,-6.038465
09.39.16.172419, -7.540789,1.66953,8.078345,16.84847,-129.7317,340.1367,47.50023,-122.2168,-0.5463606,-0.6555433,-0.4937081,-5.942244
09.39.16.209421, -4.054911,4.85791,4.575104,28.97483,-119.2278,340.695,47.50023,-122.2168,-0.1122913,-1.025268,-3.803988,-5.318794
09.39.16.256424, -1.772825,6.390263,1.133211,32.70035,-105.014,343.0871,47.50023,-122.2168,0.4682223,-0.9175168,-5.008488,-4.849593
09.39.16.297426, -1.581841,6.182842,1.385177,36.48491,-89.57143,346.2687,47.50023,-122.2168,1.047915,-0.9068592,-4.617701,-4.835915
09.39.16.333428, -1.353384,6.000496,1.604697,39.95685,-73.71093,350.2079,47.50023,-122.2168,1.585175,-0.8863976,-4.223069,-4.821811
09.39.16.372431, -1.121909,5.842334,1.781014,42.90998,-57.74139,354.8842,47.50023,-122.2168,2.06532,-0.8598019,-3.833088,-4.806459
09.39.16.407433, -0.8805202,5.700546,1.921271,45.31126,-41.31788,0.3627834,47.50022,-122.2168,2.4974,-0.8318421,-3.43831,-4.789863
09.39.16.442435, -0.6369013,5.574634,2.02283,46.99546,-24.83327,6.434689,47.50022,-122.2168,2.873242,-0.8045897,-3.04735,-4.771654
09.39.16.485437, -0.3938979,5.461807,2.091408,47.91105,-8.501116,12.8635,47.50022,-122.2168,3.194292,-0.7814412,-2.661754,-4.750998
09.39.16.521439, -0.1402874,5.352403,2.128393,48.08476,8.55158,19.8248,47.50022,-122.2168,3.479065,-0.7617527,-2.256787,-4.727153
09.39.16.574442, 0.1096013,5.227564,2.104005,47.442,24.88921,26.50744,47.50022,-122.2168,3.709692,-0.7475838,-1.858651,-4.701644
09.39.16.612444, 0.3600863,5.113899,2.069336,45.95606,41.86074,33.32331,47.50021,-122.2168,3.901363,-0.7379801,-1.430426,-4.672071
09.39.16.650446, 0.5933309,5.010946,2.005674,43.72805,57.6139,39.33351,47.50021,-122.2168,4.034427,-0.7340884,-1.014114,-4.641966
09.39.16.689449, 0.8121179,4.909389,1.902524,40.95502,72.13332,44.45314,47.50021,-122.2168,4.112605,-0.7350921,-0.6096218,-4.612184
09.39.16.729451, 1.008285,4.823903,1.798711,37.70008,85.71342,48.79,47.50021,-122.2168,4.139016,-0.7394733,-0.2115075,-4.583148
09.39.16.774454, 1.188175,4.744685,1.677946,34.0676,98.44302,52.38755,47.50021,-122.2168,4.114654,-0.7460945,0.1805433,-4.555434
09.39.16.814456, 1.361284,4.666118,1.521957,30.02762,110.9211,55.46546,47.50021,-122.2168,4.035044,-0.7533179,0.5845247,-4.527231
09.39.16.856458, 1.510744,4.599643,1.368842,25.75585,122.7053,57.89753,47.50021,-122.2168,3.902541,-0.7616125,0.9816525,-4.500561
09.39.16.907461, 1.646553,4.531556,1.188768,21.30383,134.0138,59.81206,47.5002,-122.2168,3.716421,-0.7704702,1.375942,-4.475164
09.39.16.947463, 1.765036,4.468408,1.006701,16.45753,145.4917,61.33101,47.5002,-122.2168,3.461447,-0.7799591,1.787128,-4.45038
09.39.16.995466, 1.861782,4.406865,0.8177839,11.59885,156.3616,62.32013,47.5002,-122.2168,3.156582,-0.7888047,2.184677,-4.428587
09.39.17.037469, 1.944625,4.342261,0.6007926,6.518719,167.2977,62.94493,47.5002,-122.2168,2.783464,-0.7969109,2.590278,-4.40901
09.39.17.086471, 2.001127,4.279147,0.3948994,1.449034,177.9048,63.12517,47.5002,-122.2168,2.35795,-0.8033,2.987052,-4.393255
09.39.17.128474, 2.04111,4.21651,0.165626,-3.800595,-171.2901,62.93595,47.50019,-122.2168,1.859444,-0.8078418,3.392682,-4.380911
09.39.17.174476, 2.043967,4.137285,-0.04712667,-8.912926,-160.7776,62.30731,47.50019,-122.2168,1.312657,-0.8097384,3.788853,-4.372674
09.39.17.221479, 2.028993,4.063164,-0.2593571,-14.03208,-150.1268,61.23296,47.50019,-122.2168,0.6991319,-0.8086003,4.190166,-4.367534
09.39.17.265482, 1.994681,4.001441,-0.4797535,-19.11514,-139.2733,59.69338,47.50019,-122.2168,0.01988506,-0.8036214,4.593246,-4.367618
09.39.17.300484, 1.909307,3.923901,-0.6416947,-23.89224,-128.3402,57.59739,47.50019,-122.2168,-0.7137054,-0.795155,4.994341,-4.372269
09.39.17.335486, 0.645286,4.174923,1.140702,-22.65438,-116.9289,54.37109,47.50019,-122.2168,-0.6127057,-0.5430756,-0.7174776,-3.194039
09.39.17.371488, 0.4773191,3.037251,1.433441,-20.16675,-108.9342,51.68459,47.50019,-122.2168,-0.5179533,-0.4841882,-0.7055315,-3.129354
09.39.17.402489, 0.4539435,2.148564,1.56827,-17.13558,-103.4028,49.43871,47.50018,-122.2168,-0.4378431,-0.4315714,-0.611574,-3.084688
09.39.17.437491, 0.4543495,1.480448,1.734985,-13.74561,-99.7751,47.55351,47.50018,-122.2168,-0.3801203,-0.3864838,-0.4641748,-3.052175
09.39.17.473494, 0.4802568,0.9843531,1.841347,-10.09284,-97.39014,45.84609,47.50018,-122.2168,-0.3463534,-0.3494099,-0.2726727,-3.026603
09.39.17.519496, 0.4993874,0.5383485,1.987366,-6.088291,-96.07523,44.23388,47.50018,-122.2168,-0.3381887,-0.317084,-0.05876921,-3.004012
09.39.17.558498, 0.5548238,-0.3088176,2.021734,-1.729993,-96.69682,42.49623,47.50018,-122.2168,-0.3434095,-0.260521,0.04866737,-2.966617
09.39.17.597501, 0.580106,-0.8913372,2.063252,2.683607,-98.74957,40.64894,47.50018,-122.2168,-0.3740495,-0.2197338,0.2488231,-2.936979
09.39.17.635503, 0.6148425,-1.303712,1.804493,6.458424,-101.8708,38.64397,47.50018,-122.2168,-0.4250019,-0.1849516,0.4066249,-2.905351
09.39.17.676505, 0.7282242,-1.527191,0.9951148,8.283028,-105.5573,36.57748,47.50018,-122.2168,-0.4727096,-0.1325591,0.3837881,-2.849514
09.39.17.712507, 1.313565,-1.609273,-1.620407,3.986484,-109.2765,34.73077,47.50018,-122.2168,-0.4707498,-0.03623006,-0.007456842,-2.737336
09.39.17.754510, 1.348639,-1.601221,-1.51796,-0.1581391,-112.781,33.04667,47.50018,-122.2168,-0.5154335,-0.0364782,0.3622192,-2.732206
09.39.17.789512, 1.383134,-1.508914,-1.474597,-4.419395,-116.0225,31.47552,47.50018,-122.2168,-0.6053459,-0.03274508,0.7049245,-2.719527
09.39.17.839514, 1.328324,-1.264977,-1.233669,-8.130871,-118.5734,30.04261,47.50017,-122.2168,-0.6635218,0.0397912,0.4705258,-2.582144
09.39.17.875517, 1.196148,-0.6500396,-0.9526032,-11.45225,-119.8086,28.62175,47.50017,-122.2168,-0.6600202,0.1460079,-0.01923745,-2.361631
09.39.17.910519, 1.085801,-0.3298589,-0.6794213,-14.02882,-120.2147,27.20604,47.50017,-122.2168,-0.6404033,0.2182505,-0.1438376,-2.221337
09.39.17.947521, 0.9914684,-0.1626189,-0.5165013,-16.11328,-120.1952,25.8386,47.50017,-122.2168,-0.6247267,0.267149,-0.1175602,-2.121955
09.39.17.987523, 0.9034754,-0.148255,-0.2993942,-17.67224,-120.0873,24.39012,47.50017,-122.2168,-0.6143441,0.3093971,-0.07708955,-2.027252
09.39.18.021525, 0.7997067,-0.1675184,-0.1228819,-18.78748,-119.993,22.91886,47.50017,-122.2168,-0.6087092,0.3483168,-0.03901058,-1.930662
09.39.18.057527, 0.7026355,-0.2355346,0.1062495,-19.33997,-120.01,21.40528,47.50017,-122.2168,-0.6063243,0.384084,-0.01364881,-1.832812
09.39.18.096529, 0.6001874,-0.2568249,0.2807006,-19.45531,-120.0682,19.91459,47.50017,-122.2168,-0.6067433,0.4167886,0.008388721,-1.734605
09.39.18.141532, 0.4998748,-0.2532208,0.4570361,-19.13716,-120.1243,18.40248,47.50017,-122.2168,-0.6089176,0.4476768,0.02256802,-1.631977
09.39.18.180534, 0.3987302,-0.2105984,0.628013,-18.35282,-120.1063,16.81868,47.50017,-122.2168,-0.6128752,0.4773437,0.03434087,-1.522323
09.39.18.217536, 0.3052949,-0.134845,0.7889274,-17.15084,-119.946,15.2511,47.50017,-122.2168,-0.617885,0.5037268,0.04337189,-1.412375
09.39.18.256538, 0.2259054,-0.05246425,0.9375566,-15.59295,-119.6405,13.71451,47.50017,-122.2168,-0.6234334,0.5273201,0.04767499,-1.298022
09.39.18.291540, 0.152139,0.05767212,1.06479,-13.69297,-119.1368,12.19594,47.50017,-122.2168,-0.6302845,0.5467084,0.05681672,-1.189726
09.39.18.330543, 0.08527084,0.177211,1.164602,-11.57523,-118.4466,10.77102,47.50016,-122.2168,-0.6375937,0.5616162,0.06295286,-1.089807
09.39.18.370545, 0.0233641,0.2753205,1.264404,-9.169919,-117.599,9.388676,47.50016,-122.2168,-0.6451628,0.5730135,0.06378719,-0.9988572
09.39.18.405547, -0.03409779,0.3519743,1.351948,-6.475836,-116.6355,8.054018,47.50016,-122.2168,-0.6532423,0.581414,0.06757236,-0.9191305
09.39.18.452550, -0.04271822,0.4226294,1.323529,-3.879181,-115.6124,6.84976,47.50016,-122.2168,-0.6559566,0.5850359,0.02519715,-0.8443992
09.39.18.489552, -0.003895653,0.1282902,1.173775,-1.449347,-115.2645,5.692829,47.50016,-122.2168,-0.6427352,0.5829495,-0.09772918,-0.7661811
09.39.18.526554, 0.04559559,0.1815809,0.9863018,0.5140113,-114.8494,4.651825,47.50016,-122.2168,-0.6414807,0.5819503,-0.006628243,-0.7270441
09.39.18.568556, 0.165471,0.1351086,0.5897902,1.546409,-114.5699,3.768724,47.50016,-122.2168,-0.6317213,0.5746229,-0.07370882,-0.6700017
09.39.18.608558, 0.295399,0.1801222,0.1926708,1.665033,-114.1862,2.977827,47.50016,-122.2168,-0.6280154,0.5722603,-0.02547372,-0.6285709
09.39.18.646561, 0.379846,0.03667546,-0.04340833,1.221166,-114.121,2.230671,47.50016,-122.2168,-0.6305082,0.5728006,0.02222921,-0.5885437
09.39.18.686563, 0.432365,-0.1254794,-0.1835576,0.4492268,-114.4093,1.514025,47.50016,-122.2168,-0.6359797,0.5729085,0.04495086,-0.5465995
09.39.18.722565, 0.4572768,-0.2038201,-0.2681011,-0.5294316,-114.8639,0.8232403,47.50016,-122.2168,-0.6428626,0.5714768,0.05640122,-0.5038707
09.39.18.774568, 0.4631505,-0.2043498,-0.3002163,-1.561954,-115.2979,0.1727047,47.50016,-122.2168,-0.6485788,0.5677182,0.04753122,-0.4613054
09.39.18.809570, 0.4550385,-0.1461722,-0.3111247,-2.692938,-115.6139,359.5092,47.50016,-122.2168,-0.6530232,0.5619178,0.0355841,-0.4180407
09.39.18.846572, 0.4348596,-0.0887447,-0.2805512,-3.700781,-115.7766,358.888,47.50016,-122.2168,-0.6550044,0.5548519,0.0183095,-0.3793813
09.39.18.884574, 0.4045769,-0.04677332,-0.2352387,-4.567759,-115.8346,358.2992,47.50016,-122.2168,-0.6559789,0.5474929,0.009955675,-0.3457983
09.39.18.920576, 0.369308,-0.04442295,-0.1680134,-5.26356,-115.8813,357.7179,47.50016,-122.2168,-0.6558402,0.5394455,0.001266061,-0.3159201
09.39.18.957578, 0.3299499,-0.05367015,-0.1043134,-5.782371,-115.9439,357.1657,47.50016,-122.2168,-0.6553776,0.5313215,-0.001107766,-0.2904627
09.39.18.992580, 0.291382,-0.06508636,-0.03066174,-6.119354,-116.0287,356.6211,47.50016,-122.2168,-0.6551194,0.5228842,0.0003387148,-0.2680874
09.39.19.028582, 0.2516007,-0.06475265,0.03202612,-6.292169,-116.1109,356.1082,47.50016,-122.2168,-0.6550019,0.514213,0.001505866,-0.2486715
09.39.19.074585, 0.2161503,-0.05598957,0.09863782,-6.305795,-116.1747,355.6026,47.50016,-122.2168,-0.6552017,0.50529,0.004207147,-0.2314883
09.39.19.107587, 0.1803246,-0.03381904,0.1523736,-6.177153,-116.1956,355.0851,47.50016,-122.2168,-0.6557223,0.4954707,0.00638806,-0.2152826
09.39.19.141589, 0.1522772,-0.006997271,0.2048278,-5.926291,-116.1602,354.594,47.50016,-122.2168,-0.6563232,0.4858188,0.007319823,-0.2015512
09.39.19.177591, 0.1272354,0.02334402,0.237185,-5.596214,-116.0658,354.1315,47.50016,-122.2168,-0.6569061,0.4762658,0.007332334,-0.1897521
09.39.19.211593, 0.108396,0.04976645,0.2710094,-5.18673,-115.9202,353.6773,47.50016,-122.2168,-0.6573868,0.4668055,0.006525842,-0.1793324
09.39.19.247595, 0.09213523,0.07310753,0.2847054,-4.743206,-115.734,353.2501,47.50016,-122.2168,-0.6579533,0.4576406,0.006515932,-0.1703762
09.39.19.290597, 0.08332245,0.01925242,0.2889904,-4.281263,-115.6626,352.8361,47.50016,-122.2168,-0.6560821,0.4478531,-0.01324867,-0.1624091
09.39.19.327600, 0.07890066,0.00732517,0.2708414,-3.827868,-115.6188,352.4288,47.50016,-122.2168,-0.6554933,0.4394045,-0.003142807,-0.1556441
09.39.19.368602, 0.08250496,-0.007613043,0.252236,-3.414497,-115.6111,352.0332,47.50016,-122.2168,-0.655021,0.4303963,-0.001393669,-0.1489731
09.39.19.410604, 0.08856408,-0.01292499,0.2118608,-3.07856,-115.6189,351.656,47.50016,-122.2168,-0.6548086,0.4212514,0.0007543269,-0.1424813
09.39.19.448607, 0.1006235,-0.01145052,0.1789121,-2.812944,-115.626,351.2769,47.50016,-122.2168,-0.6549069,0.4119806,0.002312931,-0.135895
09.39.19.486609, 0.1121562,-0.01140806,0.1296316,-2.660608,-115.6353,350.9266,47.50016,-122.2168,-0.6548707,0.4029322,0.002071857,-0.1295278
09.39.19.520611, 0.1266191,-0.007644535,0.09669735,-2.588624,-115.6369,350.5798,47.50016,-122.2168,-0.6550912,0.3942634,0.003294013,-0.1232153
09.39.19.557613, 0.1375189,-0.01084263,0.05300175,-2.613873,-115.6462,350.2622,47.50016,-122.2168,-0.655143,0.3859906,0.002849228,-0.1171921
09.39.19.591615, 0.1493448,-0.009659031,0.03028368,-2.693763,-115.6524,349.9453,47.50016,-122.2168,-0.6554118,0.3781051,0.003826681,-0.1112508
09.39.19.625617, 0.1561684,-0.0149658,-0.001313901,-2.837672,-115.6696,349.6512,47.50016,-122.2168,-0.6555561,0.3705136,0.003687686,-0.1056093
09.39.19.660619, 0.1630877,-0.0131264,-0.01008971,-3.00119,-115.6815,349.3577,47.50016,-122.2168,-0.6560456,0.3632949,0.005020584,-0.1001712
09.39.19.702621, 0.1648665,-0.01857626,-0.02879097,-3.200789,-115.7043,349.0778,47.50016,-122.2168,-0.6562435,0.3561021,0.00424506,-0.09495702
09.39.19.737623, 0.166986,-0.01466806,-0.02433056,-3.401715,-115.7182,348.7786,47.50016,-122.2168,-0.6566945,0.3488417,0.005258501,-0.08972579
09.39.19.775625, 0.1636362,-0.02030227,-0.03158516,-3.610575,-115.7434,348.4966,47.50016,-122.2168,-0.6570002,0.3416965,0.004207419,-0.08492284
09.39.19.811627, 0.1611021,-0.01390959,-0.01524118,-3.78884,-115.7539,348.2003,47.50016,-122.2168,-0.657378,0.3346517,0.004738428,-0.08031113
09.39.19.847629, 0.1536354,-0.01792924,-0.0135006,-3.955381,-115.7727,347.9194,47.50016,-122.2168,-0.6576534,0.3277234,0.003914453,-0.07615498
09.39.19.886632, 0.1477718,-0.01052212,0.01021044,-4.070799,-115.7746,347.6298,47.50016,-122.2168,-0.6579378,0.3210205,0.004035944,-0.07229926
09.39.19.922634, 0.1378753,-0.0160759,0.01577117,-4.168273,-115.7888,347.3494,47.50016,-122.2168,-0.6580287,0.3142841,0.002385268,-0.06884259
09.39.19.959636, 0.1310389,-0.006674937,0.04271047,-4.207304,-115.7821,347.0606,47.50016,-122.2168,-0.6582434,0.3078828,0.003382205,-0.06571063
09.39.19.999638, 0.1211612,-0.01377712,0.04778429,-4.22772,-115.7912,346.7848,47.50016,-122.2168,-0.6581287,0.301478,0.001533076,-0.06299164
09.39.20.045641, 0.1150162,-0.004687497,0.0742452,-4.191459,-115.7801,346.4912,47.50016,-122.2168,-0.6583386,0.295234,0.002512378,-0.06045049
09.39.20.086643, 0.1061835,-0.01382694,0.07517631,-4.142389,-115.7906,346.198,47.50016,-122.2168,-0.658191,0.2886598,0.0005247807,-0.05817241
09.39.20.122645, 0.1023218,-0.001194674,0.09891438,-4.04024,-115.7717,345.8875,47.50016,-122.2168,-0.658376,0.2823712,0.002934868,-0.0560391
09.39.20.159647, 0.09693996,-0.01257843,0.09211977,-3.948992,-115.7803,345.6022,47.50016,-122.2168,-0.6581067,0.2761543,-0.0005391157,-0.05427298
09.39.20.195649, 0.09622435,-4.608779E-05,0.1094776,-3.8235,-115.7607,345.3048,47.50016,-122.2168,-0.6581589,0.270418,0.001942068,-0.05257381
09.39.20.236652, 0.09413645,-0.01171532,0.09601174,-3.724528,-115.7684,345.0296,47.50016,-122.2168,-0.6579263,0.2647044,-0.0002601267,-0.05113532
09.39.20.276654, 0.09603972,0.0001211694,0.1085598,-3.600641,-115.7496,344.7336,47.50016,-122.2168,-0.6579916,0.2592103,0.002097307,-0.04960604
09.39.20.309656, 0.09671114,-0.01275083,0.08867452,-3.515756,-115.7611,344.4516,47.50016,-122.2168,-0.6578606,0.2535672,-0.0002098571,-0.04823516
09.39.20.360659, 0.1002661,-0.001013285,0.09820716,-3.419419,-115.7464,344.1658,47.50016,-122.2168,-0.6579416,0.2484917,0.002288932,-0.04679323
09.39.20.394661, 0.102902,-0.01462144,0.07377344,-3.368713,-115.7635,343.8747,47.50016,-122.2168,-0.6577129,0.2428918,-0.000214248,-0.04537698
09.39.20.429663, 0.1073812,0.0009332804,0.08339055,-3.305038,-115.7445,343.5767,47.50016,-122.2168,-0.6579145,0.2378727,0.003047394,-0.04383846
09.39.20.467665, 0.110732,-0.01429297,0.05894279,-3.294132,-115.7601,343.3033,47.50016,-122.2168,-0.6577774,0.2328553,-0.0002965459,-0.04249221
09.39.20.503667, 0.1143144,-0.0001070954,0.07033782,-3.264161,-115.744,343.0104,47.50016,-122.2168,-0.6579747,0.2282049,0.003170159,-0.04098007
09.39.20.538669, 0.1173201,-0.01563001,0.04717853,-3.282308,-115.7623,342.7386,47.50016,-122.2168,-0.6579176,0.2234922,0.0004179842,-0.03966531
09.39.20.577671, 0.1191626,-0.002282577,0.06139637,-3.274876,-115.7512,342.4551,47.50016,-122.2168,-0.6580887,0.219187,0.003072165,-0.03821775
09.39.20.609673, 0.1215554,-0.01700344,0.03986223,-3.311106,-115.7722,342.1824,47.50016,-122.2168,-0.6580954,0.2147115,0.0008688742,-0.03695735
09.39.20.655676, 0.121742,-0.00334285,0.05677706,-3.314803,-115.7633,341.9035,47.50016,-122.2168,-0.6583913,0.2106593,0.00337678,-0.03559212
09.39.20.698678, 0.1236802,-0.01800649,0.03582906,-3.36235,-115.7869,341.6216,47.50016,-122.2168,-0.6582554,0.2062218,0.0005076698,-0.03437283
09.39.20.734680, 0.1215591,-0.002201967,0.05878612,-3.362187,-115.7742,341.3133,47.50016,-122.2168,-0.6586168,0.2019905,0.003538126,-0.03296303
09.39.20.776682, 0.1229602,-0.01732892,0.03883383,-3.403222,-115.7961,341.0291,47.50016,-122.2168,-0.6584036,0.197728,-0.000143679,-0.03189554
09.39.20.812685, 0.1190143,-0.003425636,0.06446205,-3.389045,-115.7861,340.7227,47.50016,-122.2168,-0.6587048,0.1937633,0.003099222,-0.03066071
09.39.20.852687, 0.1203902,-0.01669395,0.04460379,-3.416055,-115.8065,340.4387,47.50016,-122.2168,-0.6585034,0.1897296,-9.818575E-06,-0.02977302
09.39.20.891689, 0.1154305,-0.00363993,0.07121615,-3.385143,-115.7971,340.1377,47.50016,-122.2168,-0.6588262,0.1860001,0.003366619,-0.02871674
09.39.20.926691, 0.1173296,-0.01621312,0.05002928,-3.398536,-115.8167,339.8525,47.50016,-122.2168,-0.658666,0.182093,-0.0004699493,-0.02797702
09.39.20.974694, 0.1117475,-0.005297265,0.07697998,-3.353516,-115.8113,339.5597,47.50016,-122.2168,-0.6589473,0.1786364,0.003055724,-0.02707377
09.39.21.008696, 0.1144316,-0.01507591,0.05364338,-3.357029,-115.8294,339.2657,47.50016,-122.2168,-0.6588318,0.1747757,-2.895319E-05,-0.02643929
09.39.21.042698, 0.1083477,-0.00702522,0.08170044,-3.298499,-115.8282,338.9696,47.50016,-122.2168,-0.6589687,0.1713873,0.002651453,-0.02560755
09.39.21.079700, 0.1118778,-0.01253328,0.05806872,-3.290867,-115.8399,338.6976,47.50016,-122.2168,-0.6589347,0.1679858,0.0005351986,-0.02512054
09.39.21.113702, 0.1064295,-0.009475988,0.08410139,-3.227793,-115.8444,338.4123,47.50016,-122.2168,-0.6590399,0.1648115,0.001664178,-0.02440215
09.39.21.150704, 0.1111081,-0.009737726,0.05881662,-3.21832,-115.8502,338.1482,47.50016,-122.2168,-0.6590254,0.1616934,0.0007124552,-0.0239869
09.39.21.189706, 0.1063699,-0.01097276,0.08339111,-3.158102,-115.8581,337.8705,47.50016,-122.2168,-0.659071,0.1587152,0.001212414,-0.02333229
09.39.21.223708, 0.1119851,-0.007499238,0.05621913,-3.154342,-115.8596,337.6031,47.50016,-122.2168,-0.6591376,0.1557094,0.001353594,-0.02294235
09.39.21.272711, 0.1075177,-0.0138178,0.08060209,-3.100728,-115.8738,337.3271,47.50016,-122.2168,-0.6590538,0.1528335,0.000973081,-0.0223049
09.39.21.306713, 0.1141277,-0.006125145,0.05065479,-3.110302,-115.8726,337.0427,47.50016,-122.2168,-0.6591857,0.1497769,0.001781747,-0.02189775
09.39.21.342715, 0.1096426,-0.01662039,0.07636671,-3.064605,-115.8937,336.7535,47.50016,-122.2168,-0.65928,0.1468713,0.0008625535,-0.02121653
09.39.21.378717, 0.1163233,-0.005530459,0.04740332,-3.082195,-115.8913,336.4821,47.50016,-122.2168,-0.659318,0.1441028,0.001924961,-0.02083126
09.39.21.416719, 0.1121028,-0.01881261,0.07243402,-3.047504,-115.9167,336.1985,47.50016,-122.2168,-0.6592746,0.141375,0.0004637988,-0.02018177
09.39.21.456721, 0.1189636,-0.002648939,0.04358975,-3.074951,-115.9081,335.927,47.50016,-122.2168,-0.6595782,0.1387643,0.002490745,-0.01980514
09.39.21.492723, 0.1144821,-0.02115852,0.06959583,-3.047511,-115.939,335.636,47.50016,-122.2168,-0.6594214,0.1360682,0.0003478654,-0.01916527
09.39.21.530726, 0.1212072,-0.001845625,0.0412197,-3.081816,-115.9286,335.3619,47.50016,-122.2168,-0.6596189,0.1335724,0.002414717,-0.018808
09.39.21.578728, 0.1168049,-0.02286491,0.06707529,-3.061819,-115.9627,335.0715,47.50016,-122.2168,-0.6596528,0.1310162,0.0002145895,-0.01820659
09.39.21.613730, 0.1238591,0.002286484,0.03731541,-3.109405,-115.9418,334.7766,47.50016,-122.2168,-0.6598744,0.1284689,0.003198755,-0.0178503
09.39.21.652733, 0.1189352,-0.02391027,0.06509423,-3.094886,-115.979,334.4747,47.50016,-122.2168,-0.6597084,0.125898,-0.0005175197,-0.01725558
09.39.21.691735, 0.1251046,0.002225559,0.03778505,-3.141383,-115.9585,334.1857,47.50016,-122.2168,-0.6600107,0.1235877,0.003053854,-0.01694747
09.39.21.727737, 0.1204307,-0.0221562,0.06571668,-3.127116,-115.9915,333.8793,47.50016,-122.2168,-0.6598112,0.1211248,-0.0007775857,-0.01641282
09.39.21.762739, 0.1260627,0.003188109,0.03975075,-3.169713,-115.9691,333.5929,47.50016,-122.2168,-0.6601487,0.1189854,0.002697926,-0.01617106
09.39.21.799741, 0.1219465,-0.01966137,0.06646387,-3.155982,-115.9953,333.2935,47.50016,-122.2168,-0.6599873,0.116729,-0.0004954158,-0.01572906
09.39.21.834743, 0.1270943,0.003283539,0.04164387,-3.194897,-115.9728,333.0103,47.50016,-122.2168,-0.6602188,0.1147233,0.002717346,-0.015548
09.39.21.880746, 0.1234744,-0.01971015,0.06735488,-3.18125,-115.9981,332.7147,47.50016,-122.2168,-0.6600395,0.112612,-0.0006574126,-0.01517595
09.39.21.915748, 0.1283637,0.00283342,0.0420887,-3.222552,-115.9752,332.4138,47.50016,-122.2168,-0.6602203,0.1106049,0.002250421,-0.01502541
09.39.21.954750, 0.1251801,-0.02052719,0.06827276,-3.208209,-116.0029,332.1023,47.50016,-122.2168,-0.6600224,0.1085258,-0.0007820083,-0.01467382
09.39.21.991752, 0.1295875,0.001192455,0.04416313,-3.245714,-115.9837,331.8036,47.50016,-122.2168,-0.6603154,0.1066571,0.002333243,-0.01456363
09.39.22.025754, 0.1271192,-0.02034806,0.06943317,-3.231048,-116.0105,331.4884,47.50016,-122.2168,-0.6601468,0.1046629,-0.0005053424,-0.01425864
09.39.22.058756, 0.1309855,0.0007377667,0.04679668,-3.263578,-115.9926,331.1949,47.50016,-122.2168,-0.6603392,0.1029213,0.002413089,-0.01418208
09.39.22.093758, 0.1295876,-0.01805911,0.06936381,-3.252101,-116.0129,330.8921,47.50016,-122.2168,-0.6602164,0.101101,-0.000192395,-0.01393634
09.39.22.126760, 0.132952,-0.0002945263,0.04791049,-3.283325,-115.9973,330.6033,47.50016,-122.2168,-0.6604196,0.09946784,0.001670665,-0.01387823
09.39.22.160762, 0.1323952,-0.01718791,0,-3.400164,-116.0179,330.3625,47.50016,-122.2168,-0.6603055,0,-0.0001208283,0
09.39.22.201764, 0.1327661,-0.005834613,0,-3.516047,-116.0152,330.1239,47.50016,-122.2168,-0.6610989,0,0.006961239,0
09.39.22.234766, 0.1295181,-0.02863683,0,-3.634688,-116.0598,329.8796,47.50016,-122.2168,-0.6615423,0,0.003802191,0
09.39.22.271768, 0.1272716,-0.01272616,0,-3.748068,-116.0706,329.6465,47.50016,-122.2168,-0.6620524,0,0.004391914,0
09.39.22.303770, 0.1232455,-0.02468571,0,-3.859179,-116.1062,329.4181,47.50016,-122.2168,-0.6622189,0,0.001417014,0
09.39.22.336772, 0.1191057,-0.005258099,0,-3.964416,-116.1021,329.2021,47.50016,-122.2168,-0.6625061,0,0.002513228,0
09.39.22.374774, 0.1143018,-0.01657083,0.03442667,-4.00273,-116.1188,328.9681,47.50016,-122.2168,-0.66251,0.00161901,3.430915E-05,-0.003358864
09.39.22.407776, 0.1094355,-0.0002347217,0,-4.099959,-116.1052,328.7686,47.50016,-122.2168,-0.6625832,0,0.0006334397,0
09.39.22.447778, 0.1044721,-0.01301518,0.03618767,-4.126796,-116.1155,328.549,47.50016,-122.2168,-0.6625463,0.00172488,-0.0003012566,-0.003367476
09.39.22.485780, 0.09853667,0.0004017273,0,-4.216478,-116.1014,328.3649,47.50016,-122.2168,-0.6625991,0,0.0004458055,0
09.39.22.528783, 0.09337741,-0.01393287,0.03892459,-4.22927,-116.1151,328.1529,47.50016,-122.2168,-0.6625764,0.001823831,-0.0001889789,-0.003536787
09.39.22.562785, 0.08635643,-0.0002732899,0,-4.312397,-116.103,327.9823,47.50016,-122.2168,-0.6626918,0,0.0009425962,0
09.39.22.597787, 0.08157079,-0.01332219,0.03958276,-4.313106,-116.1169,327.7885,47.50016,-122.2168,-0.6626669,0.001837662,-0.0002034932,-0.003606839
09.39.22.630789, 0.07449689,-0.001337834,0,-4.381625,-116.1091,327.6478,47.50016,-122.2168,-0.6627106,0,0.0003654332,0
09.39.22.667791, 0.07033875,-0.01117767,0.03775907,-4.375586,-116.1195,327.4845,47.50016,-122.2168,-0.6626642,0.001791653,-0.0003656546,-0.003443277
09.39.22.703793, 0.063016,-9.930454E-05,0,-4.432801,-116.1107,327.3671,47.50016,-122.2168,-0.662736,0,0.0006080505,0
09.39.22.735795, 0.05933423,-0.008402578,0.0373746,-4.417451,-116.117,327.2231,47.50016,-122.2168,-0.6627164,0.001798728,-0.0001661823,-0.003477742
09.39.22.775797, 0.05223714,0.0001922365,0,-4.463736,-116.1093,327.1281,47.50016,-122.2168,-0.6627101,0,-2.993427E-05,0
09.39.22.847801, 0.04195588,0.0005153617,0,-4.476584,-116.1062,326.9274,47.50016,-122.2168,-0.6626921,0,0.0002108011,0
09.39.22.880803, 0.03875355,-0.004280034,0,-4.512293,-116.1094,326.854,47.50016,-122.2168,-0.662708,0,0.0001610667,0
09.39.22.952807, 0.02696709,-0.002978426,0,-4.563138,-116.1072,326.7496,47.50016,-122.2168,-0.662719,0,-7.284785E-05,0
09.39.22.990809, 0.01847233,0.0003112135,0,-4.579926,-116.1039,326.7151,47.50016,-122.2168,-0.6627437,0,0.0002271608,0
09.39.23.023811, 0.0145086,-0.0009934824,0,-4.593324,-116.1037,326.6876,47.50016,-122.2168,-0.662744,0,1.940598E-06,0
09.39.23.061813, 0.006359672,0.001384611,0,-4.599026,-116.1,326.6759,47.50016,-122.2168,-0.662756,0,0.0001034866,0
09.39.23.095815, 0.002371501,0.0007246354,0,-4.601201,-116.0981,326.6714,47.50016,-122.2168,-0.6627473,0,-5.552709E-05,0
09.39.23.128817, -0.005553961,0.001291031,0,-4.596217,-116.0963,326.6817,47.50016,-122.2168,-0.6627367,0,-8.990962E-05,0
09.39.23.172820, -0.008981504,0.002130691,0,-4.588297,-116.0933,326.6979,47.50016,-122.2168,-0.6626997,0,-0.000322377,0
09.39.23.237823, -0.01959251,0.003893093,0,-4.555245,-116.0861,326.7659,47.50016,-122.2168,-0.6627043,0,5.43131E-05,0
09.39.23.271825, -0.02596229,0.002472854,0,-4.532134,-116.0849,326.8134,47.50016,-122.2168,-0.6626831,0,-0.0001836252,0
09.39.23.305827, -0.0282968,0.00522396,0,-4.507185,-116.0784,326.8647,47.50016,-122.2168,-0.6626486,0,-0.0002810751,0
09.39.23.338829, -0.0335943,0.002884462,0,-4.477742,-116.0774,326.9252,47.50016,-122.2168,-0.6625612,0,-0.0007655089,0
09.39.23.377831, -0.03525563,0.006368871,0,-4.447211,-116.0697,326.9879,47.50016,-122.2168,-0.6625268,0,-0.0003053637,0
09.39.23.410833, -0.03980419,0.002444636,0,-4.411746,-116.0704,327.0609,47.50016,-122.2168,-0.6624322,0,-0.000797103,0
09.39.23.443835, -0.04066531,0.006675516,0,-4.376163,-116.0627,327.1341,47.50016,-122.2168,-0.6624076,0,-0.0002154142,0
09.39.23.493838, -0.04401242,0.002720047,0,-4.338022,-116.0632,327.2125,47.50016,-122.2168,-0.6623231,0,-0.0007488451,0
09.39.23.525840, -0.04400247,0.007640129,0,-4.295695,-116.053,327.2996,47.50016,-122.2168,-0.6622837,0,-0.0002976089,0
09.39.23.560842, -0.04646249,0.002709541,0,-4.25259,-116.0539,327.3882,47.50016,-122.2168,-0.6622291,0,-0.0004513744,0
09.39.23.594844, -0.04570812,0.006905222,0,-4.21083,-116.0459,327.4742,47.50016,-122.2168,-0.6622132,0,-0.0001338842,0
09.39.23.629846, -0.0471397,0.001815066,0,-4.168314,-116.0485,327.5616,47.50016,-122.2168,-0.6621181,0,-0.0007882537,0
09.39.23.663848, -0.04559714,0.006171368,0,-4.127558,-116.042,327.6455,47.50016,-122.2168,-0.6621,0,-0.0001558934,0
09.39.23.696849, -0.04594745,0.0020419,0,-4.0871,-116.0438,327.7288,47.50016,-122.2168,-0.6620834,0,-0.0001440024,0
09.39.23.729851, -0.0437134,0.006297648,0,-4.048897,-116.0369,327.8074,47.50016,-122.2168,-0.6621004,0,0.000166799,0
09.39.23.763853, -0.043168,0.002241145,0,-4.011664,-116.0378,327.884,47.50016,-122.2168,-0.6620508,0,-0.0004397692,0
09.39.23.805856, -0.04059075,0.005165134,0,-3.976807,-116.0327,327.9557,47.50016,-122.2168,-0.6620108,0,-0.0003577436,0
09.39.23.839858, -0.03942022,0.001143966,0,-3.941105,-116.0354,328.0292,47.50016,-122.2168,-0.6619129,0,-0.0008121117,0
09.39.23.877860, -0.03624294,0.005263129,0,-3.90864,-116.0292,328.096,47.50016,-122.2168,-0.6619,0,-0.0001100704,0
09.39.23.910862, -0.03442749,0.001384927,0,-3.877353,-116.0307,328.1605,47.50016,-122.2168,-0.6618861,0,-0.0001169907,0
09.39.23.943864, -0.03099955,0.004285208,0,-3.849764,-116.0258,328.2172,47.50016,-122.2168,-0.6618903,0,5.511878E-05,0
09.39.23.978866, -0.02872781,0.0008538875,0,-3.824663,-116.0276,328.2689,47.50016,-122.2168,-0.6618505,0,-0.0003500474,0
09.39.24.015868, -0.02530592,0.003639233,0,-3.802428,-116.0233,328.3147,47.50016,-122.2168,-0.6618302,0,-0.0001765757,0
09.39.24.048870, -0.02281735,0.0003969743,0,-3.782187,-116.0253,328.3564,47.50016,-122.2168,-0.6617629,0,-0.0005638499,0
09.39.24.087872, -0.01935233,0.003813821,0,-3.765316,-116.02,328.3911,47.50016,-122.2168,-0.6617795,0,0.0001461791,0
09.39.24.131874, -0.01659201,-0.0001294267,0,-3.750391,-116.0223,328.4218,47.50016,-122.2168,-0.6617402,0,-0.0003343557,0
09.39.24.164876, -0.01304923,0.002641963,0,-3.737962,-116.0182,328.4474,47.50016,-122.2168,-0.6617482,0,8.078036E-05,0
09.39.24.198878, -0.01024925,-0.001141492,0,-3.728496,-116.0219,328.4669,47.50016,-122.2168,-0.6617101,0,-0.0003158494,0
09.39.24.235880, -0.007031538,0.001651765,0,-3.722142,-116.0193,328.48,47.50016,-122.2168,-0.661708,0,-1.829764E-05,0
09.39.24.274883, -0.004228679,-0.001176448,0,-3.718287,-116.0223,328.4879,47.50016,-122.2168,-0.6616707,0,-0.000293539,0
09.39.24.305884, -0.001363946,0.00178994,0,-3.717022,-116.0186,328.4905,47.50016,-122.2168,-0.6617439,0,0.0006050409,0
09.39.24.338886, 0.001181185,-0.001781987,0,-3.718079,-116.0221,328.4883,47.50016,-122.2168,-0.6617205,0,-0.000201301,0
09.39.24.377888, 0.003397184,0.0007071246,0,-3.721066,-116.0203,328.4822,47.50016,-122.2168,-0.6617311,0,0.0001111146,0
09.39.24.410890, 0.005650256,-0.002046462,0,-3.72616,-116.0238,328.4717,47.50016,-122.2168,-0.6617052,0,-0.0002197442,0
09.39.24.455893, 0.007442175,0.0002145935,0,-3.732727,-116.0225,328.4582,47.50016,-122.2168,-0.661724,0,0.0001632759,0
09.39.24.492895, 0.009495328,-0.002055926,0,-3.741703,-116.0258,328.4397,47.50016,-122.2168,-0.6617112,0,-8.67597E-05,0
09.39.24.530897, 0.01086503,-0.000213665,0,-3.751909,-116.0249,328.4187,47.50016,-122.2168,-0.6617446,0,0.000272461,0
09.39.24.565899, 0.01251394,-0.002533697,0,-3.763717,-116.0287,328.3944,47.50016,-122.2168,-0.6617534,0,7.147509E-05,0
09.39.24.599901, 0.01342545,-0.0005128683,0,-3.776172,-116.0281,328.3687,47.50016,-122.2168,-0.6618072,0,0.0004636394,0
09.39.24.632903, 0.01462308,-0.002363472,0,-3.789467,-116.0312,328.3414,47.50016,-122.2168,-0.6618043,0,-2.505045E-05,0
