DateTime,PitchVelocityRadsPerS,RollVelocityRadsPerS,YawVelocityRadsPerS,PitchDegrees,RollDegrees,MagHeadingDegrees,LatitudeDegrees,LongitudeDegrees,ZAltitudeFtAgl,YVelocityNEDFrameMs,ZVelocityNEDFrameMs,XVelocityNEDFrameMs
11.49.06.608065, -0.001141719,0.003750975,0.4569402,-0.2897876,0.8619476,37.52041,47.50031,-122.2168,0.09267499,0.009107028,0.0001627209,-0.03551632
11.49.06.662068, -0.001262792,0.003699419,0.4590604,-0.3075766,0.8648245,38.52269,47.50031,-122.2168,0.0926389,0.008977419,0.0002887018,-0.0354867
11.49.06.697070, -0.00126829,0.004088511,0.459601,-0.3268624,0.868493,39.60612,47.50031,-122.2168,0.0926047,0.008834194,0.0001730989,-0.03544442
11.49.06.734072, -0.00143829,0.004321855,0.4614045,-0.3459601,0.8721869,40.65422,47.50031,-122.2168,0.0925821,0.00869712,0.0001737671,-0.03540702
11.49.06.771074, -0.001484365,0.00430632,0.4637941,-0.3649854,0.8754089,41.69011,47.50031,-122.2168,0.09267539,0.008574985,5.349284E-05,-0.03536507
11.49.06.806076, -0.001393665,0.004400803,0.4665983,-0.3837387,0.8784222,42.72015,47.50031,-122.2168,0.09263093,0.008450647,0.0002659689,-0.03532332
11.49.06.841078, -0.001488696,0.004531516,0.4700163,-0.4024277,0.88127,43.73381,47.50031,-122.2168,0.09256881,0.008331274,0.0005030138,-0.03529647
11.49.06.874080, -0.00135657,0.00431075,0.4738396,-0.4206397,0.883214,44.73555,47.50031,-122.2168,0.09268458,0.008229061,-0.0001292103,-0.03525479
11.49.06.938084, -0.001307527,0.004439808,0.4830928,-0.4560518,0.8864259,46.68783,47.50031,-122.2168,0.09270494,0.008008805,7.911581E-06,-0.03520687
11.49.07.003087, -0.001455254,0.004541403,0.4934948,-0.491169,0.8878725,48.59552,47.50031,-122.2168,0.09274897,0.007821104,-0.0002211117,-0.03517742
11.49.07.037089, -0.001536895,0.004528929,0.4986337,-0.5089049,0.8882388,49.55401,47.50031,-122.2168,0.09270006,0.007735047,0.0004443695,-0.03518491
11.49.07.070091, -0.001582779,0.005089425,0.5035197,-0.5268961,0.889301,50.52293,47.50031,-122.2168,0.09268151,0.00764568,0.0001683451,-0.03517813
11.49.07.109093, -0.00163211,0.004881047,0.5082363,-0.5451598,0.8895721,51.50216,47.50031,-122.2168,0.09270976,0.007574819,-0.0001793135,-0.03518052
11.49.07.146095, -0.001718583,0.004818308,0.5121634,-0.5643793,0.8893228,52.52481,47.50031,-122.2168,0.09269159,0.007488664,0.000158923,-0.03517558
11.49.07.179097, -0.001749956,0.005104743,0.5157817,-0.5840607,0.8892257,53.57051,47.50031,-122.2168,0.0926552,0.007391679,0.0003134227,-0.0351452
11.49.07.214099, -0.001747033,0.005352956,0.519697,-0.6035836,0.8891921,54.60974,47.50031,-122.2168,0.09277248,0.007295097,-7.602048E-05,-0.03510195
11.49.07.247101, -0.00164249,0.005526972,0.5237336,-0.6229262,0.8890662,55.65212,47.50031,-122.2168,0.09274122,0.0071915,0.0002743659,-0.03506438
11.49.07.281103, -0.001690336,0.005690871,0.5279061,-0.6423057,0.8888258,56.69307,47.50031,-122.2168,0.09272717,0.007086037,0.0001244413,-0.03502612
11.49.07.319105, -0.001733704,0.005837556,0.5321418,-0.6617802,0.8884298,57.73641,47.50031,-122.2168,0.0927242,0.006980625,9.881466E-05,-0.03498907
11.49.07.353107, -0.001615323,0.005586379,0.5357689,-0.6816645,0.887061,58.81657,47.50031,-122.2168,0.09273776,0.006879491,-0.0001173864,-0.03493907
11.49.07.388109, -0.001567818,0.005453646,0.5396026,-0.7014005,0.884972,59.89669,47.50031,-122.2168,0.09270796,0.006762048,0.000259959,-0.03487885
11.49.07.422111, -0.001445041,0.00568744,0.5434352,-0.7209193,0.8828881,60.98197,47.50031,-122.2168,0.09273838,0.006637586,-0.0001979581,-0.03479335
11.49.07.455113, -0.001516208,0.005340251,0.5474295,-0.7405465,0.8796586,62.06899,47.50031,-122.2168,0.09269874,0.006515137,0.0003487396,-0.03473338
11.49.07.489115, -0.001435558,0.005224873,0.5515172,-0.759894,0.8757584,63.15413,47.50031,-122.2168,0.09269569,0.006394749,2.700239E-05,-0.034637
11.49.07.523117, -0.007147276,0.04091723,0.1687247,-0.7790347,0.9519244,63.48636,47.50031,-122.2168,0.2046373,0.04253133,-0.9916669,-0.120074
11.49.07.569120, 0.02416721,0.05344474,-0.08931474,-0.7289717,1.058594,63.31242,47.50031,-122.2168,0.3505342,0.06518159,-1.304507,-0.1844849
11.49.07.611122, 0.04283269,0.05076344,-0.3341494,-0.6247178,1.175483,62.60272,47.50031,-122.2168,0.5344985,0.08508045,-1.509935,-0.2468878
11.49.07.644124, 0.05884564,0.03800408,-0.5560485,-0.4698097,1.272283,61.37912,47.50031,-122.2168,0.7406761,0.1027159,-1.632511,-0.3060064
11.49.07.682126, 0.0717498,0.02368141,-0.741483,-0.2831012,1.334728,59.81308,47.50031,-122.2168,0.9464837,0.1179765,-1.696861,-0.3586284
11.49.07.722128, 0.08353954,0.008533721,-0.9079372,-0.05936243,1.361761,57.87651,47.50031,-122.2168,1.15893,0.1322989,-1.735147,-0.4084578
11.49.07.760131, 0.09482184,-0.007346813,-1.059513,0.2016944,1.347071,55.57497,47.50031,-122.2168,1.377838,0.1460744,-1.75488,-0.4559725
11.49.07.800133, 0.1055436,-0.02350716,-1.193927,0.4910308,1.285672,52.99093,47.50031,-122.2168,1.596695,0.159051,-1.760797,-0.5002205
11.49.07.838135, 0.1151679,-0.04032191,-1.316913,0.8090881,1.170427,50.0942,47.50031,-122.2168,1.818733,0.171818,-1.757157,-0.5420808
11.49.07.873137, 0.1243767,-0.057127,-1.426789,1.145172,0.9989762,46.96239,47.5003,-122.2168,2.038932,0.1836641,-1.746741,-0.5810232
11.49.07.908139, 0.1311531,-0.07802506,-1.522994,1.483539,0.7634144,43.67862,47.5003,-122.2168,2.25339,0.1947837,-1.732346,-0.6154627
11.49.07.942141, 0.1374455,-0.0987931,-1.60757,1.81729,0.4648528,40.27556,47.5003,-122.2168,2.46181,0.2044885,-1.715503,-0.6468768
11.49.07.975143, 0.1437062,-0.1183652,-1.68159,2.139349,0.1089808,36.79691,47.5003,-122.2168,2.663256,0.2126268,-1.69753,-0.6753213
11.49.08.008145, 0.1483807,-0.1353016,-1.746858,2.442207,-0.2969255,33.25948,47.5003,-122.2168,2.858302,0.2199022,-1.679225,-0.7008376
11.49.08.044147, 0.1529054,-0.1506648,-1.805153,2.722647,-0.7486789,29.66719,47.5003,-122.2168,3.047695,0.2254088,-1.661116,-0.7239764
11.49.08.080149, 0.1576538,-0.164847,-1.860595,2.98446,-1.255591,25.92476,47.5003,-122.2168,3.237007,0.2291945,-1.643004,-0.7455514
11.49.08.138152, 0.1610375,-0.1699593,-1.958373,3.401099,-2.333062,18.24627,47.5003,-122.2168,3.603943,0.235318,-1.607775,-0.7837195
11.49.08.176154, 0.1622295,-0.17031,-1.998517,3.545094,-2.869822,14.48921,47.5003,-122.2168,3.775129,0.2353174,-1.591976,-0.7996824
11.49.08.209156, 0.160515,-0.1539943,-2.041254,3.649965,-3.410252,10.49214,47.5003,-122.2168,3.951538,0.237009,-1.575461,-0.8158976
11.49.08.275160, 0.1546121,-0.1152376,-2.120848,3.715058,-4.39346,2.37496,47.5003,-122.2168,4.294497,0.2350204,-1.544967,-0.844459
11.49.08.314162, 0.148312,-0.07951598,-2.15956,3.67202,-4.80288,358.2266,47.5003,-122.2168,4.462739,0.2358249,-1.529922,-0.8576409
11.49.08.348164, 0.1402877,-0.03986198,-2.201845,3.572852,-5.149755,353.828,47.5003,-122.2168,4.635985,0.2356073,-1.515036,-0.8703523
11.49.08.382166, 0.1309576,-0.001671522,-2.244047,3.421452,-5.415709,349.3609,47.5003,-122.2168,4.807109,0.2348801,-1.500552,-0.8820423
11.49.08.440169, 0.1050463,0.1243234,-2.326801,2.975876,-5.543431,340.3257,47.5003,-122.2168,5.139698,0.2453002,-1.472074,-0.9015815
11.49.08.478172, 0.09015645,0.1826499,-2.363505,2.714299,-5.417812,336.0021,47.5003,-122.2168,5.293131,0.251444,-1.459743,-0.9082491
11.49.08.537175, 0.05257421,0.3419409,-2.44356,2.101853,-4.662125,326.9755,47.5003,-122.2168,5.602135,0.2795901,-1.436213,-0.9134123
11.49.08.572177, 0.0305796,0.4157939,-2.483393,1.783584,-4.055745,322.4598,47.5003,-122.2168,5.751455,0.2967882,-1.425956,-0.9110386
11.49.08.635181, -0.02109964,0.5860423,-2.570258,1.13965,-2.267001,312.9634,47.5003,-122.2168,6.054512,0.347877,-1.40756,-0.8903498
11.49.08.703184, -0.08177213,0.7320495,-2.657894,0.6006357,0.1516733,303.2376,47.5003,-122.2168,6.350993,0.4111881,-1.392333,-0.8446578
11.49.08.769188, -0.1502912,0.850431,-2.74963,0.2548061,3.157812,292.9465,47.5003,-122.2168,6.650809,0.4870598,-1.378559,-0.7638773
11.49.08.809191, -0.1860099,0.8625296,-2.695338,0.1828436,4.756577,287.8282,47.5003,-122.2168,6.800582,0.510392,-1.373273,-0.7284755
11.49.08.844193, -0.2217093,0.8666293,-2.647791,0.1786846,6.444904,282.5386,47.5003,-122.2168,6.957355,0.5381749,-1.367281,-0.6796151
11.49.08.907196, -0.2843321,0.8254725,-2.454692,0.3809696,9.687788,272.5217,47.50029,-122.2168,7.265103,0.5828276,-1.357198,-0.5747494
11.49.08.972200, -0.325608,0.7467839,-2.194969,0.7395177,12.46793,263.872,47.50029,-122.2168,7.560083,0.6152135,-1.345566,-0.4546971
11.49.09.006202, -0.3369417,0.6152834,-1.794421,0.848394,13.56704,260.4146,47.50029,-122.2168,7.707794,0.6125939,-1.354756,-0.460395
11.49.09.075206, -0.3329559,0.3233923,-1.130907,0.7874699,14.96776,255.3466,47.50029,-122.2168,8.0049,0.6151617,-1.356758,-0.4264555
11.49.09.115208, -0.3213703,0.1159159,-0.6975054,0.5329221,15.16945,253.8677,47.50029,-122.2168,8.157743,0.613097,-1.360972,-0.4376023
11.49.09.151210, -0.3052028,-0.08711182,-0.2946644,0.08939026,14.9845,253.1209,47.50029,-122.2168,8.317419,0.609974,-1.360505,-0.4374179
11.49.09.187212, -0.28777,-0.2637038,0.05812168,-0.5086334,14.44704,253.0784,47.50029,-122.2168,8.476457,0.6042204,-1.354832,-0.4281608
11.49.09.223214, -0.2722014,-0.4953224,0.4938269,-1.301513,13.42325,253.9126,47.50029,-122.2168,8.635902,0.5930474,-1.35153,-0.4568713
11.49.09.256216, -0.2643084,-0.7034512,0.8530933,-2.233117,11.9422,255.4789,47.50029,-122.2168,8.793999,0.5771282,-1.342089,-0.4741674
11.49.09.290218, -0.2648488,-0.8741152,1.118525,-3.218815,10.09381,257.5648,47.50029,-122.2168,8.947382,0.5565646,-1.324889,-0.4789898
11.49.09.326220, -0.2733038,-1.016769,1.345232,-4.220254,7.917619,260.1025,47.50029,-122.2168,9.096881,0.5301648,-1.3056,-0.4847128
11.49.09.362222, -0.2892096,-1.138263,1.554815,-5.220154,5.397133,263.1194,47.50029,-122.2168,9.245312,0.4963569,-1.283941,-0.496858
11.49.09.432226, -0.3379453,-1.321636,1.932492,-6.989899,-0.4390884,270.3705,47.50029,-122.2168,9.531631,0.4038884,-1.23873,-0.547019
11.49.09.468228, -0.3696218,-1.389359,2.111021,-7.689773,-3.79506,274.7068,47.50029,-122.2168,9.673675,0.3407077,-1.213065,-0.5873867
11.49.09.503230, -0.3993616,-1.442369,2.281698,-8.16843,-7.355642,279.4437,47.50029,-122.2168,9.812371,0.2672024,-1.183483,-0.6387886
11.49.09.539232, -0.4321,-1.482344,2.444592,-8.372069,-11.05785,284.5291,47.50029,-122.2168,9.946383,0.1790938,-1.149771,-0.6989674
11.49.09.574234, -0.4685735,-1.512853,2.601424,-8.256704,-14.88567,289.9765,47.50029,-122.2168,10.07642,0.07471495,-1.109685,-0.7670246
11.49.09.609236, -0.5030397,-1.459297,2.749952,-7.77378,-18.5792,295.6683,47.50029,-122.2168,10.20051,-0.03544113,-1.069574,-0.8299766
11.49.09.641238, -0.5327125,-1.390546,2.893099,-6.893576,-22.09228,301.6075,47.50029,-122.2168,10.31893,-0.1620036,-1.019765,-0.8979196
11.49.09.706242, -0.5752863,-1.088601,3.154752,-3.999173,-27.86175,313.6524,47.50029,-122.2168,10.53049,-0.4276696,-0.9204457,-1.015826
11.49.09.770246, -0.5545523,-0.6019916,3.400017,0.3084001,-30.92301,325.9711,47.50029,-122.2168,10.71481,-0.7062825,-0.8080565,-1.110679
11.49.09.830249, -0.4753822,-0.1030227,3.632173,5.57288,-31.02089,338.3961,47.50029,-122.2168,10.8692,-0.9826199,-0.6968255,-1.184556
11.49.09.893253, -0.3461286,0.3053114,3.841188,11.26685,-28.31184,351.1371,47.50029,-122.2168,10.99557,-1.250203,-0.5845712,-1.242894
11.49.09.960256, -0.1817164,0.6322906,4.050389,16.96582,-22.85734,4.923006,47.50029,-122.2168,11.09982,-1.505015,-0.4818811,-1.298721
11.49.10.023260, -0.002140033,0.893981,4.2652,22.03967,-14.52061,20.48044,47.50029,-122.2168,11.18561,-1.742095,-0.3930625,-1.362952
11.49.10.063262, 0.08331194,1.000709,4.37417,23.97884,-9.383854,28.9014,47.50029,-122.2168,11.22179,-1.850589,-0.353123,-1.402791
11.49.10.129266, 0.2428294,1.176312,4.614008,26.07057,3.185376,48.11296,47.50029,-122.2168,11.28422,-2.057912,-0.2702336,-1.511444
11.49.10.164268, 0.3254277,1.236164,4.740556,25.83393,9.987247,58.27501,47.50029,-122.2168,11.30684,-2.154757,-0.214777,-1.583139
11.49.10.227272, 0.4243199,1.325101,4.853489,22.38084,23.20435,78.34535,47.50029,-122.2168,11.33132,-2.319224,-0.0846438,-1.797423
11.49.10.264274, 0.4699055,1.329975,4.935562,19.25204,29.02165,87.84061,47.50029,-122.2168,11.32875,-2.404664,0.01259707,-1.910644
11.49.10.299276, 0.5000233,1.2842,4.822249,15.35348,34.11169,96.85643,47.50028,-122.2168,11.31274,-2.499586,0.1331619,-2.071275
11.49.10.335278, 0.516302,1.203633,4.752577,10.82005,38.30553,105.3374,47.50028,-122.2168,11.27982,-2.603286,0.280516,-2.224984
11.49.10.374280, 0.5203216,1.105989,4.72346,5.720424,41.5826,113.4377,47.50028,-122.2168,11.22712,-2.715002,0.4509884,-2.369542
11.49.10.409282, 0.5079414,0.8266628,4.418964,0.4538093,43.5987,120.9475,47.50028,-122.2168,11.15405,-2.870769,0.6092942,-2.549904
11.49.10.444284, 0.4608548,0.4825609,4.197803,-4.743718,44.25351,127.8335,47.50028,-122.2168,11.06162,-3.024928,0.7806649,-2.707429
11.49.10.476286, 0.3800357,0.1289723,4.058056,-9.889829,43.62741,134.3871,47.50028,-122.2168,10.94938,-3.175327,0.9537968,-2.848188
11.49.10.542290, 0.1692519,-0.4241643,3.479445,-18.79744,39.54679,145.9615,47.50028,-122.2168,10.66458,-3.536019,1.334174,-3.116596
11.49.10.605293, -0.04412555,-0.8400152,3.038326,-26.09657,32.65943,156.4546,47.50027,-122.2168,10.3136,-3.885822,1.630256,-3.362576
11.49.10.669297, -0.2086932,-1.108867,2.668962,-31.73738,23.92487,166.379,47.50027,-122.2168,9.922208,-4.211855,1.846752,-3.617546
11.49.10.726300, -0.2731157,-1.269387,2.329554,-35.74133,13.9678,176.0379,47.50027,-122.2169,9.504817,-4.519948,1.964546,-3.898101
11.49.10.784304, -0.2882386,-1.345022,2.017843,-38.00606,4.19113,184.659,47.50027,-122.2169,9.095289,-4.761857,2.068306,-4.184074
11.49.10.835306, -0.2479504,-1.387072,1.71288,-38.9564,-5.197236,192.2696,47.50027,-122.2169,8.682067,-4.960127,2.135636,-4.490778
11.49.10.893310, -0.1625153,-1.412732,1.415887,-38.87676,-13.69516,198.4918,47.50026,-122.2169,8.268237,-5.10452,2.205386,-4.800643
11.49.10.952313, -0.02274568,-1.427052,1.122621,-37.97739,-21.29167,203.2702,47.50026,-122.2169,7.843353,-5.204528,2.282244,-5.120766
11.49.11.016317, 0.1383597,-1.521726,1.499967,-35.96156,-29.07714,207.8741,47.50026,-122.2169,7.374108,-5.130645,2.442913,-5.539046
11.49.11.069320, 0.2604036,-1.678072,2.462584,-31.18601,-38.67817,215.0454,47.50026,-122.2169,6.855449,-4.905221,2.695691,-6.038253
11.49.11.129323, 0.3271693,-1.499486,3.191166,-23.6973,-47.43741,222.7078,47.50025,-122.2169,6.301511,-4.737989,2.942057,-6.499804
11.49.11.194327, 0.377962,-1.112776,3.727068,-13.53364,-54.07423,230.0792,47.50025,-122.2169,5.688197,-4.590192,3.183249,-6.957083
11.49.11.263331, 0.4719505,-0.5465739,4.064303,-1.020424,-57.4793,236.9529,47.50024,-122.2169,5.003337,-4.453565,3.423162,-7.388312
11.49.11.300333, 0.5357492,-0.2760004,4.166602,6.054421,-57.91385,240.3451,47.50024,-122.2169,4.621335,-4.39046,3.56779,-7.578525
11.49.11.367337, 0.7058177,0.2074768,4.23438,21.1035,-56.11874,247.3303,47.50024,-122.2169,3.787187,-4.222234,3.846403,-7.944673
11.49.11.422340, 0.8852541,0.6063402,4.173695,35.66834,-50.78616,255.0974,47.50023,-122.2169,2.918903,-4.002873,4.103013,-8.272622
11.49.11.473343, 1.079635,0.9115437,4.085112,48.62363,-41.57574,264.9616,47.50023,-122.2169,2.062814,-3.722742,4.335454,-8.5937
11.49.11.522346, -1.208505,0.9389314,1.325359,53.7457,-29.74136,276.1031,47.50023,-122.2169,1.360142,-3.221948,3.210471,-8.71466
11.49.11.582349, -4.883751,1.69735,-2.07902,40.21654,-23.18925,278.5623,47.50022,-122.2169,1.00178,-2.721033,1.736902,-8.695874
11.49.11.646353, -4.813289,1.899133,-1.882016,22.69776,-17.53925,278.312,47.50022,-122.2169,0.6968297,-2.451417,1.557213,-8.953318
11.49.11.705356, -2.366119,2.061388,-1.453593,11.44672,-11.44131,275.884,47.50021,-122.2169,0.3468226,-2.378226,1.853592,-8.948908
11.49.11.767360, -2.124795,2.544494,-1.158439,3.435928,-3.808805,272.9279,47.50021,-122.2169,0.02547248,-2.237569,1.471552,-8.818539
11.49.11.825363, -1.287069,0.6481257,-0.8005947,-1.713471,-1.064982,270.1394,47.5002,-122.2169,0.09238914,-1.98989,-0.6170666,-8.272759
11.49.11.887367, -1.020833,0.9145152,-0.6016195,-5.368112,1.839578,267.914,47.5002,-122.2169,0.2937963,-1.955,-1.244916,-8.142463
11.49.11.924369, -0.9745387,1.083833,-0.49903,-7.027319,3.804602,266.9735,47.50019,-122.2169,0.4498879,-1.992851,-1.584389,-8.030003
11.49.11.961371, -0.9548636,1.232432,-0.3886968,-8.721465,6.161485,266.1233,47.50019,-122.2169,0.6475103,-2.056846,-1.896163,-7.887882
11.49.12.022374, -0.9282606,1.29667,-0.1645099,-12.09662,11.33565,264.7947,47.50019,-122.2169,1.130758,-2.219119,-2.343159,-7.577974
11.49.12.085378, -0.885292,1.004637,0.03734275,-15.30066,15.49318,263.9888,47.50018,-122.2169,1.679155,-2.414505,-2.702435,-7.255888
11.49.12.145381, -0.7991425,0.5159573,0.2160196,-18.37433,17.92656,263.715,47.50018,-122.2169,2.286022,-2.617824,-2.943708,-6.940399
11.49.12.209385, -0.712702,0.05566696,0.3621863,-21.19533,18.43604,263.992,47.50018,-122.2169,2.906171,-2.831325,-3.10786,-6.628217
11.49.12.269388, -0.6282877,-0.3507722,0.4903084,-23.92064,17.18272,264.8757,47.50017,-122.2169,3.555996,-3.055722,-3.175686,-6.332471
11.49.12.333392, -0.5289306,-0.6549621,0.6023601,-26.40247,14.43748,266.4102,47.50017,-122.2169,4.202894,-3.269489,-3.151948,-6.07703
11.49.12.390395, -0.4338338,-0.8691277,0.7015157,-28.52963,10.53237,268.5941,47.50017,-122.2169,4.819542,-3.465825,-3.019719,-5.880456
11.49.12.446399, -0.3492582,-1.026716,0.7885166,-30.18966,5.812859,271.3179,47.50016,-122.2169,5.378531,-3.64611,-2.816509,-5.738719
11.49.12.503402, -0.2700377,-1.152574,0.8680593,-31.36848,0.4050766,274.5264,47.50016,-122.2169,5.879012,-3.809663,-2.559088,-5.642678
11.49.12.568406, -0.1893313,-1.257519,0.9462106,-31.98614,-5.694076,278.218,47.50016,-122.2169,6.324391,-3.959957,-2.244332,-5.583833
11.49.12.621409, -0.1106661,-1.355069,1.022773,-31.95443,-12.32468,282.2533,47.50015,-122.2169,6.701256,-4.094081,-1.879028,-5.55788
11.49.12.677412, -0.04660372,-1.441887,1.094725,-31.25592,-19.17464,286.3725,47.50015,-122.2169,6.995252,-4.212956,-1.47659,-5.555037
11.49.12.736415, 0.0203185,-1.517279,1.160244,-29.89066,-26.06808,290.3949,47.50015,-122.2169,7.204552,-4.308684,-1.045312,-5.572958
11.49.12.795419, 0.08654524,-1.496909,1.227693,-27.76364,-33.0809,294.3712,47.50014,-122.2169,7.337709,-4.426085,-0.6363983,-5.58309
11.49.12.861422, 0.160538,-1.269433,1.289403,-24.95424,-39.07338,297.9659,47.50014,-122.2169,7.397152,-4.541791,-0.2329785,-5.594746
11.49.12.921426, 0.2541921,-0.7441689,1.352575,-21.28067,-43.47017,301.3195,47.50014,-122.217,7.386712,-4.709261,0.1189643,-5.612403
11.49.12.981429, 0.3696769,-0.2723903,1.409859,-16.98244,-45.78925,304.1961,47.50014,-122.217,7.297168,-4.85419,0.5179934,-5.650091
11.49.13.040433, 0.4883528,0.1255951,1.453013,-12.30129,-46.32533,306.6212,47.50013,-122.217,7.134655,-4.999969,0.8891191,-5.694707
11.49.13.102436, 0.605328,0.471473,1.485241,-7.209837,-45.3851,308.7873,47.50013,-122.217,6.902695,-5.158809,1.220737,-5.749664
11.49.13.158439, 0.7148186,0.7622253,1.505552,-1.89769,-43.21938,310.8155,47.50013,-122.217,6.616888,-5.33299,1.48701,-5.826127
11.49.13.220443, 0.8095924,1.007122,1.512599,3.569402,-40.01743,312.8357,47.50012,-122.217,6.291948,-5.528034,1.67073,-5.928002
11.49.13.279446, 0.8806329,1.206108,1.508319,9.144337,-35.85412,315.0572,47.50012,-122.217,5.939681,-5.731231,1.772203,-6.062881
11.49.13.315448, 0.903191,1.288895,1.501835,11.90368,-33.46058,316.2788,47.50012,-122.217,5.760601,-5.833579,1.78447,-6.143171
11.49.13.377452, 0.9412021,1.423831,1.48551,17.57547,-27.80216,319.1797,47.50011,-122.217,5.387846,-6.019928,1.754671,-6.343587
11.49.13.437455, 0.9113479,1.512705,1.463205,22.83298,-21.32204,322.7049,47.50011,-122.217,5.039146,-6.172344,1.615051,-6.581733
11.49.13.476457, 0.888109,1.540246,1.452194,25.20249,-17.83611,324.7137,47.50011,-122.217,4.879592,-6.217523,1.53285,-6.71242
11.49.13.536461, 0.765213,1.569364,1.435741,29.4445,-9.881057,329.6072,47.50011,-122.217,4.584066,-6.260732,1.278599,-7.014375
11.49.13.597464, 0.6189986,1.570866,1.430554,32.44048,-1.343398,335.2393,47.5001,-122.217,4.347724,-6.19862,1.014706,-7.341151
11.49.13.658468, 0.4653038,1.56049,1.441315,34.06752,7.507519,341.3407,47.5001,-122.217,4.169635,-6.035544,0.7614797,-7.68576
11.49.13.724472, 0.3204195,1.547764,1.473122,34.34475,16.62454,347.7586,47.50009,-122.217,4.027885,-5.772888,0.5405414,-8.052201
11.49.13.760474, 0.2516365,1.541834,1.498601,33.95831,21.28392,351.0508,47.50009,-122.217,3.967406,-5.602805,0.4462191,-8.245899
11.49.13.794476, 0.187591,1.473845,1.52983,33.19072,25.94061,354.4126,47.50009,-122.217,3.911532,-5.422589,0.3846781,-8.437305
11.49.13.831478, 0.1227718,1.388259,1.565316,32.05441,30.34697,357.674,47.50009,-122.217,3.86116,-5.22148,0.3353726,-8.633657
11.49.13.893481, 0.002279388,0.993187,1.6489,28.69386,37.93402,3.834568,47.50008,-122.217,3.765587,-4.828346,0.3235278,-9.001564
11.49.13.958485, -0.1430117,0.3011913,1.718234,24.3236,42.04214,9.00399,47.50008,-122.217,3.667022,-4.46337,0.3642358,-9.334919
11.49.14.025489, -0.3159221,-0.3147983,1.764319,19.14613,43.08282,13.40327,47.50007,-122.217,3.559574,-4.08051,0.4166814,-9.659642
11.49.14.060491, -0.4129733,-0.5803563,1.800299,16.22102,42.62354,15.44937,47.50006,-122.217,3.501645,-3.88635,0.4333197,-9.82246
11.49.14.094493, -0.5153282,-0.8143843,1.848672,13.07699,41.59348,17.44644,47.50006,-122.217,3.442997,-3.692028,0.4344534,-9.982875
11.49.14.159497, -0.7308967,-1.18953,1.978897,6.2343,38.12129,21.44057,47.50006,-122.217,3.335642,-3.297873,0.357975,-10.28342
11.49.14.223500, -0.956621,-1.459937,2.140428,-1.277897,33.12433,25.7715,47.50005,-122.217,3.26671,-2.868248,0.1329069,-10.53774
11.49.14.295504, -1.187768,-1.649663,2.317771,-9.34013,26.78551,30.8893,47.50005,-122.217,3.272148,-2.369533,-0.2653456,-10.71361
11.49.14.360508, -1.427217,-1.772576,2.462093,-18.10654,18.62208,37.53838,47.50004,-122.217,3.398753,-1.740087,-0.8615562,-10.78497
11.49.14.421512, -1.624021,-1.834283,2.613207,-26.51592,8.696925,46.10358,47.50003,-122.217,3.675025,-1.012997,-1.572944,-10.67818
11.49.14.458514, -1.691541,-1.844094,2.688152,-30.27755,2.967182,51.29888,47.50003,-122.217,3.869756,-0.621524,-1.944747,-10.55187
11.49.14.518517, -1.771668,-1.836581,2.837877,-36.55061,-10.93357,64.44217,47.50002,-122.217,4.394903,0.2515277,-2.685849,-10.13385
11.49.14.575520, -1.76626,-1.824092,2.974357,-39.53201,-26.67574,79.76972,47.50002,-122.217,5.029294,1.144683,-3.27422,-9.550217
11.49.14.629523, -1.667042,-1.823265,3.103853,-38.65392,-42.57661,95.33111,47.50001,-122.217,5.727969,2.025827,-3.662477,-8.860788
11.49.14.688527, -1.543816,-1.840171,3.237887,-34.25286,-56.4902,108.8131,47.50001,-122.217,6.439609,2.886821,-3.827919,-8.134243
11.49.14.749530, -1.385556,-1.847796,3.370219,-26.78209,-68.19586,119.8945,47.5,-122.217,7.167707,3.753384,-3.772315,-7.397432
11.49.14.787532, -1.304199,-1.849048,3.433302,-22.11901,-73.11617,124.3998,47.5,-122.217,7.522515,4.168674,-3.654096,-7.053856
11.49.14.828535, -1.223117,-1.629379,3.488558,-16.62704,-77.34825,128.5029,47.5,-122.217,7.884007,4.499222,-3.467321,-6.801381
11.49.14.874537, -1.115871,-1.264829,3.554012,-10.31135,-80.54831,132.1497,47.5,-122.217,8.242697,4.84322,-3.242903,-6.55672
11.49.14.920540, -0.992213,-0.8926479,3.626794,-3.020701,-82.69962,135.4544,47.5,-122.217,8.599262,5.177889,-2.958579,-6.34206
11.49.14.973543, -0.8549364,-0.5558592,3.700034,5.006974,-83.76067,138.3822,47.49999,-122.217,8.933834,5.487522,-2.629761,-6.162629
11.49.15.013545, -0.7486376,-0.26775,3.764105,13.81922,-83.79378,141.1883,47.49999,-122.217,9.23991,5.718674,-2.256824,-6.063979
11.49.15.056548, -0.6389071,-0.01998447,3.816636,22.67218,-82.87218,143.8369,47.49999,-122.217,9.493575,5.901609,-1.897321,-5.992841
11.49.15.095550, -0.5171131,0.1984331,3.868074,31.69299,-81.01582,146.5766,47.49999,-122.217,9.699905,6.050549,-1.541752,-5.932161
11.49.15.131552, -0.4314663,0.3864375,3.900155,40.60539,-78.1146,149.7421,47.49998,-122.217,9.858334,6.132219,-1.206581,-5.905097
11.49.15.186555, -0.2367922,0.7152336,3.922592,56.86599,-68.37563,158.6788,47.49998,-122.217,10.03986,6.312215,-0.6043763,-5.770351
11.49.15.235558, -0.1127101,0.9643538,3.917171,69.58083,-48.80519,176.7512,47.49998,-122.217,10.08571,6.498377,-0.1105684,-5.594573
11.49.15.281561, 0.004663346,1.14549,3.918335,76.19777,-6.849134,217.9999,47.49997,-122.217,10.0438,6.767692,0.3165529,-5.341529
11.49.15.325563, 0.07822564,1.272722,3.919682,73.03829,39.40813,262.3904,47.49997,-122.217,9.944003,7.075178,0.6740609,-5.039352
11.49.15.385567, 0.1444343,1.355846,3.911411,64.22227,63.18881,282.9488,47.49997,-122.217,9.788672,7.415204,1.024978,-4.669309
11.49.15.434569, 0.2007282,1.400947,3.906313,53.31285,75.59985,292.0522,47.49997,-122.217,9.565716,7.772396,1.409672,-4.231514
11.49.15.487573, 0.2449461,1.382762,3.919397,41.87445,83.17267,296.3729,47.49997,-122.217,9.274776,8.093208,1.840137,-3.794976
11.49.15.544576, 0.2759425,1.299303,3.957115,30.2641,88.42329,298.5015,47.49997,-122.217,8.909945,8.359819,2.322227,-3.404127
11.49.15.604579, 0.3049814,1.007283,4.012295,17.47681,92.44084,299.4972,47.49996,-122.217,8.42052,8.587794,2.855337,-3.080429
11.49.15.662583, 0.2849548,0.4561745,4.051431,4.338924,94.37576,299.6445,47.49996,-122.217,7.823587,8.761889,3.407363,-2.827307
11.49.15.730586, 0.1997038,-0.08718343,4.140707,-9.358065,94.50277,299.1983,47.49996,-122.217,7.10271,8.884528,3.980624,-2.630624
11.49.15.792590, 0.04548579,-0.5910531,4.28234,-24.4326,93.06628,298.2036,47.49996,-122.2169,6.210001,8.971782,4.577347,-2.454302
11.49.15.850593, -0.1784801,-1.019307,4.417418,-40.0217,90.56395,296.6469,47.49996,-122.2169,5.19669,9.053388,5.156529,-2.26185
11.49.15.908597, -0.434924,-1.365978,4.552821,-55.55701,87.74454,294.3091,47.49996,-122.2169,4.11222,9.153857,5.692574,-2.017353
11.49.15.965600, -0.6992806,-1.628628,4.687155,-71.49445,85.86821,289.8224,47.49995,-122.2169,2.935914,9.272441,6.223282,-1.679206
11.49.16.007602, -0.9024049,-1.796973,4.805087,-86.84191,103.5553,258.4566,47.49995,-122.2169,1.730599,9.403227,6.734563,-1.252767
11.49.16.054605, -1.919769,-1.890078,4.885873,-77.85549,-117.7505,125.9972,47.49995,-122.2169,0.559897,9.468031,7.246286,-0.8820277
11.49.16.099608, -2.172329,-1.868773,4.909583,-63.12302,-119.5258,121.6074,47.49995,-122.2169,-0.5993027,9.284941,7.324744,-0.904575
11.49.19.181784, 0,0,0,0,0,0,47.5003,-122.2168,0,0,0,0
11.49.19.229787, 0.0445286,0.1508346,-0.3903416,1.486811,0.5271543,154.3758,47.5003,-122.2168,0.1607342,-0.09877278,-1.388679,0.02756547
11.49.19.274789, 0.1929765,0.4081367,-0.6668921,1.926225,1.390597,152.9032,47.5003,-122.2168,0.3648265,-0.210286,-1.614771,0.06990375
11.49.19.319792, 0.3134711,0.6603787,-0.9483352,2.698427,2.8356,150.7339,47.5003,-122.2168,0.5971562,-0.3363436,-1.767372,0.1125646
11.49.19.368795, 0.419171,0.8716829,-1.206635,3.826713,4.76251,147.9193,47.5003,-122.2168,0.8445954,-0.464646,-1.831111,0.1495759
11.49.19.415797, 0.3748228,0.7151812,-1.44505,5.042723,6.293227,144.405,47.5003,-122.2168,1.10921,-0.5379723,-1.868477,0.1466844
11.49.19.463800, 0.3014818,0.3369835,-1.672083,6.248894,6.765033,140.2571,47.5003,-122.2168,1.379722,-0.6166705,-1.875567,0.143223
11.49.19.506802, 0.2698218,0.1804886,-1.879408,7.489833,6.688884,135.4697,47.5003,-122.2168,1.652019,-0.7153167,-1.848274,0.1490518
11.49.19.547805, 0.2492208,0.08303583,-2.060982,8.702536,6.195952,130.2486,47.5003,-122.2168,1.915456,-0.8086644,-1.809373,0.1564656
11.49.19.588807, 0.2350408,0.006990296,-2.218129,9.846919,5.348049,124.6923,47.5003,-122.2168,2.167421,-0.8967622,-1.763293,0.1656617
11.49.19.623809, 0.2195847,-0.1505866,-2.351344,10.87506,3.956358,118.8567,47.5003,-122.2168,2.408124,-0.9649843,-1.71384,0.185297
11.49.19.658811, 0.2118424,-0.2950789,-2.458912,11.7142,2.141722,112.9955,47.5003,-122.2168,2.631179,-1.028602,-1.666577,0.208278
11.49.19.692813, 0.2116922,-0.4212389,-2.547796,12.34881,-0.01625424,107.1004,47.5003,-122.2168,2.839839,-1.08682,-1.617137,0.2357965
11.49.19.725815, 0.2110479,-0.5722685,-2.622069,12.7453,-2.518867,101.2245,47.5003,-122.2168,3.03529,-1.133178,-1.572267,0.2745125
11.49.19.759817, 0.2163754,-0.7104049,-2.685718,12.88935,-5.299033,95.37269,47.5003,-122.2168,3.219324,-1.176334,-1.526921,0.3199555
11.49.19.792819, 0.2280196,-0.8327076,-2.74133,12.77171,-8.292954,89.54318,47.5003,-122.2168,3.393491,-1.216704,-1.480695,0.3734525
11.49.19.856822, 0.2477277,-1.017244,-2.834081,11.68911,-14.56504,78.11351,47.50031,-122.2168,3.713308,-1.285477,-1.389115,0.5022361
11.49.19.890824, 0.2626162,-1.090257,-2.876185,10.72222,-17.76235,72.4762,47.50031,-122.2168,3.861365,-1.31932,-1.338253,0.5810747
11.49.19.928827, 0.277102,-1.112516,-2.918105,9.451546,-20.8992,66.82688,47.50031,-122.2168,4.003944,-1.353694,-1.286712,0.6626246
11.49.19.965829, 0.2933261,-1.118701,-2.964364,7.835325,-23.98869,61.02428,47.50031,-122.2168,4.143434,-1.39069,-1.225461,0.7570445
11.49.20.005831, 0.3076853,-0.9995438,-3.011541,5.883195,-26.68755,55.17073,47.50031,-122.2168,4.278393,-1.42853,-1.172459,0.8436654
11.49.20.038833, 0.3185668,-0.8461009,-3.064198,3.561425,-28.92843,49.12429,47.50031,-122.2168,4.410332,-1.469731,-1.107693,0.9432563
11.49.20.074835, 0.322642,-0.694807,-3.115217,1.042954,-30.55044,43.24493,47.50031,-122.2168,4.530207,-1.512447,-1.03514,1.047187
11.49.20.107837, 0.3222734,-0.4262104,-3.167516,-1.689641,-31.35365,37.32832,47.50031,-122.2168,4.643724,-1.551026,-0.979258,1.140595
11.49.20.140839, 0.3117946,-0.1499947,-3.219661,-4.509818,-31.30188,31.46439,47.50031,-122.2168,4.748058,-1.588681,-0.917536,1.236474
11.49.20.176841, 0.2875301,0.1111909,-3.265407,-7.349888,-30.44376,25.61112,47.50031,-122.2168,4.843404,-1.624262,-0.8542706,1.333298
11.49.20.209843, 0.2594774,0.3548243,-3.317068,-10.22195,-28.77165,19.52455,47.50031,-122.2168,4.932787,-1.66056,-0.7921908,1.429929
11.49.20.287847, 0.1722158,0.7578653,-3.42116,-15.52537,-23.34702,7.036074,47.50031,-122.2168,5.088786,-1.713141,-0.6866363,1.626366
11.49.20.322849, 0.1266967,0.9332122,-3.485401,-18.07335,-19.27029,359.798,47.50031,-122.2168,5.164823,-1.73221,-0.6413553,1.731585
11.49.20.390853, 0.01991322,1.197985,-3.59165,-21.82747,-9.423576,344.7021,47.50031,-122.2168,5.300416,-1.731993,-0.5753608,1.957996
11.49.20.459857, -0.05620092,1.368732,-3.640953,-23.28051,1.979754,328.9283,47.50031,-122.2168,5.424271,-1.680145,-0.5413644,2.202031
11.49.20.525861, -0.08289926,1.496588,-3.643562,-21.94968,13.87393,313.2222,47.50031,-122.2169,5.541077,-1.568799,-0.5134498,2.473536
11.49.20.602865, -0.1026535,1.606555,-3.589967,-17.97897,24.96843,298.8591,47.50031,-122.2169,5.640823,-1.412577,-0.4299072,2.776266
11.49.20.637867, -0.09540319,1.580054,-3.542894,-14.8961,30.27822,291.812,47.50032,-122.2169,5.685084,-1.320238,-0.3745623,2.944927
11.49.20.673869, -0.08300654,1.542612,-3.481252,-11.31573,34.93611,285.3896,47.50032,-122.2169,5.719043,-1.222817,-0.291292,3.117544
11.49.20.710871, -0.06331807,1.302842,-3.40129,-7.326073,38.59241,279.5157,47.50032,-122.2169,5.745417,-1.138598,-0.2268183,3.283735
11.49.20.744873, -0.03240673,1.037149,-3.312134,-3.032552,41.25032,274.098,47.50032,-122.2169,5.761854,-1.048344,-0.1414731,3.456052
11.49.20.784876, 0.01253145,0.7870213,-3.207047,1.323586,42.93719,269.2208,47.50032,-122.2169,5.76528,-0.9600181,-0.03264586,3.62265
11.49.20.818877, 0.07413844,0.5191955,-3.094438,5.864501,43.74485,264.5828,47.50032,-122.2169,5.754756,-0.8683127,0.0848355,3.792473
11.49.20.850879, 0.1484022,0.2749134,-2.978418,10.32486,43.72331,260.3217,47.50032,-122.2169,5.729372,-0.7773728,0.2126888,3.957263
11.49.20.885881, 0.2321524,0.05608083,-2.860921,14.62105,43.00207,256.3935,47.50032,-122.2169,5.689594,-0.6863713,0.3436233,4.116222
11.49.20.921883, 0.3014623,-0.1372204,-2.735588,18.77578,41.66234,252.6296,47.50032,-122.2169,5.634651,-0.602957,0.477194,4.271953
11.49.20.953885, 0.3733848,-0.3265811,-2.610911,22.81461,39.70948,248.9316,47.50032,-122.2169,5.564156,-0.5102184,0.6083374,4.43002
11.49.20.989887, 0.4464588,-0.501331,-2.489354,26.60673,37.24377,245.3547,47.50033,-122.2169,5.480695,-0.4112279,0.7345617,4.584674
11.49.21.055891, 0.5357563,-0.8195381,-2.2537,33.4924,30.72502,238.0936,47.50033,-122.2169,5.276861,-0.2039712,0.9533099,4.896353
11.49.21.111894, 0.5889638,-1.089402,-2.035869,39.18416,22.42401,230.6214,47.50033,-122.2169,5.037712,0.04125489,1.126236,5.198529
11.49.21.162897, 0.5955828,-1.299509,-1.849101,43.32199,13.17401,223.168,47.50034,-122.2169,4.791812,0.3143189,1.249077,5.468674
11.49.21.213900, 0.5618407,-1.456248,-1.69164,46.10188,3.347113,215.7229,47.50034,-122.2169,4.545177,0.6187949,1.329505,5.706933
11.49.21.269903, 0.51852,-1.570939,-1.561503,47.72295,-6.820411,208.3439,47.50034,-122.2169,4.294291,0.9569721,1.407699,5.910084
11.49.21.328907, 0.4287138,-1.655412,-1.455261,48.25654,-17.45665,200.9498,47.50034,-122.2169,4.028278,1.354259,1.462329,6.08886
11.49.21.389910, 0.3262794,-1.714826,-1.378284,47.65866,-28.22873,193.8753,47.50035,-122.2169,3.739671,1.801237,1.546845,6.230608
11.49.21.442913, 0.2172737,-1.749658,-1.336221,45.99267,-38.47189,187.6622,47.50035,-122.2169,3.429173,2.28883,1.660548,6.328354
11.49.21.502917, 0.1233407,-1.599642,-1.327931,43.47081,-47.44394,182.6261,47.50035,-122.2168,3.096086,2.727664,1.829767,6.40251
11.49.21.540919, 0.08266658,-1.379606,-1.332274,41.91711,-51.17981,180.4657,47.50035,-122.2168,2.912687,2.93153,1.931843,6.43717
11.49.21.575921, 0.04007891,-1.116541,-1.346846,40.05709,-54.53467,178.3937,47.50036,-122.2168,2.702145,3.160206,2.048064,6.464861
11.49.21.634924, -0.04573424,-0.4977545,-1.403012,35.8063,-59.03599,174.9198,47.50036,-122.2168,2.237541,3.600879,2.302739,6.507908
11.49.21.698928, -0.1413944,0.03633593,-1.428193,31.13977,-60.82946,172.2559,47.50037,-122.2168,1.728843,4.030893,2.573917,6.524679
11.49.21.738930, -0.195907,0.2680891,-1.43224,28.69996,-60.89455,171.1689,47.50037,-122.2168,1.451111,4.249395,2.708085,6.529362
11.49.21.777932, -0.257766,0.4928734,-1.465512,25.99203,-60.43797,170.1274,47.50037,-122.2168,1.142174,4.479542,2.837823,6.536444
11.49.21.815934, -0.3262011,0.7252805,-1.632143,22.83288,-59.47545,169.0018,47.50037,-122.2168,0.8110417,4.70773,2.934956,6.555523
11.49.21.859937, -0.4035799,0.942545,-1.825828,19.19853,-58.02709,167.7549,47.50037,-122.2168,0.4648564,4.951447,3.004062,6.572273
11.49.21.906940, -0.4961932,1.154467,-2.057163,14.85439,-56.01132,166.2707,47.50038,-122.2168,0.09613819,5.237032,3.027116,6.583593
11.49.21.946942, -0.559402,-0.6576652,-3.157623,8.090742,-58.20755,163.2698,47.50038,-122.2168,0.01559651,5.421212,0.6620188,6.131116
11.49.21.984944, -0.05063166,-1.527268,-2.735675,2.692752,-62.01405,160.0827,47.50038,-122.2168,-0.0008041884,5.341711,0.1753952,5.907727
11.49.22.024946, 0.3175495,-2.214109,-2.415553,-1.801528,-67.01874,156.898,47.50038,-122.2168,0.002107204,5.281801,0.02696341,5.755441
11.49.22.062949, 0.5945108,-2.642215,-2.207285,-5.884571,-72.74685,153.6999,47.50039,-122.2168,-0.01178082,5.229824,0.1551256,5.668294
11.49.22.096951, 0.8379477,-2.968233,-1.959431,-9.496992,-78.88683,150.5925,47.50039,-122.2168,-0.05556498,5.177997,0.3869213,5.609299
11.49.22.137953, 1.040348,-3.314193,-1.758292,-12.81056,-85.45989,147.5692,47.50039,-122.2168,-0.1266963,5.126327,0.6111681,5.54972
11.49.22.176955, 1.233835,-3.747667,-1.485515,-15.85139,-92.91155,144.4911,47.50039,-122.2168,-0.2267246,5.074062,0.8269261,5.484598
11.49.22.221958, 1.38498,-4.206482,-1.238372,-18.74145,-101.2953,141.4064,47.50039,-122.2168,-0.3549243,5.022388,1.038133,5.412319
11.49.22.262960, 1.511045,-4.729784,-0.9164861,-21.4676,-111.0353,138.2041,47.50039,-122.2168,-0.5165138,4.967672,1.253123,5.332981
11.49.22.305963, 1.477761,-5.221495,-0.459271,-23.67284,-121.9855,135.1392,47.5004,-122.2168,-0.6897029,4.923958,1.323903,5.196956
11.49.22.350965, 1.217044,-4.225618,0.08097859,-25.00596,-130.8017,132.3608,47.5004,-122.2168,-0.7610493,4.855677,0.5506131,4.752786
11.49.22.386967, 1.199856,-3.238877,0.3833042,-26.16781,-137.3065,129.2594,47.5004,-122.2168,-0.7599468,4.576173,0.01011808,4.47979
11.49.22.423969, 1.239677,-2.686015,0.6229604,-27.26297,-142.0508,125.8907,47.5004,-122.2168,-0.7119983,4.308961,-0.3466289,4.277369
11.49.22.457971, 1.253332,-2.405212,0.757131,-28.40884,-145.9137,122.3745,47.5004,-122.2168,-0.6459804,4.10642,-0.4952284,4.123549
11.49.22.519975, 1.231797,-2.259292,0.9704335,-30.64039,-152.1541,115.3182,47.5004,-122.2168,-0.5407028,3.871272,-0.3734715,3.926759
11.49.22.577978, 1.171078,-2.263218,1.128072,-32.81021,-157.4441,108.2962,47.50041,-122.2168,-0.4976684,3.711485,-0.1211727,3.776379
11.49.22.631981, 1.102146,-2.341966,1.248284,-34.91964,-162.2236,101.3919,47.50041,-122.2168,-0.4970352,3.547666,0.03325875,3.614279
11.49.22.684984, 1.043548,-2.494908,1.328365,-36.99761,-166.7492,94.81143,47.50041,-122.2168,-0.5065126,3.37557,0.05248871,3.429964
11.49.22.736987, 0.9781824,-2.708766,1.37305,-39.15079,-171.4791,88.38947,47.50041,-122.2168,-0.5085344,3.212308,0.004299939,3.231887
11.49.22.804991, 0.8880098,-2.948992,1.386697,-41.35633,-176.5889,82.2298,47.50042,-122.2168,-0.5017588,3.078688,-0.03956663,3.04131
11.49.22.841993, 0.8247139,-3.092975,1.394252,-42.60685,-179.753,78.80549,47.50042,-122.2168,-0.4957659,3.016721,-0.05149731,2.939567
11.49.22.906997, 0.6450928,-3.369368,1.345342,-45.1866,172.8205,71.92057,47.50042,-122.2168,-0.4832576,2.913563,-0.04718619,2.743845
11.49.22.969000, 0.4226428,-3.613242,1.241073,-47.58574,164.2858,65.60556,47.50042,-122.2168,-0.4753664,2.836749,-0.01903282,2.577322
11.49.23.036004, 0.1910284,-3.819845,1.075795,-49.64534,154.5924,60.09229,47.50042,-122.2168,-0.4728983,2.76634,0.006702017,2.449156
11.49.23.072006, 0.07487518,-3.903885,0.9621946,-50.51336,149.2084,57.64598,47.50042,-122.2168,-0.4737707,2.725659,0.02041725,2.401869
11.49.23.137010, -0.1392624,-4.037889,0.731268,-51.87278,137.3279,53.26348,47.50042,-122.2168,-0.4787664,2.614038,0.04246554,2.339499
11.49.23.199014, -0.5702247,-3.763235,0.6041269,-52.48376,126.0065,48.79503,47.50042,-122.2168,-0.4662927,2.434801,-0.1419948,2.295026
11.49.23.258017, -1.096474,-3.30087,0.5683845,-52.17459,119.0399,41.99689,47.50042,-122.2168,-0.4095499,2.234331,-0.2715575,2.254862
11.49.23.318020, -1.49032,-2.979311,0.4931071,-51.34623,114.8687,33.49139,47.50043,-122.2168,-0.363458,2.074364,-0.1839491,2.203662
11.49.23.377024, -1.840443,-2.679562,0.389156,-49.97796,112.7954,23.70571,47.50043,-122.2168,-0.3453599,1.938308,-0.03771682,2.133952
11.49.23.447028, -2.183811,-2.352163,0.2691526,-47.93277,112.4913,12.97227,47.50043,-122.2168,-0.3558327,1.815175,0.1008317,2.042602
11.49.23.505031, -2.562964,-1.948427,0.1235355,-44.64582,113.868,0.5429287,47.50043,-122.2168,-0.3937435,1.694889,0.2237342,1.916208
11.49.23.540033, -2.744106,-1.731276,0.05398698,-42.59401,115.0161,354.3779,47.50043,-122.2168,-0.4204211,1.643698,0.2770032,1.845546
11.49.23.602037, -3.094334,-1.2744,-0.1229196,-37.20976,117.9748,341.7838,47.50043,-122.2167,-0.4906414,1.552904,0.374422,1.681868
11.49.23.670041, -3.360511,-0.8927578,-0.3226517,-30.24035,120.995,329.8571,47.50043,-122.2167,-0.5752954,1.480719,0.4211306,1.480709
11.49.23.706043, -3.39431,-0.8738561,-0.4246659,-26.15327,121.9735,324.2279,47.50043,-122.2167,-0.6127397,1.444757,0.3609371,1.325045
11.49.23.743045, -3.34006,-0.939838,-0.5255789,-21.79757,122.2624,318.9453,47.50043,-122.2167,-0.6403837,1.416628,0.2634508,1.156484
11.49.23.793048, -3.243443,-1.054286,-0.647551,-17.25903,121.7712,314.043,47.50043,-122.2167,-0.6617669,1.393408,0.2027533,1.005599
11.49.23.832050, -3.113157,-1.16336,-0.773357,-12.17396,120.3977,309.0541,47.50043,-122.2167,-0.6815549,1.367492,0.168842,0.8634884
11.49.23.872052, -2.992306,-1.21737,-0.9330509,-7.065926,118.3925,304.4347,47.50043,-122.2167,-0.6989955,1.33254,0.1511231,0.7622974
11.49.23.912054, -2.812838,-1.215101,-0.9714066,-2.177542,115.9316,299.9905,47.50043,-122.2167,-0.7070342,1.281631,0.07329267,0.7112213
11.49.23.952057, -2.403822,-0.4924808,-0.7526592,1.688577,114.7677,295.9194,47.50043,-122.2167,-0.6734399,1.160161,-0.2519539,0.7619361
11.49.23.990059, -2.011339,-0.3786123,-0.1853118,3.960559,113.703,291.9896,47.50043,-122.2167,-0.6387876,1.106426,-0.2582343,0.7536323
11.49.24.029061, -1.689227,-0.2862027,0.2242937,5.012016,112.7917,288.3248,47.50043,-122.2167,-0.6200497,1.052966,-0.1369079,0.7481888
11.49.24.072064, -1.24948,-0.02139899,0.7673826,4.507982,112.5168,285.0829,47.50043,-122.2167,-0.6084056,0.9659308,-0.08265148,0.7519256
11.49.24.117066, -1.059642,0.1850808,0.9294384,3.463113,112.7738,282.0016,47.50043,-122.2167,-0.6203698,0.9077451,0.09990711,0.7513819
11.49.24.160069, -0.8716235,0.5006977,1.041562,1.986878,113.8668,279.1315,47.50043,-122.2167,-0.6413481,0.8223734,0.1629906,0.7615547
11.49.24.201071, -0.7336439,0.5854607,1.074307,0.3520713,115.2477,276.4812,47.50043,-122.2167,-0.6624022,0.7296062,0.1608534,0.7706094
11.49.24.244073, -0.6435925,0.4706385,1.085767,-1.331858,116.4243,273.976,47.50043,-122.2167,-0.6764616,0.6477322,0.1105094,0.7709485
11.49.24.286076, -0.6001725,0.2350887,1.04628,-2.937086,117.1098,271.5508,47.50043,-122.2167,-0.6844081,0.5785578,0.06365776,0.7616081
11.49.24.330078, -0.5796503,0.02623351,0.987259,-4.410176,117.3508,269.2102,47.50043,-122.2167,-0.687185,0.5153629,0.02528368,0.7454488
11.49.24.373081, -0.5767295,-0.1015729,0.8823377,-5.667964,117.3271,266.9552,47.50043,-122.2167,-0.6847472,0.4546088,-0.01239719,0.7250176
11.49.24.413083, -0.5867249,-0.1503655,0.7749845,-6.682433,117.2159,264.7991,47.50043,-122.2167,-0.6806004,0.4009738,-0.02546995,0.7020154
11.49.24.455085, -0.6055382,-0.1600482,0.6526889,-7.40814,117.0999,262.7614,47.50044,-122.2167,-0.6767861,0.3543204,-0.0233196,0.678942
11.49.24.495088, -0.6285456,-0.146231,0.5384353,-7.865752,117.0252,260.8117,47.50044,-122.2167,-0.6741499,0.3133699,-0.0148941,0.656081
11.49.24.537090, -0.6521467,-0.1356975,0.4186191,-8.043196,116.9724,258.9622,47.50044,-122.2167,-0.6728243,0.2773049,-0.006807011,0.6334403
11.49.24.580093, -0.6735449,-0.1298372,0.3130892,-7.976064,116.9223,257.1765,47.50044,-122.2167,-0.6723615,0.2451923,-0.0004559044,0.610449
11.49.24.626095, -0.6905537,-0.140015,0.2081817,-7.666587,116.8272,255.4557,47.50044,-122.2167,-0.6724376,0.2163085,0.003534533,0.5870171
11.49.24.667098, -0.7017085,-0.156214,0.1218292,-7.152394,116.6655,253.7746,47.50044,-122.2167,-0.6728047,0.1899744,0.005457036,0.5629649
11.49.24.708100, -0.7053831,-0.1807743,0.04371744,-6.473216,116.4155,252.1867,47.50044,-122.2167,-0.6734179,0.1664253,0.006544441,0.5392807
11.49.24.750102, -0.6990283,-0.1998372,-0.01047596,-5.696548,116.0921,250.6844,47.50044,-122.2167,-0.6739922,0.1451229,0.00635725,0.5162243
11.49.24.791105, -0.677769,-0.1214174,-0.04233005,-4.882985,115.9292,249.2615,47.50044,-122.2167,-0.6711165,0.1224531,-0.01934212,0.4930364
11.49.24.833107, -0.6490396,-0.08773041,-0.04277487,-4.111065,115.8242,247.914,47.50044,-122.2167,-0.6694518,0.1045602,-0.009963783,0.4701023
11.49.24.875109, -0.6109505,-0.05855785,-0.02862938,-3.410728,115.7677,246.6304,47.50044,-122.2167,-0.6684071,0.08772559,-0.006169434,0.4481607
11.49.24.916112, -0.566465,-0.03764021,0.00746671,-2.836118,115.7448,245.4041,47.50044,-122.2167,-0.6678399,0.07223146,-0.003405104,0.4269614
11.49.24.961114, -0.5176806,-0.02859402,0.04821756,-2.402003,115.731,244.2427,47.50044,-122.2167,-0.6673033,0.05781561,-0.002458353,0.4063447
11.49.25.001117, -0.4669513,-0.02250534,0.1003689,-2.13113,115.7234,243.1267,47.50044,-122.2167,-0.6668897,0.04434935,-0.001606187,0.3860222
11.49.25.045119, -0.4164359,-0.02198939,0.1480185,-2.017063,115.7119,242.0733,47.50044,-122.2167,-0.6667061,0.03189833,-0.0006081948,0.3662105
11.49.25.089122, -0.3681527,-0.01670823,0.1979104,-2.061986,115.7112,241.0556,47.50044,-122.2167,-0.6664988,0.02020678,-0.000768179,0.3465713
11.49.25.150125, -0.3236294,-0.01495257,0.2362714,-2.239579,115.7149,240.086,47.50044,-122.2167,-0.66646,0.009540207,-0.0001013816,0.3273303
11.49.25.192128, -0.2840793,-0.008809428,0.2708812,-2.54858,115.7367,239.1264,47.50044,-122.2167,-0.6663548,-0.0003939503,-3.516773E-05,0.3079789
11.49.25.237130, -0.2518127,-0.01013867,0.2887324,-2.929107,115.7578,238.2325,47.50044,-122.2167,-0.6665005,-0.00882705,0.001698997,0.2897635
11.49.25.280133, -0.2275458,-0.008673117,0.2987936,-3.360694,115.7862,237.3784,47.50044,-122.2167,-0.6665976,-0.01607838,0.001216059,0.272413
11.49.25.323135, -0.2099559,-0.01356471,0.2933461,-3.794959,115.8053,236.5771,47.50044,-122.2167,-0.6668728,-0.02197887,0.001911151,0.256127
11.49.25.367138, -0.1998955,-0.01436784,0.280994,-4.210228,115.8254,235.8152,47.50044,-122.2167,-0.6669496,-0.02673445,0.0005350377,0.2407978
11.49.25.410140, -0.1949582,-0.0205958,0.256026,-4.575839,115.8318,235.0886,47.50044,-122.2167,-0.6670029,-0.03033948,0.001010816,0.2262229
11.49.25.466143, -0.1953311,-0.02257144,0.227956,-4.875107,115.8347,234.3976,47.50044,-122.2167,-0.6670156,-0.03292869,8.816828E-05,0.2125483
11.49.25.508146, -0.1985308,-0.02610254,0.190911,-5.095831,115.8285,233.715,47.50044,-122.2167,-0.6669098,-0.03464443,-0.0007128098,0.1990329
11.49.25.552148, -0.2042414,-0.02723836,0.1559588,-5.22621,115.8189,233.0713,47.50044,-122.2167,-0.6667097,-0.03541928,-0.0008552489,0.1864128
11.49.25.596151, -0.2099098,-0.02911735,0.1189237,-5.265598,115.8025,232.4574,47.50044,-122.2167,-0.666601,-0.03545976,-0.000747533,0.1744138
11.49.25.638153, -0.2152873,-0.02745619,0.08809241,-5.228862,115.788,231.8678,47.50044,-122.2167,-0.6663034,-0.03488266,-0.002053169,0.1629837
11.49.25.684156, -0.2184731,-0.02860424,0.05965978,-5.125249,115.7676,231.3097,47.50044,-122.2167,-0.6660486,-0.03380827,-0.001824284,0.1521316
11.49.25.725158, -0.219669,-0.02700459,0.03974009,-4.973927,115.7479,230.7647,47.50044,-122.2167,-0.665709,-0.03236805,-0.002343456,0.1416214
11.49.25.768161, -0.2177103,-0.02586036,0.02424545,-4.79205,115.7276,230.2483,47.50044,-122.2167,-0.6653053,-0.03072455,-0.002822994,0.1316406
11.49.25.810163, -0.2133684,-0.0244913,0.01768051,-4.600998,115.7078,229.7508,47.50044,-122.2167,-0.6650274,-0.0289434,-0.001962762,0.1220819
11.49.25.854165, -0.2058355,-0.02237999,0.01554198,-4.415166,115.6901,229.2769,47.50044,-122.2167,-0.6646332,-0.02717035,-0.002791408,0.1129901
11.49.25.896168, -0.1964143,-0.0203893,0.02053656,-4.24975,115.6747,228.816,47.50044,-122.2167,-0.6642657,-0.02538141,-0.002587597,0.1041307
11.49.25.939170, -0.1851014,-0.01943426,0,-4.052865,115.6567,228.4071,47.50044,-122.2167,-0.6641017,0,-0.001282802,0
11.49.25.985173, -0.1712487,-0.01949131,0,-3.870759,115.6351,228.0287,47.50044,-122.2167,-0.6629356,0,-0.008295749,0
11.49.26.031176, -0.1552361,-0.02535386,0,-3.702643,115.5948,227.6791,47.50044,-122.2167,-0.662483,0,-0.003158987,0
11.49.26.093179, -0.1379179,-0.01657659,0,-3.551189,115.5727,227.3636,47.50044,-122.2167,-0.6620129,0,-0.003289032,0
11.49.26.139182, -0.1182643,-0.01234782,0,-3.417116,115.5574,227.084,47.50044,-122.2167,-0.6618628,0,-0.0009984828,0
11.49.26.184184, -0.09788742,-0.007744976,0,-3.305981,115.5506,226.8521,47.50044,-122.2167,-0.661787,0,-0.0005033147,0
11.49.26.237187, -0.07690209,-0.004237112,0,-3.219345,115.5499,226.6713,47.50044,-122.2167,-0.6616299,0,-0.0005022171,0
11.49.26.284190, -0.05563055,-0.00405395,0,-3.155073,115.5465,226.5371,47.50044,-122.2167,-0.6616699,0,0.000260576,0
11.49.26.333193, -0.0342596,-0.002085251,0,-3.115587,115.5455,226.4547,47.50044,-122.2167,-0.6616188,0,-0.000333586,0
11.49.26.382196, -0.01355217,-0.002143066,0,-3.099737,115.5415,226.4216,47.50044,-122.2167,-0.6616659,0,0.0001876541,0
11.49.26.449199, 0.006363825,0.0005626929,0,-3.107238,115.5422,226.4373,47.50044,-122.2167,-0.6616862,0,0.0001299957,0
11.49.26.497202, 0.02490601,0.001836216,0,-3.136991,115.5438,226.4994,47.50044,-122.2167,-0.6617563,0,0.0004413065,0
11.49.26.543205, 0.04225443,0.004052598,0,-3.187576,115.5492,226.605,47.50044,-122.2167,-0.661682,0,5.116445E-05,0
11.49.26.589208, 0.05770641,0.003189786,0,-3.255954,115.5499,226.7478,47.50044,-122.2167,-0.6617759,0,0.0005970333,0
11.49.26.634210, 0.07127031,0.005372959,0,-3.339494,115.5545,226.9223,47.50044,-122.2167,-0.661765,0,-7.022759E-05,0
11.49.26.680213, 0.08241244,0.00576788,0,-3.435104,115.5582,227.1219,47.50044,-122.2167,-0.6619164,0,0.0008682202,0
11.49.26.724215, 0.09132636,0.008485986,0,-3.540199,115.5674,227.3414,47.50044,-122.2167,-0.6619591,0,0.000279695,0
11.49.26.778218, 0.09781941,0.008928158,0,-3.651474,115.5763,227.5737,47.50044,-122.2167,-0.6621043,0,0.0009615922,0
11.49.26.823221, 0.1026414,0.009141085,0,-3.770961,115.5848,227.823,47.50044,-122.2167,-0.6621232,0,0.0006543446,0
11.49.26.870224, 0.1051629,0.008917755,0,-3.892452,115.5917,228.0765,47.50044,-122.2167,-0.662228,0,0.0006844656,0
11.49.26.915226, 0.1055743,0.009791336,0,-4.014755,115.6003,228.3316,47.50044,-122.2167,-0.6623584,0,0.0008486717,0
11.49.26.963229, 0.1040374,0.009315033,0,-4.133701,115.6072,228.5797,47.50044,-122.2167,-0.6625828,0,0.001362239,0
11.49.27.007231, 0.1008755,0.01096743,0,-4.250362,115